Time (secs),A/C Tail Number,A/C Type,City Pair - To,City Pair - From,Flight Number,Date - Day,Date - Month,UTC - Hour,UTC - Minute,UTC - Second,Air / Gnd,Ground Speed,Computed Airspeed,Mach (derived),Pitch Angle,Roll Angle,Altitude (1013.25mB),Selected Baro Setting Capt,Present Pos - Latitude,Present Pos - Longitude,Magnetic Heading,True Heading,Fuel Flow Eng 1,Fuel Flow Eng 2,Actual Gross Weight,Total Air Temp,Drift Angle,Wind Direction True,Wind Speed,EGT Eng 1,EGT Eng 2,_EPR Actual Eng 1,_EPR Actual Eng 2,N1 Actual Eng 1,N1 Actual Eng 2,N2 Actual Eng 1,N2 Actual Eng 2,Throttle Angle Eng 1,Throttle Angle Eng 2,Pack 1 Flow Ctl Valve,Pack 2 Flow Ctl Valve,Gear (left),Land Gear Squat Switch - Nose,Flap Handle (derived),Flap Angle,Reverser Deployed Eng 1,Reverser Deployed Eng 2,Left Spoiler 1 Out,Right Spoiler 1 Out,Spoiler Pos LH 2,Spoiler Pos LH 4,Spoiler Pos LH 5,Spoiler Pos RH 2,Spoiler Pos RH 3,Spoiler Pos RH 5,Speed Brake Command
0.000,,*A319 (5),,*EFHK,*FIN913  ,*16,,*8,,,*G - Gnd (7),*0,*0.0,*0.00,*D 0.70,*L 0.7,*260,,*N60 05.08,,*39.0,*46.1,*0,*350,,,,*0.0,*0,*109,*481,*1.879,*0.170,*0.0,*20.1,*0.0,*60.8,*-2.8,*-2.8,*F/CLSD (0),*F/CLSD (0),*Gear down - ground (3),*Gnd (1),*0.0,*0.0,*Normal (0),*Normal (0),*Not Out (0),*Not Out (0),* 0.0,* 0.0,* 0.0,* 0.0,* 0.0,* 0.0,*NOTCMD (0)
0.250,,,,,,,,,,,,,,,*D 0.70,,,,,,,,,,,,,,,,,,,,,,,,,,,,,,,,,,,,,,,,,
0.500,,,,,,,,,,,,,,,*D 0.70,*L 0.7,,,,,,,,,,,,,,,,,,,,,,,,,,,,,,,,*Not Out (0),*Not Out (0),,,,,,,
0.750,,,,,,,,,,,,,,,*D 0.70,,,,,,,,,,,,,,,,,,,,,,,,,,,,,,,,,,,,,,,,,
1.000,*.OH-LVI,,*EDDT,,,,*6,,,,*G - Gnd (7),*0,*0.0,,*D 0.70,*L 0.7,*260,*1009,,,*39.0,*46.1,*0,*345,,*25.3,,,,*109,*481,*1.879,*0.170,*0.0,*20.0,*0.5,*60.8,*-2.8,*-2.8,,,*Gear down - ground (3),*Gnd (1),,,*Normal (0),*Normal (0),*Not Out (0),*Not Out (0),* 0.0,* 0.0,* 0.0,* 0.0,* 0.0,* 0.0,
1.250,,,,,,,,,,,,,,,*D 0.70,,,,,,,,,,,,,,,,,,,,,,,,,,,,,,,,,,,,,,,,,
1.500,,,,,,,,,,,,,,,*D 0.70,*L 0.7,,,,,,,,,,,,,,,,,,,,,,,,,,,,,,,,*Not Out (0),*Not Out (0),,,,,,,
1.750,,,,,,,,,,,,,,,*D 0.70,,,,,,,,,,,,,,,,,,,,,,,,,,,,,,,,,,,,,,,,,
2.000,,,,,,,,,,,*G - Gnd (7),*0,*0.0,,*D 0.70,*L 0.7,*260,,,*E024 57.74,*39.0,*46.1,*0,*350,*60255,,*0.00,,,*109,*481,*1.873,*0.168,*0.0,*20.0,*2.0,*60.8,*-2.8,*-2.8,*F/CLSD (0),*F/CLSD (0),*Gear down - ground (3),*Gnd (1),*0.0,*0.0,*Normal (0),*Normal (0),*Not Out (0),*Not Out (0),* 0.0,* 0.0,* 0.0,* 0.0,* 0.0,* 0.0,
2.250,,,,,,,,,,,,,,,*D 0.70,,,,,,,,,,,,,,,,,,,,,,,,,,,,,,,,,,,,,,,,,
2.500,,,,,,,,,,,,,,,*D 0.70,*L 0.7,,,,,,,,,,,,,,,,,,,,,,,,,,,,,,,,*Not Out (0),*Not Out (0),,,,,,,
2.750,,,,,,,,,,,,,,,*D 0.70,,,,,,,,,,,,,,,,,,,,,,,,,,,,,,,,,,,,,,,,,
3.000,,,,,,,,,*26,*32,*G - Gnd (7),*0,*0.0,,*D 0.70,*L 0.7,*260,,,,*39.0,*46.1,*0,*345,,*25.3,,,,*109,*480,*1.871,*0.172,*0.0,*20.0,*3.9,*60.6,*-2.8,*-2.8,,,*Gear down - ground (3),*Gnd (1),,,*Normal (0),*Normal (0),*Not Out (0),*Not Out (0),* 0.0,* 0.0,* 0.0,* 0.0,* 0.0,* 0.0,
3.250,,,,,,,,,,,,,,,*D 0.70,,,,,,,,,,,,,,,,,,,,,,,,,,,,,,,,,,,,,,,,,
3.500,,,,,,,,,,,,,,,*D 0.70,*L 0.7,,,,,,,,,,,,,,,,,,,,,,,,,,,,,,,,*Not Out (0),*Not Out (0),,,,,,,
3.750,,,,,,,,,,,,,,,*D 0.70,,,,,,,,,,,,,,,,,,,,,,,,,,,,,,,,,,,,,,,,,
4.000,,*A319 (5),,*EFHK,*FIN913  ,*16,,*8,,,*G - Gnd (7),*0,*0.0,*0.00,*D 0.70,*L 0.7,*260,,*N60 05.08,,*39.0,*46.1,*0,*350,,,,*0.0,*0,*109,*481,*1.879,*0.170,*0.0,*20.1,*0.0,*60.8,*-2.8,*-2.8,*F/CLSD (0),*F/CLSD (0),*Gear down - ground (3),*Gnd (1),*0.0,*0.0,*Normal (0),*Normal (0),*Not Out (0),*Not Out (0),* 0.0,* 0.0,* 0.0,* 0.0,* 0.0,* 0.0,*NOTCMD (0)
4.250,,,,,,,,,,,,,,,*D 0.70,,,,,,,,,,,,,,,,,,,,,,,,,,,,,,,,,,,,,,,,,
4.500,,,,,,,,,,,,,,,*D 0.70,*L 0.7,,,,,,,,,,,,,,,,,,,,,,,,,,,,,,,,*Not Out (0),*Not Out (0),,,,,,,
4.750,,,,,,,,,,,,,,,*D 0.70,,,,,,,,,,,,,,,,,,,,,,,,,,,,,,,,,,,,,,,,,
5.000,*.OH-LVI,,*EDDT,,,,*6,,,,*G - Gnd (7),*0,*0.0,,*D 0.70,*L 0.7,*260,*1009,,,*39.0,*46.1,*0,*345,,*25.3,,,,*109,*481,*1.879,*0.170,*0.0,*20.0,*0.5,*60.8,*-2.8,*-2.8,,,*Gear down - ground (3),*Gnd (1),,,*Normal (0),*Normal (0),*Not Out (0),*Not Out (0),* 0.0,* 0.0,* 0.0,* 0.0,* 0.0,* 0.0,
5.250,,,,,,,,,,,,,,,*D 0.70,,,,,,,,,,,,,,,,,,,,,,,,,,,,,,,,,,,,,,,,,
5.500,,,,,,,,,,,,,,,*D 0.70,*L 0.7,,,,,,,,,,,,,,,,,,,,,,,,,,,,,,,,*Not Out (0),*Not Out (0),,,,,,,
5.750,,,,,,,,,,,,,,,*D 0.70,,,,,,,,,,,,,,,,,,,,,,,,,,,,,,,,,,,,,,,,,
6.000,,,,,,,,,,,*G - Gnd (7),*0,*0.0,,*D 0.70,*L 0.7,*260,,,*E024 57.74,*39.0,*46.1,*0,*350,*60255,,*0.00,,,*109,*481,*1.873,*0.168,*0.0,*20.0,*2.0,*60.8,*-2.8,*-2.8,*F/CLSD (0),*F/CLSD (0),*Gear down - ground (3),*Gnd (1),*0.0,*0.0,*Normal (0),*Normal (0),*Not Out (0),*Not Out (0),* 0.0,* 0.0,* 0.0,* 0.0,* 0.0,* 0.0,
6.250,,,,,,,,,,,,,,,*D 0.70,,,,,,,,,,,,,,,,,,,,,,,,,,,,,,,,,,,,,,,,,
6.500,,,,,,,,,,,,,,,*D 0.70,*L 0.7,,,,,,,,,,,,,,,,,,,,,,,,,,,,,,,,*Not Out (0),*Not Out (0),,,,,,,
6.750,,,,,,,,,,,,,,,*D 0.70,,,,,,,,,,,,,,,,,,,,,,,,,,,,,,,,,,,,,,,,,
7.000,,,,,,,,,*26,*32,*G - Gnd (7),*0,*0.0,,*D 0.70,*L 0.7,*260,,,,*39.0,*46.1,*0,*345,,*25.3,,,,*109,*480,*1.871,*0.172,*0.0,*20.0,*3.9,*60.6,*-2.8,*-2.8,,,*Gear down - ground (3),*Gnd (1),,,*Normal (0),*Normal (0),*Not Out (0),*Not Out (0),* 0.0,* 0.0,* 0.0,* 0.0,* 0.0,* 0.0,
7.250,,,,,,,,,,,,,,,*D 0.70,,,,,,,,,,,,,,,,,,,,,,,,,,,,,,,,,,,,,,,,,
7.500,,,,,,,,,,,,,,,*D 0.70,*L 0.7,,,,,,,,,,,,,,,,,,,,,,,,,,,,,,,,*Not Out (0),*Not Out (0),,,,,,,
7.750,,,,,,,,,,,,,,,*D 0.70,,,,,,,,,,,,,,,,,,,,,,,,,,,,,,,,,,,,,,,,,
8.000,,*A319 (5),,*EFHK,*FIN913  ,*16,,*8,,,*G - Gnd (7),*0,*0.0,*0.00,*D 0.70,*L 0.7,*260,,*N60 05.08,,*39.0,*46.1,*0,*350,,,,*0.0,*0,*109,*481,*1.879,*0.170,*0.0,*20.1,*0.0,*60.8,*-2.8,*-2.8,*F/CLSD (0),*F/CLSD (0),*Gear down - ground (3),*Gnd (1),*0.0,*0.0,*Normal (0),*Normal (0),*Not Out (0),*Not Out (0),* 0.0,* 0.0,* 0.0,* 0.0,* 0.0,* 0.0,*NOTCMD (0)
8.250,,,,,,,,,,,,,,,*D 0.70,,,,,,,,,,,,,,,,,,,,,,,,,,,,,,,,,,,,,,,,,
8.500,,,,,,,,,,,,,,,*D 0.70,*L 0.7,,,,,,,,,,,,,,,,,,,,,,,,,,,,,,,,*Not Out (0),*Not Out (0),,,,,,,
8.750,,,,,,,,,,,,,,,*D 0.70,,,,,,,,,,,,,,,,,,,,,,,,,,,,,,,,,,,,,,,,,
9.000,*.OH-LVI,,*EDDT,,,,*6,,,,*G - Gnd (7),*0,*0.0,,*D 0.70,*L 0.7,*260,*1009,,,*39.0,*46.1,*0,*345,,*25.3,,,,*109,*481,*1.879,*0.170,*0.0,*20.0,*0.5,*60.8,*-2.8,*-2.8,,,*Gear down - ground (3),*Gnd (1),,,*Normal (0),*Normal (0),*Not Out (0),*Not Out (0),* 0.0,* 0.0,* 0.0,* 0.0,* 0.0,* 0.0,
9.250,,,,,,,,,,,,,,,*D 0.70,,,,,,,,,,,,,,,,,,,,,,,,,,,,,,,,,,,,,,,,,
9.500,,,,,,,,,,,,,,,*D 0.70,*L 0.7,,,,,,,,,,,,,,,,,,,,,,,,,,,,,,,,*Not Out (0),*Not Out (0),,,,,,,
9.750,,,,,,,,,,,,,,,*D 0.70,,,,,,,,,,,,,,,,,,,,,,,,,,,,,,,,,,,,,,,,,
10.000,,,,,,,,,,,*G - Gnd (7),*0,*0.0,,*D 0.70,*L 0.7,*260,,,*E024 57.74,*39.0,*46.1,*0,*350,*60255,,*0.00,,,*109,*481,*1.873,*0.168,*0.0,*20.0,*2.0,*60.8,*-2.8,*-2.8,*F/CLSD (0),*F/CLSD (0),*Gear down - ground (3),*Gnd (1),*0.0,*0.0,*Normal (0),*Normal (0),*Not Out (0),*Not Out (0),* 0.0,* 0.0,* 0.0,* 0.0,* 0.0,* 0.0,
10.250,,,,,,,,,,,,,,,*D 0.70,,,,,,,,,,,,,,,,,,,,,,,,,,,,,,,,,,,,,,,,,
10.500,,,,,,,,,,,,,,,*D 0.70,*L 0.7,,,,,,,,,,,,,,,,,,,,,,,,,,,,,,,,*Not Out (0),*Not Out (0),,,,,,,
10.750,,,,,,,,,,,,,,,*D 0.70,,,,,,,,,,,,,,,,,,,,,,,,,,,,,,,,,,,,,,,,,
11.000,,,,,,,,,*26,*32,*G - Gnd (7),*0,*0.0,,*D 0.70,*L 0.7,*260,,,,*39.0,*46.1,*0,*345,,*25.3,,,,*109,*480,*1.871,*0.172,*0.0,*20.0,*3.9,*60.6,*-2.8,*-2.8,,,*Gear down - ground (3),*Gnd (1),,,*Normal (0),*Normal (0),*Not Out (0),*Not Out (0),* 0.0,* 0.0,* 0.0,* 0.0,* 0.0,* 0.0,
11.250,,,,,,,,,,,,,,,*D 0.70,,,,,,,,,,,,,,,,,,,,,,,,,,,,,,,,,,,,,,,,,
11.500,,,,,,,,,,,,,,,*D 0.70,*L 0.7,,,,,,,,,,,,,,,,,,,,,,,,,,,,,,,,*Not Out (0),*Not Out (0),,,,,,,
11.750,,,,,,,,,,,,,,,*D 0.70,,,,,,,,,,,,,,,,,,,,,,,,,,,,,,,,,,,,,,,,,
12.000,,*A319 (5),,*EFHK,*FIN913  ,*16,,*8,,,*G - Gnd (7),*0,*0.0,*0.00,*D 0.70,*L 0.7,*260,,*N60 05.08,,*39.0,*46.1,*0,*350,,,,*0.0,*0,*109,*481,*1.879,*0.170,*0.0,*20.1,*0.0,*60.8,*-2.8,*-2.8,*F/CLSD (0),*F/CLSD (0),*Gear down - ground (3),*Gnd (1),*0.0,*0.0,*Normal (0),*Normal (0),*Not Out (0),*Not Out (0),* 0.0,* 0.0,* 0.0,* 0.0,* 0.0,* 0.0,*NOTCMD (0)
12.250,,,,,,,,,,,,,,,*D 0.70,,,,,,,,,,,,,,,,,,,,,,,,,,,,,,,,,,,,,,,,,
12.500,,,,,,,,,,,,,,,*D 0.70,*L 0.7,,,,,,,,,,,,,,,,,,,,,,,,,,,,,,,,*Not Out (0),*Not Out (0),,,,,,,
12.750,,,,,,,,,,,,,,,*D 0.70,,,,,,,,,,,,,,,,,,,,,,,,,,,,,,,,,,,,,,,,,
13.000,*.OH-LVI,,*EDDT,,,,*6,,,,*G - Gnd (7),*0,*0.0,,*D 0.70,*L 0.7,*260,*1009,,,*39.0,*46.1,*0,*345,,*25.3,,,,*109,*481,*1.879,*0.170,*0.0,*20.0,*0.5,*60.8,*-2.8,*-2.8,,,*Gear down - ground (3),*Gnd (1),,,*Normal (0),*Normal (0),*Not Out (0),*Not Out (0),* 0.0,* 0.0,* 0.0,* 0.0,* 0.0,* 0.0,
13.250,,,,,,,,,,,,,,,*D 0.70,,,,,,,,,,,,,,,,,,,,,,,,,,,,,,,,,,,,,,,,,
13.500,,,,,,,,,,,,,,,*D 0.70,*L 0.7,,,,,,,,,,,,,,,,,,,,,,,,,,,,,,,,*Not Out (0),*Not Out (0),,,,,,,
13.750,,,,,,,,,,,,,,,*D 0.70,,,,,,,,,,,,,,,,,,,,,,,,,,,,,,,,,,,,,,,,,
14.000,,,,,,,,,,,*G - Gnd (7),*0,*0.0,,*D 0.70,*L 0.7,*260,,,*E024 57.74,*39.0,*46.1,*0,*350,*60255,,*0.00,,,*109,*481,*1.873,*0.168,*0.0,*20.0,*2.0,*60.8,*-2.8,*-2.8,*F/CLSD (0),*F/CLSD (0),*Gear down - ground (3),*Gnd (1),*0.0,*0.0,*Normal (0),*Normal (0),*Not Out (0),*Not Out (0),* 0.0,* 0.0,* 0.0,* 0.0,* 0.0,* 0.0,
14.250,,,,,,,,,,,,,,,*D 0.70,,,,,,,,,,,,,,,,,,,,,,,,,,,,,,,,,,,,,,,,,
14.500,,,,,,,,,,,,,,,*D 0.70,*L 0.7,,,,,,,,,,,,,,,,,,,,,,,,,,,,,,,,*Not Out (0),*Not Out (0),,,,,,,
14.750,,,,,,,,,,,,,,,*D 0.70,,,,,,,,,,,,,,,,,,,,,,,,,,,,,,,,,,,,,,,,,
15.000,,,,,,,,,*26,*32,*G - Gnd (7),*0,*0.0,,*D 0.70,*L 0.7,*260,,,,*39.0,*46.1,*0,*345,,*25.3,,,,*109,*480,*1.871,*0.172,*0.0,*20.0,*3.9,*60.6,*-2.8,*-2.8,,,*Gear down - ground (3),*Gnd (1),,,*Normal (0),*Normal (0),*Not Out (0),*Not Out (0),* 0.0,* 0.0,* 0.0,* 0.0,* 0.0,* 0.0,
15.250,,,,,,,,,,,,,,,*D 0.70,,,,,,,,,,,,,,,,,,,,,,,,,,,,,,,,,,,,,,,,,
15.500,,,,,,,,,,,,,,,*D 0.70,*L 0.7,,,,,,,,,,,,,,,,,,,,,,,,,,,,,,,,*Not Out (0),*Not Out (0),,,,,,,
15.750,,,,,,,,,,,,,,,*D 0.70,,,,,,,,,,,,,,,,,,,,,,,,,,,,,,,,,,,,,,,,,
16.000,,*A319 (5),,*EFHK,*FIN913  ,*16,,*8,,,*G - Gnd (7),*0,*0.0,*0.00,*D 0.70,*L 0.7,*260,,*N60 05.08,,*39.0,*46.1,*0,*350,,,,*0.0,*0,*109,*481,*1.879,*0.170,*0.0,*20.1,*0.0,*60.8,*-2.8,*-2.8,*F/CLSD (0),*F/CLSD (0),*Gear down - ground (3),*Gnd (1),*0.0,*0.0,*Normal (0),*Normal (0),*Not Out (0),*Not Out (0),* 0.0,* 0.0,* 0.0,* 0.0,* 0.0,* 0.0,*NOTCMD (0)
16.250,,,,,,,,,,,,,,,*D 0.70,,,,,,,,,,,,,,,,,,,,,,,,,,,,,,,,,,,,,,,,,
16.500,,,,,,,,,,,,,,,*D 0.70,*L 0.7,,,,,,,,,,,,,,,,,,,,,,,,,,,,,,,,*Not Out (0),*Not Out (0),,,,,,,
16.750,,,,,,,,,,,,,,,*D 0.70,,,,,,,,,,,,,,,,,,,,,,,,,,,,,,,,,,,,,,,,,
17.000,*.OH-LVI,,*EDDT,,,,*6,,,,*G - Gnd (7),*0,*0.0,,*D 0.70,*L 0.7,*260,*1009,,,*39.0,*46.1,*0,*345,,*25.3,,,,*109,*481,*1.879,*0.170,*0.0,*20.0,*0.5,*60.8,*-2.8,*-2.8,,,*Gear down - ground (3),*Gnd (1),,,*Normal (0),*Normal (0),*Not Out (0),*Not Out (0),* 0.0,* 0.0,* 0.0,* 0.0,* 0.0,* 0.0,
17.250,,,,,,,,,,,,,,,*D 0.70,,,,,,,,,,,,,,,,,,,,,,,,,,,,,,,,,,,,,,,,,
17.500,,,,,,,,,,,,,,,*D 0.70,*L 0.7,,,,,,,,,,,,,,,,,,,,,,,,,,,,,,,,*Not Out (0),*Not Out (0),,,,,,,
17.750,,,,,,,,,,,,,,,*D 0.70,,,,,,,,,,,,,,,,,,,,,,,,,,,,,,,,,,,,,,,,,
18.000,,,,,,,,,,,*G - Gnd (7),*0,*0.0,,*D 0.70,*L 0.7,*260,,,*E024 57.74,*39.0,*46.1,*0,*350,*60255,,*0.00,,,*109,*481,*1.873,*0.168,*0.0,*20.0,*2.0,*60.8,*-2.8,*-2.8,*F/CLSD (0),*F/CLSD (0),*Gear down - ground (3),*Gnd (1),*0.0,*0.0,*Normal (0),*Normal (0),*Not Out (0),*Not Out (0),* 0.0,* 0.0,* 0.0,* 0.0,* 0.0,* 0.0,
18.250,,,,,,,,,,,,,,,*D 0.70,,,,,,,,,,,,,,,,,,,,,,,,,,,,,,,,,,,,,,,,,
18.500,,,,,,,,,,,,,,,*D 0.70,*L 0.7,,,,,,,,,,,,,,,,,,,,,,,,,,,,,,,,*Not Out (0),*Not Out (0),,,,,,,
18.750,,,,,,,,,,,,,,,*D 0.70,,,,,,,,,,,,,,,,,,,,,,,,,,,,,,,,,,,,,,,,,
19.000,,,,,,,,,*26,*32,*G - Gnd (7),*0,*0.0,,*D 0.70,*L 0.7,*260,,,,*39.0,*46.1,*0,*345,,*25.3,,,,*109,*480,*1.871,*0.172,*0.0,*20.0,*3.9,*60.6,*-2.8,*-2.8,,,*Gear down - ground (3),*Gnd (1),,,*Normal (0),*Normal (0),*Not Out (0),*Not Out (0),* 0.0,* 0.0,* 0.0,* 0.0,* 0.0,* 0.0,
19.250,,,,,,,,,,,,,,,*D 0.70,,,,,,,,,,,,,,,,,,,,,,,,,,,,,,,,,,,,,,,,,
19.500,,,,,,,,,,,,,,,*D 0.70,*L 0.7,,,,,,,,,,,,,,,,,,,,,,,,,,,,,,,,*Not Out (0),*Not Out (0),,,,,,,
19.750,,,,,,,,,,,,,,,*D 0.70,,,,,,,,,,,,,,,,,,,,,,,,,,,,,,,,,,,,,,,,,
20.000,,*A319 (5),,*EFHK,*FIN913  ,*16,,*8,,,*G - Gnd (7),*0,*0.0,*0.00,*D 0.70,*L 0.7,*260,,*N60 05.08,,*39.0,*46.1,*0,*350,,,,*0.0,*0,*109,*481,*1.879,*0.170,*0.0,*20.1,*0.0,*60.8,*-2.8,*-2.8,*F/CLSD (0),*F/CLSD (0),*Gear down - ground (3),*Gnd (1),*0.0,*0.0,*Normal (0),*Normal (0),*Not Out (0),*Not Out (0),* 0.0,* 0.0,* 0.0,* 0.0,* 0.0,* 0.0,*NOTCMD (0)
20.250,,,,,,,,,,,,,,,*D 0.70,,,,,,,,,,,,,,,,,,,,,,,,,,,,,,,,,,,,,,,,,
20.500,,,,,,,,,,,,,,,*D 0.70,*L 0.7,,,,,,,,,,,,,,,,,,,,,,,,,,,,,,,,*Not Out (0),*Not Out (0),,,,,,,
20.750,,,,,,,,,,,,,,,*D 0.70,,,,,,,,,,,,,,,,,,,,,,,,,,,,,,,,,,,,,,,,,
21.000,*.OH-LVI,,*EDDT,,,,*6,,,,*G - Gnd (7),*0,*0.0,,*D 0.70,*L 0.7,*260,*1009,,,*39.0,*46.1,*0,*345,,*25.3,,,,*109,*481,*1.879,*0.170,*0.0,*20.0,*0.5,*60.8,*-2.8,*-2.8,,,*Gear down - ground (3),*Gnd (1),,,*Normal (0),*Normal (0),*Not Out (0),*Not Out (0),* 0.0,* 0.0,* 0.0,* 0.0,* 0.0,* 0.0,
21.250,,,,,,,,,,,,,,,*D 0.70,,,,,,,,,,,,,,,,,,,,,,,,,,,,,,,,,,,,,,,,,
21.500,,,,,,,,,,,,,,,*D 0.70,*L 0.7,,,,,,,,,,,,,,,,,,,,,,,,,,,,,,,,*Not Out (0),*Not Out (0),,,,,,,
21.750,,,,,,,,,,,,,,,*D 0.70,,,,,,,,,,,,,,,,,,,,,,,,,,,,,,,,,,,,,,,,,
22.000,,,,,,,,,,,*G - Gnd (7),*0,*0.0,,*D 0.70,*L 0.7,*260,,,*E024 57.74,*39.0,*46.1,*0,*350,*60255,,*0.00,,,*109,*481,*1.873,*0.168,*0.0,*20.0,*2.0,*60.8,*-2.8,*-2.8,*F/CLSD (0),*F/CLSD (0),*Gear down - ground (3),*Gnd (1),*0.0,*0.0,*Normal (0),*Normal (0),*Not Out (0),*Not Out (0),* 0.0,* 0.0,* 0.0,* 0.0,* 0.0,* 0.0,
22.250,,,,,,,,,,,,,,,*D 0.70,,,,,,,,,,,,,,,,,,,,,,,,,,,,,,,,,,,,,,,,,
22.500,,,,,,,,,,,,,,,*D 0.70,*L 0.7,,,,,,,,,,,,,,,,,,,,,,,,,,,,,,,,*Not Out (0),*Not Out (0),,,,,,,
22.750,,,,,,,,,,,,,,,*D 0.70,,,,,,,,,,,,,,,,,,,,,,,,,,,,,,,,,,,,,,,,,
23.000,,,,,,,,,*26,*32,*G - Gnd (7),*0,*0.0,,*D 0.70,*L 0.7,*260,,,,*39.0,*46.1,*0,*345,,*25.3,,,,*109,*480,*1.871,*0.172,*0.0,*20.0,*3.9,*60.6,*-2.8,*-2.8,,,*Gear down - ground (3),*Gnd (1),,,*Normal (0),*Normal (0),*Not Out (0),*Not Out (0),* 0.0,* 0.0,* 0.0,* 0.0,* 0.0,* 0.0,
23.250,,,,,,,,,,,,,,,*D 0.70,,,,,,,,,,,,,,,,,,,,,,,,,,,,,,,,,,,,,,,,,
23.500,,,,,,,,,,,,,,,*D 0.70,*L 0.7,,,,,,,,,,,,,,,,,,,,,,,,,,,,,,,,*Not Out (0),*Not Out (0),,,,,,,
23.750,,,,,,,,,,,,,,,*D 0.70,,,,,,,,,,,,,,,,,,,,,,,,,,,,,,,,,,,,,,,,,
24.000,,*A319 (5),,*EFHK,*FIN913  ,*16,,*8,,,*G - Gnd (7),*0,*0.0,*0.00,*D 0.70,*L 0.7,*260,,*N60 05.08,,*39.0,*46.1,*0,*350,,,,*0.0,*0,*109,*481,*1.879,*0.170,*0.0,*20.1,*0.0,*60.8,*-2.8,*-2.8,*F/CLSD (0),*F/CLSD (0),*Gear down - ground (3),*Gnd (1),*0.0,*0.0,*Normal (0),*Normal (0),*Not Out (0),*Not Out (0),* 0.0,* 0.0,* 0.0,* 0.0,* 0.0,* 0.0,*NOTCMD (0)
24.250,,,,,,,,,,,,,,,*D 0.70,,,,,,,,,,,,,,,,,,,,,,,,,,,,,,,,,,,,,,,,,
24.500,,,,,,,,,,,,,,,*D 0.70,*L 0.7,,,,,,,,,,,,,,,,,,,,,,,,,,,,,,,,*Not Out (0),*Not Out (0),,,,,,,
24.750,,,,,,,,,,,,,,,*D 0.70,,,,,,,,,,,,,,,,,,,,,,,,,,,,,,,,,,,,,,,,,
25.000,*.OH-LVI,,*EDDT,,,,*6,,,,*G - Gnd (7),*0,*0.0,,*D 0.70,*L 0.7,*260,*1009,,,*39.0,*46.1,*0,*345,,*25.3,,,,*109,*481,*1.879,*0.170,*0.0,*20.0,*0.5,*60.8,*-2.8,*-2.8,,,*Gear down - ground (3),*Gnd (1),,,*Normal (0),*Normal (0),*Not Out (0),*Not Out (0),* 0.0,* 0.0,* 0.0,* 0.0,* 0.0,* 0.0,
25.250,,,,,,,,,,,,,,,*D 0.70,,,,,,,,,,,,,,,,,,,,,,,,,,,,,,,,,,,,,,,,,
25.500,,,,,,,,,,,,,,,*D 0.70,*L 0.7,,,,,,,,,,,,,,,,,,,,,,,,,,,,,,,,*Not Out (0),*Not Out (0),,,,,,,
25.750,,,,,,,,,,,,,,,*D 0.70,,,,,,,,,,,,,,,,,,,,,,,,,,,,,,,,,,,,,,,,,
26.000,,,,,,,,,,,*G - Gnd (7),*0,*0.0,,*D 0.70,*L 0.7,*260,,,*E024 57.74,*39.0,*46.1,*0,*350,*60255,,*0.00,,,*109,*481,*1.873,*0.168,*0.0,*20.0,*2.0,*60.8,*-2.8,*-2.8,*F/CLSD (0),*F/CLSD (0),*Gear down - ground (3),*Gnd (1),*0.0,*0.0,*Normal (0),*Normal (0),*Not Out (0),*Not Out (0),* 0.0,* 0.0,* 0.0,* 0.0,* 0.0,* 0.0,
26.250,,,,,,,,,,,,,,,*D 0.70,,,,,,,,,,,,,,,,,,,,,,,,,,,,,,,,,,,,,,,,,
26.500,,,,,,,,,,,,,,,*D 0.70,*L 0.7,,,,,,,,,,,,,,,,,,,,,,,,,,,,,,,,*Not Out (0),*Not Out (0),,,,,,,
26.750,,,,,,,,,,,,,,,*D 0.70,,,,,,,,,,,,,,,,,,,,,,,,,,,,,,,,,,,,,,,,,
27.000,,,,,,,,,*26,*32,*G - Gnd (7),*0,*0.0,,*D 0.70,*L 0.7,*260,,,,*39.0,*46.1,*0,*345,,*25.3,,,,*109,*480,*1.871,*0.172,*0.0,*20.0,*3.9,*60.6,*-2.8,*-2.8,,,*Gear down - ground (3),*Gnd (1),,,*Normal (0),*Normal (0),*Not Out (0),*Not Out (0),* 0.0,* 0.0,* 0.0,* 0.0,* 0.0,* 0.0,
27.250,,,,,,,,,,,,,,,*D 0.70,,,,,,,,,,,,,,,,,,,,,,,,,,,,,,,,,,,,,,,,,
27.500,,,,,,,,,,,,,,,*D 0.70,*L 0.7,,,,,,,,,,,,,,,,,,,,,,,,,,,,,,,,*Not Out (0),*Not Out (0),,,,,,,
27.750,,,,,,,,,,,,,,,*D 0.70,,,,,,,,,,,,,,,,,,,,,,,,,,,,,,,,,,,,,,,,,
28.000,,*A319 (5),,*EFHK,*FIN913  ,*16,,*8,,,*G - Gnd (7),*0,*0.0,*0.00,*D 0.70,*L 0.7,*260,,*N60 05.08,,*39.0,*46.1,*0,*350,,,,*0.0,*0,*109,*481,*1.879,*0.170,*0.0,*20.1,*0.0,*60.8,*-2.8,*-2.8,*F/CLSD (0),*F/CLSD (0),*Gear down - ground (3),*Gnd (1),*0.0,*0.0,*Normal (0),*Normal (0),*Not Out (0),*Not Out (0),* 0.0,* 0.0,* 0.0,* 0.0,* 0.0,* 0.0,*NOTCMD (0)
28.250,,,,,,,,,,,,,,,*D 0.70,,,,,,,,,,,,,,,,,,,,,,,,,,,,,,,,,,,,,,,,,
28.500,,,,,,,,,,,,,,,*D 0.70,*L 0.7,,,,,,,,,,,,,,,,,,,,,,,,,,,,,,,,*Not Out (0),*Not Out (0),,,,,,,
28.750,,,,,,,,,,,,,,,*D 0.70,,,,,,,,,,,,,,,,,,,,,,,,,,,,,,,,,,,,,,,,,
29.000,*.OH-LVI,,*EDDT,,,,*6,,,,*G - Gnd (7),*0,*0.0,,*D 0.70,*L 0.7,*260,*1009,,,*39.0,*46.1,*0,*345,,*25.3,,,,*109,*481,*1.879,*0.170,*0.0,*20.0,*0.5,*60.8,*-2.8,*-2.8,,,*Gear down - ground (3),*Gnd (1),,,*Normal (0),*Normal (0),*Not Out (0),*Not Out (0),* 0.0,* 0.0,* 0.0,* 0.0,* 0.0,* 0.0,
29.250,,,,,,,,,,,,,,,*D 0.70,,,,,,,,,,,,,,,,,,,,,,,,,,,,,,,,,,,,,,,,,
29.500,,,,,,,,,,,,,,,*D 0.70,*L 0.7,,,,,,,,,,,,,,,,,,,,,,,,,,,,,,,,*Not Out (0),*Not Out (0),,,,,,,
29.750,,,,,,,,,,,,,,,*D 0.70,,,,,,,,,,,,,,,,,,,,,,,,,,,,,,,,,,,,,,,,,
30.000,,,,,,,,,,,*G - Gnd (7),*0,*0.0,,*D 0.70,*L 0.7,*260,,,*E024 57.74,*39.0,*46.1,*0,*350,*60255,,*0.00,,,*109,*481,*1.873,*0.168,*0.0,*20.0,*2.0,*60.8,*-2.8,*-2.8,*F/CLSD (0),*F/CLSD (0),*Gear down - ground (3),*Gnd (1),*0.0,*0.0,*Normal (0),*Normal (0),*Not Out (0),*Not Out (0),* 0.0,* 0.0,* 0.0,* 0.0,* 0.0,* 0.0,
30.250,,,,,,,,,,,,,,,*D 0.70,,,,,,,,,,,,,,,,,,,,,,,,,,,,,,,,,,,,,,,,,
30.500,,,,,,,,,,,,,,,*D 0.70,*L 0.7,,,,,,,,,,,,,,,,,,,,,,,,,,,,,,,,*Not Out (0),*Not Out (0),,,,,,,
30.750,,,,,,,,,,,,,,,*D 0.70,,,,,,,,,,,,,,,,,,,,,,,,,,,,,,,,,,,,,,,,,
31.000,,,,,,,,,*26,*32,*G - Gnd (7),*0,*0.0,,*D 0.70,*L 0.7,*260,,,,*39.0,*46.1,*0,*345,,*25.3,,,,*109,*480,*1.871,*0.172,*0.0,*20.0,*3.9,*60.6,*-2.8,*-2.8,,,*Gear down - ground (3),*Gnd (1),,,*Normal (0),*Normal (0),*Not Out (0),*Not Out (0),* 0.0,* 0.0,* 0.0,* 0.0,* 0.0,* 0.0,
31.250,,,,,,,,,,,,,,,*D 0.70,,,,,,,,,,,,,,,,,,,,,,,,,,,,,,,,,,,,,,,,,
31.500,,,,,,,,,,,,,,,*D 0.70,*L 0.7,,,,,,,,,,,,,,,,,,,,,,,,,,,,,,,,*Not Out (0),*Not Out (0),,,,,,,
31.750,,,,,,,,,,,,,,,*D 0.70,,,,,,,,,,,,,,,,,,,,,,,,,,,,,,,,,,,,,,,,,
32.000,,*A319 (5),,*EFHK,*FIN913  ,*16,,*8,,,*G - Gnd (7),*0,*0.0,*0.00,*D 0.70,*L 0.7,*260,,*N60 05.08,,*39.0,*46.1,*0,*350,,,,*0.0,*0,*109,*481,*1.879,*0.170,*0.0,*20.1,*0.0,*60.8,*-2.8,*-2.8,*F/CLSD (0),*F/CLSD (0),*Gear down - ground (3),*Gnd (1),*0.0,*0.0,*Normal (0),*Normal (0),*Not Out (0),*Not Out (0),* 0.0,* 0.0,* 0.0,* 0.0,* 0.0,* 0.0,*NOTCMD (0)
32.250,,,,,,,,,,,,,,,*D 0.70,,,,,,,,,,,,,,,,,,,,,,,,,,,,,,,,,,,,,,,,,
32.500,,,,,,,,,,,,,,,*D 0.70,*L 0.7,,,,,,,,,,,,,,,,,,,,,,,,,,,,,,,,*Not Out (0),*Not Out (0),,,,,,,
32.750,,,,,,,,,,,,,,,*D 0.70,,,,,,,,,,,,,,,,,,,,,,,,,,,,,,,,,,,,,,,,,
33.000,*.OH-LVI,,*EDDT,,,,*6,,,,*G - Gnd (7),*0,*0.0,,*D 0.70,*L 0.7,*260,*1009,,,*39.0,*46.1,*0,*345,,*25.3,,,,*109,*481,*1.879,*0.170,*0.0,*20.0,*0.5,*60.8,*-2.8,*-2.8,,,*Gear down - ground (3),*Gnd (1),,,*Normal (0),*Normal (0),*Not Out (0),*Not Out (0),* 0.0,* 0.0,* 0.0,* 0.0,* 0.0,* 0.0,
33.250,,,,,,,,,,,,,,,*D 0.70,,,,,,,,,,,,,,,,,,,,,,,,,,,,,,,,,,,,,,,,,
33.500,,,,,,,,,,,,,,,*D 0.70,*L 0.7,,,,,,,,,,,,,,,,,,,,,,,,,,,,,,,,*Not Out (0),*Not Out (0),,,,,,,
33.750,,,,,,,,,,,,,,,*D 0.70,,,,,,,,,,,,,,,,,,,,,,,,,,,,,,,,,,,,,,,,,
34.000,,,,,,,,,,,*G - Gnd (7),*0,*0.0,,*D 0.70,*L 0.7,*260,,,*E024 57.74,*39.0,*46.1,*0,*350,*60255,,*0.00,,,*109,*481,*1.873,*0.168,*0.0,*20.0,*2.0,*60.8,*-2.8,*-2.8,*F/CLSD (0),*F/CLSD (0),*Gear down - ground (3),*Gnd (1),*0.0,*0.0,*Normal (0),*Normal (0),*Not Out (0),*Not Out (0),* 0.0,* 0.0,* 0.0,* 0.0,* 0.0,* 0.0,
34.250,,,,,,,,,,,,,,,*D 0.70,,,,,,,,,,,,,,,,,,,,,,,,,,,,,,,,,,,,,,,,,
34.500,,,,,,,,,,,,,,,*D 0.70,*L 0.7,,,,,,,,,,,,,,,,,,,,,,,,,,,,,,,,*Not Out (0),*Not Out (0),,,,,,,
34.750,,,,,,,,,,,,,,,*D 0.70,,,,,,,,,,,,,,,,,,,,,,,,,,,,,,,,,,,,,,,,,
35.000,,,,,,,,,*26,*32,*G - Gnd (7),*0,*0.0,,*D 0.70,*L 0.7,*260,,,,*39.0,*46.1,*0,*345,,*25.3,,,,*109,*480,*1.871,*0.172,*0.0,*20.0,*3.9,*60.6,*-2.8,*-2.8,,,*Gear down - ground (3),*Gnd (1),,,*Normal (0),*Normal (0),*Not Out (0),*Not Out (0),* 0.0,* 0.0,* 0.0,* 0.0,* 0.0,* 0.0,
35.250,,,,,,,,,,,,,,,*D 0.70,,,,,,,,,,,,,,,,,,,,,,,,,,,,,,,,,,,,,,,,,
35.500,,,,,,,,,,,,,,,*D 0.70,*L 0.7,,,,,,,,,,,,,,,,,,,,,,,,,,,,,,,,*Not Out (0),*Not Out (0),,,,,,,
35.750,,,,,,,,,,,,,,,*D 0.70,,,,,,,,,,,,,,,,,,,,,,,,,,,,,,,,,,,,,,,,,
36.000,,*A319 (5),,*EFHK,*FIN913  ,*16,,*8,,,*G - Gnd (7),*0,*0.0,*0.00,*D 0.70,*L 0.7,*260,,*N60 05.08,,*39.0,*46.1,*0,*350,,,,*0.0,*0,*109,*481,*1.879,*0.170,*0.0,*20.1,*0.0,*60.8,*-2.8,*-2.8,*F/CLSD (0),*F/CLSD (0),*Gear down - ground (3),*Gnd (1),*0.0,*0.0,*Normal (0),*Normal (0),*Not Out (0),*Not Out (0),* 0.0,* 0.0,* 0.0,* 0.0,* 0.0,* 0.0,*NOTCMD (0)
36.250,,,,,,,,,,,,,,,*D 0.70,,,,,,,,,,,,,,,,,,,,,,,,,,,,,,,,,,,,,,,,,
36.500,,,,,,,,,,,,,,,*D 0.70,*L 0.7,,,,,,,,,,,,,,,,,,,,,,,,,,,,,,,,*Not Out (0),*Not Out (0),,,,,,,
36.750,,,,,,,,,,,,,,,*D 0.70,,,,,,,,,,,,,,,,,,,,,,,,,,,,,,,,,,,,,,,,,
37.000,*.OH-LVI,,*EDDT,,,,*6,,,,*G - Gnd (7),*0,*0.0,,*D 0.70,*L 0.7,*260,*1009,,,*39.0,*46.1,*0,*345,,*25.3,,,,*109,*481,*1.879,*0.170,*0.0,*20.0,*0.5,*60.8,*-2.8,*-2.8,,,*Gear down - ground (3),*Gnd (1),,,*Normal (0),*Normal (0),*Not Out (0),*Not Out (0),* 0.0,* 0.0,* 0.0,* 0.0,* 0.0,* 0.0,
37.250,,,,,,,,,,,,,,,*D 0.70,,,,,,,,,,,,,,,,,,,,,,,,,,,,,,,,,,,,,,,,,
37.500,,,,,,,,,,,,,,,*D 0.70,*L 0.7,,,,,,,,,,,,,,,,,,,,,,,,,,,,,,,,*Not Out (0),*Not Out (0),,,,,,,
37.750,,,,,,,,,,,,,,,*D 0.70,,,,,,,,,,,,,,,,,,,,,,,,,,,,,,,,,,,,,,,,,
38.000,,,,,,,,,,,*G - Gnd (7),*0,*0.0,,*D 0.70,*L 0.7,*260,,,*E024 57.74,*39.0,*46.1,*0,*350,*60255,,*0.00,,,*109,*481,*1.873,*0.168,*0.0,*20.0,*2.0,*60.8,*-2.8,*-2.8,*F/CLSD (0),*F/CLSD (0),*Gear down - ground (3),*Gnd (1),*0.0,*0.0,*Normal (0),*Normal (0),*Not Out (0),*Not Out (0),* 0.0,* 0.0,* 0.0,* 0.0,* 0.0,* 0.0,
38.250,,,,,,,,,,,,,,,*D 0.70,,,,,,,,,,,,,,,,,,,,,,,,,,,,,,,,,,,,,,,,,
38.500,,,,,,,,,,,,,,,*D 0.70,*L 0.7,,,,,,,,,,,,,,,,,,,,,,,,,,,,,,,,*Not Out (0),*Not Out (0),,,,,,,
38.750,,,,,,,,,,,,,,,*D 0.70,,,,,,,,,,,,,,,,,,,,,,,,,,,,,,,,,,,,,,,,,
39.000,,,,,,,,,*26,*32,*G - Gnd (7),*0,*0.0,,*D 0.70,*L 0.7,*260,,,,*39.0,*46.1,*0,*345,,*25.3,,,,*109,*480,*1.871,*0.172,*0.0,*20.0,*3.9,*60.6,*-2.8,*-2.8,,,*Gear down - ground (3),*Gnd (1),,,*Normal (0),*Normal (0),*Not Out (0),*Not Out (0),* 0.0,* 0.0,* 0.0,* 0.0,* 0.0,* 0.0,
39.250,,,,,,,,,,,,,,,*D 0.70,,,,,,,,,,,,,,,,,,,,,,,,,,,,,,,,,,,,,,,,,
39.500,,,,,,,,,,,,,,,*D 0.70,*L 0.7,,,,,,,,,,,,,,,,,,,,,,,,,,,,,,,,*Not Out (0),*Not Out (0),,,,,,,
39.750,,,,,,,,,,,,,,,*D 0.70,,,,,,,,,,,,,,,,,,,,,,,,,,,,,,,,,,,,,,,,,
40.000,,A319 (5),,EFHK,FIN913  ,16,,8,,,G - Gnd (7),0,0.0,0.00,D 0.70,L 0.7,260,,N60 05.08,,39.0,46.1,0,350,,,,0.0,0,109,481,1.879,0.170,0.0,20.1,0.0,60.8,-2.8,-2.8,F/CLSD (0),F/CLSD (0),Gear down - ground (3),Gnd (1),0.0,0.0,Normal (0),Normal (0),Not Out (0),Not Out (0), 0.0, 0.0, 0.0, 0.0, 0.0, 0.0,NOTCMD (0)
40.250,,,,,,,,,,,,,,,D 0.70,,,,,,,,,,,,,,,,,,,,,,,,,,,,,,,,,,,,,,,,,
40.500,,,,,,,,,,,,,,,D 0.70,L 0.7,,,,,,,,,,,,,,,,,,,,,,,,,,,,,,,,Not Out (0),Not Out (0),,,,,,,
40.750,,,,,,,,,,,,,,,D 0.70,,,,,,,,,,,,,,,,,,,,,,,,,,,,,,,,,,,,,,,,,
41.000,.OH-LVI,,EDDT,,,,6,,,,G - Gnd (7),0,0.0,,D 0.70,L 0.7,260,1009,,,39.0,46.1,0,345,,25.3,,,,109,481,1.879,0.170,0.0,20.0,0.5,60.8,-2.8,-2.8,,,Gear down - ground (3),Gnd (1),,,Normal (0),Normal (0),Not Out (0),Not Out (0), 0.0, 0.0, 0.0, 0.0, 0.0, 0.0,
41.250,,,,,,,,,,,,,,,D 0.70,,,,,,,,,,,,,,,,,,,,,,,,,,,,,,,,,,,,,,,,,
41.500,,,,,,,,,,,,,,,D 0.70,L 0.7,,,,,,,,,,,,,,,,,,,,,,,,,,,,,,,,Not Out (0),Not Out (0),,,,,,,
41.750,,,,,,,,,,,,,,,D 0.70,,,,,,,,,,,,,,,,,,,,,,,,,,,,,,,,,,,,,,,,,
42.000,,,,,,,,,,,G - Gnd (7),0,0.0,,D 0.70,L 0.7,260,,,E024 57.74,39.0,46.1,0,350,60255,,0.00,,,109,481,1.873,0.168,0.0,20.0,2.0,60.8,-2.8,-2.8,F/CLSD (0),F/CLSD (0),Gear down - ground (3),Gnd (1),0.0,0.0,Normal (0),Normal (0),Not Out (0),Not Out (0), 0.0, 0.0, 0.0, 0.0, 0.0, 0.0,
42.250,,,,,,,,,,,,,,,D 0.70,,,,,,,,,,,,,,,,,,,,,,,,,,,,,,,,,,,,,,,,,
42.500,,,,,,,,,,,,,,,D 0.70,L 0.7,,,,,,,,,,,,,,,,,,,,,,,,,,,,,,,,Not Out (0),Not Out (0),,,,,,,
42.750,,,,,,,,,,,,,,,D 0.70,,,,,,,,,,,,,,,,,,,,,,,,,,,,,,,,,,,,,,,,,
43.000,,,,,,,,,26,32,G - Gnd (7),0,0.0,,D 0.70,L 0.7,260,,,,39.0,46.1,0,345,,25.3,,,,109,480,1.871,0.172,0.0,20.0,3.9,60.6,-2.8,-2.8,,,Gear down - ground (3),Gnd (1),,,Normal (0),Normal (0),Not Out (0),Not Out (0), 0.0, 0.0, 0.0, 0.0, 0.0, 0.0,
43.250,,,,,,,,,,,,,,,D 0.70,,,,,,,,,,,,,,,,,,,,,,,,,,,,,,,,,,,,,,,,,
43.500,,,,,,,,,,,,,,,D 0.70,L 0.7,,,,,,,,,,,,,,,,,,,,,,,,,,,,,,,,Not Out (0),Not Out (0),,,,,,,
43.750,,,,,,,,,,,,,,,D 0.70,,,,,,,,,,,,,,,,,,,,,,,,,,,,,,,,,,,,,,,,,
44.000,,A319 (5),,EFHK,FIN913  ,16,,8,,,G - Gnd (7),0,0.0,0.00,D 0.70,L 0.7,260,,N60 05.08,,39.0,46.1,0,346,,,,0.0,0,109,481,1.871,0.170,0.0,20.0,6.1,60.8,-2.8,-2.8,F/CLSD (0),F/CLSD (0),Gear down - ground (3),Gnd (1),0.0,0.0,Normal (0),Normal (0),Not Out (0),Not Out (0), 0.0, 0.0, 0.0, 0.0, 0.0, 0.0,NOTCMD (0)
44.250,,,,,,,,,,,,,,,D 0.70,,,,,,,,,,,,,,,,,,,,,,,,,,,,,,,,,,,,,,,,,
44.500,,,,,,,,,,,,,,,D 0.70,L 0.7,,,,,,,,,,,,,,,,,,,,,,,,,,,,,,,,Not Out (0),Not Out (0),,,,,,,
44.750,,,,,,,,,,,,,,,D 0.70,,,,,,,,,,,,,,,,,,,,,,,,,,,,,,,,,,,,,,,,,
45.000,.OH-LVI,,EDDT,,,,6,,,,G - Gnd (7),0,0.0,,D 0.70,L 0.7,260,1009,,,39.0,46.1,0,345,,25.3,,,,110,481,1.871,0.168,0.0,20.1,8.3,60.8,-2.8,-2.8,,,Gear down - ground (3),Gnd (1),,,Normal (0),Normal (0),Not Out (0),Not Out (0), 0.0, 0.0, 0.0, 0.0, 0.0, 0.0,
45.250,,,,,,,,,,,,,,,D 0.70,,,,,,,,,,,,,,,,,,,,,,,,,,,,,,,,,,,,,,,,,
45.500,,,,,,,,,,,,,,,D 0.70,L 0.7,,,,,,,,,,,,,,,,,,,,,,,,,,,,,,,,Not Out (0),Not Out (0),,,,,,,
45.750,,,,,,,,,,,,,,,D 0.70,,,,,,,,,,,,,,,,,,,,,,,,,,,,,,,,,,,,,,,,,
46.000,,,,,,,,,,,G - Gnd (7),0,0.0,,D 0.70,L 0.7,260,,,E024 57.74,39.0,46.1,0,345,60255,,0.00,,,110,481,1.871,0.168,0.0,20.1,10.5,60.8,-2.8,-2.8,F/CLSD (0),F/CLSD (0),Gear down - ground (3),Gnd (1),0.0,0.0,Normal (0),Normal (0),Not Out (0),Not Out (0), 0.0, 0.0, 0.0, 0.0, 0.0, 0.0,
46.250,,,,,,,,,,,,,,,D 0.70,,,,,,,,,,,,,,,,,,,,,,,,,,,,,,,,,,,,,,,,,
46.500,,,,,,,,,,,,,,,D 0.70,L 0.7,,,,,,,,,,,,,,,,,,,,,,,,,,,,,,,,Not Out (0),Not Out (0),,,,,,,
46.750,,,,,,,,,,,,,,,D 0.70,,,,,,,,,,,,,,,,,,,,,,,,,,,,,,,,,,,,,,,,,
47.000,,,,,,,,,26,36,G - Gnd (7),0,0.0,,D 0.70,L 0.7,260,,,,39.0,46.1,0,343,,25.3,,,,110,481,1.871,0.170,0.0,20.1,12.6,60.6,-2.8,-2.8,,,Gear down - ground (3),Gnd (1),,,Normal (0),Normal (0),Not Out (0),Not Out (0), 0.0, 0.0, 0.0, 0.0, 0.0, 0.0,
47.250,,,,,,,,,,,,,,,D 0.70,,,,,,,,,,,,,,,,,,,,,,,,,,,,,,,,,,,,,,,,,
47.500,,,,,,,,,,,,,,,D 0.70,L 0.7,,,,,,,,,,,,,,,,,,,,,,,,,,,,,,,,Not Out (0),Not Out (0),,,,,,,
47.750,,,,,,,,,,,,,,,D 0.70,,,,,,,,,,,,,,,,,,,,,,,,,,,,,,,,,,,,,,,,,
48.000,,A319 (5),,EFHK,FIN913  ,16,,8,,,G - Gnd (7),0,0.0,0.00,D 0.70,L 0.7,260,,N60 05.08,,39.0,46.1,0,345,,,,0.0,0,110,481,1.871,0.170,0.0,20.3,14.5,60.6,-2.8,-2.8,F/CLSD (0),F/CLSD (0),Gear down - ground (3),Gnd (1),0.0,0.0,Normal (0),Normal (0),Not Out (0),Not Out (0), 0.0, 0.0, 0.0, 0.0, 0.0, 0.0,NOTCMD (0)
48.250,,,,,,,,,,,,,,,D 0.70,,,,,,,,,,,,,,,,,,,,,,,,,,,,,,,,,,,,,,,,,
48.500,,,,,,,,,,,,,,,D 0.70,L 0.7,,,,,,,,,,,,,,,,,,,,,,,,,,,,,,,,Not Out (0),Not Out (0),,,,,,,
48.750,,,,,,,,,,,,,,,D 0.70,,,,,,,,,,,,,,,,,,,,,,,,,,,,,,,,,,,,,,,,,
49.000,.OH-LVI,,EDDT,,,,6,,,,G - Gnd (7),0,0.0,,D 0.70,L 0.7,260,1009,,,39.0,46.1,0,345,,25.3,,,,110,482,1.871,0.168,0.0,20.3,16.4,60.8,-2.8,-2.8,,,Gear down - ground (3),Gnd (1),,,Normal (0),Normal (0),Not Out (0),Not Out (0), 0.0, 0.0, 0.0, 0.0, 0.0, 0.0,
49.250,,,,,,,,,,,,,,,D 0.70,,,,,,,,,,,,,,,,,,,,,,,,,,,,,,,,,,,,,,,,,
49.500,,,,,,,,,,,,,,,D 0.70,L 0.7,,,,,,,,,,,,,,,,,,,,,,,,,,,,,,,,Not Out (0),Not Out (0),,,,,,,
49.750,,,,,,,,,,,,,,,D 0.70,,,,,,,,,,,,,,,,,,,,,,,,,,,,,,,,,,,,,,,,,
50.000,,,,,,,,,,,G - Gnd (7),0,0.0,,D 0.70,L 0.7,260,,,E024 57.74,39.0,46.1,0,345,60255,,0.00,,,110,482,1.871,0.170,0.0,20.4,18.1,60.8,-2.8,-2.8,F/CLSD (0),F/CLSD (0),Gear down - ground (3),Gnd (1),0.0,0.0,Normal (0),Normal (0),Not Out (0),Not Out (0), 0.0, 0.0, 0.0, 0.0, 0.0, 0.0,
50.250,,,,,,,,,,,,,,,D 0.70,,,,,,,,,,,,,,,,,,,,,,,,,,,,,,,,,,,,,,,,,
50.500,,,,,,,,,,,,,,,D 0.70,L 0.7,,,,,,,,,,,,,,,,,,,,,,,,,,,,,,,,Not Out (0),Not Out (0),,,,,,,
50.750,,,,,,,,,,,,,,,D 0.70,,,,,,,,,,,,,,,,,,,,,,,,,,,,,,,,,,,,,,,,,
51.000,,,,,,,,,26,40,G - Gnd (7),0,0.0,,D 0.70,L 0.7,260,,,,39.0,46.1,0,343,,25.3,,,,111,482,1.873,0.170,0.0,20.4,19.6,60.6,-2.8,-2.8,,,Gear down - ground (3),Gnd (1),,,Normal (0),Normal (0),Not Out (0),Not Out (0), 0.0, 0.0, 0.0, 0.0, 0.0, 0.0,
51.250,,,,,,,,,,,,,,,D 0.70,,,,,,,,,,,,,,,,,,,,,,,,,,,,,,,,,,,,,,,,,
51.500,,,,,,,,,,,,,,,D 0.70,L 0.7,,,,,,,,,,,,,,,,,,,,,,,,,,,,,,,,Not Out (0),Not Out (0),,,,,,,
51.750,,,,,,,,,,,,,,,D 0.70,,,,,,,,,,,,,,,,,,,,,,,,,,,,,,,,,,,,,,,,,
52.000,,A319 (5),,EFHK,FIN913  ,16,,8,,,G - Gnd (7),0,0.0,0.00,D 0.70,L 0.7,260,,N60 05.08,,39.0,46.1,0,346,,,,0.0,0,111,483,1.871,0.170,0.9,20.3,21.0,60.8,-2.8,-2.8,F/CLSD (0),F/CLSD (0),Gear down - ground (3),Gnd (1),0.0,0.0,Normal (0),Normal (0),Not Out (0),Not Out (0), 0.0, 0.0, 0.0, 0.0, 0.0, 0.0,NOTCMD (0)
52.250,,,,,,,,,,,,,,,D 0.70,,,,,,,,,,,,,,,,,,,,,,,,,,,,,,,,,,,,,,,,,
52.500,,,,,,,,,,,,,,,D 0.70,L 0.7,,,,,,,,,,,,,,,,,,,,,,,,,,,,,,,,Not Out (0),Not Out (0),,,,,,,
52.750,,,,,,,,,,,,,,,D 0.70,,,,,,,,,,,,,,,,,,,,,,,,,,,,,,,,,,,,,,,,,
53.000,.OH-LVI,,EDDT,,,,6,,,,G - Gnd (7),0,0.0,,D 0.70,L 0.7,260,1009,,,39.0,46.1,0,346,,25.5,,,,111,483,1.871,0.170,1.1,20.1,22.4,60.8,-2.8,-2.8,,,Gear down - ground (3),Gnd (1),,,Normal (0),Normal (0),Not Out (0),Not Out (0), 0.0, 0.0, 0.0, 0.0, 0.0, 0.0,
53.250,,,,,,,,,,,,,,,D 0.70,,,,,,,,,,,,,,,,,,,,,,,,,,,,,,,,,,,,,,,,,
53.500,,,,,,,,,,,,,,,D 0.70,L 0.7,,,,,,,,,,,,,,,,,,,,,,,,,,,,,,,,Not Out (0),Not Out (0),,,,,,,
53.750,,,,,,,,,,,,,,,D 0.70,,,,,,,,,,,,,,,,,,,,,,,,,,,,,,,,,,,,,,,,,
54.000,,,,,,,,,,,G - Gnd (7),0,0.0,,D 0.70,L 0.7,260,,,E024 57.74,39.0,46.1,183,345,60255,,0.00,,,110,484,0.020,0.170,1.4,20.0,23.4,60.8,-2.8,-2.8,F/CLSD (0),F/CLSD (0),Gear down - ground (3),Gnd (1),0.0,0.0,Normal (0),Normal (0),Not Out (0),Not Out (0), 0.0, 0.0, 0.0, 0.0, 0.0, 0.0,
54.250,,,,,,,,,,,,,,,D 0.70,,,,,,,,,,,,,,,,,,,,,,,,,,,,,,,,,,,,,,,,,
54.500,,,,,,,,,,,,,,,D 0.70,L 0.7,,,,,,,,,,,,,,,,,,,,,,,,,,,,,,,,Not Out (0),Not Out (0),,,,,,,
54.750,,,,,,,,,,,,,,,D 0.70,,,,,,,,,,,,,,,,,,,,,,,,,,,,,,,,,,,,,,,,,
55.000,,,,,,,,,26,44,G - Gnd (7),0,0.0,,D 0.70,L 0.7,260,,,,39.0,46.1,161,346,,25.5,,,,111,484,0.023,0.170,1.6,19.9,24.5,60.8,-2.8,-2.8,,,Gear down - ground (3),Gnd (1),,,Normal (0),Normal (0),Not Out (0),Not Out (0), 0.0, 0.0, 0.0, 0.0, 0.0, 0.0,
55.250,,,,,,,,,,,,,,,D 0.70,,,,,,,,,,,,,,,,,,,,,,,,,,,,,,,,,,,,,,,,,
55.500,,,,,,,,,,,,,,,D 0.70,L 0.7,,,,,,,,,,,,,,,,,,,,,,,,,,,,,,,,Not Out (0),Not Out (0),,,,,,,
55.750,,,,,,,,,,,,,,,D 0.70,,,,,,,,,,,,,,,,,,,,,,,,,,,,,,,,,,,,,,,,,
56.000,,A319 (5),,EFHK,FIN913  ,16,,8,,,G - Gnd (7),0,0.0,0.00,D 0.70,L 0.7,260,,N60 05.08,,39.0,46.1,178,343,,,,0.0,0,111,485,0.039,0.170,2.0,19.8,25.9,60.8,-2.8,-2.8,F/CLSD (0),F/CLSD (0),Gear down - ground (3),Gnd (1),0.0,0.0,Normal (0),Normal (0),Not Out (0),Not Out (0), 0.0, 0.0, 0.0, 0.0, 0.0, 0.0,NOTCMD (0)
56.250,,,,,,,,,,,,,,,D 0.70,,,,,,,,,,,,,,,,,,,,,,,,,,,,,,,,,,,,,,,,,
56.500,,,,,,,,,,,,,,,D 0.70,L 0.7,,,,,,,,,,,,,,,,,,,,,,,,,,,,,,,,Not Out (0),Not Out (0),,,,,,,
56.750,,,,,,,,,,,,,,,D 0.70,,,,,,,,,,,,,,,,,,,,,,,,,,,,,,,,,,,,,,,,,
57.000,.OH-LVI,,EDDT,,,,6,,,,G - Gnd (7),0,0.0,,D 0.70,L 0.7,260,1009,,,39.0,46.1,196,346,,25.5,,,,110,486,0.055,0.168,2.5,19.8,27.4,60.8,-2.8,-2.8,,,Gear down - ground (3),Gnd (1),,,Normal (0),Normal (0),Not Out (0),Not Out (0), 0.0, 0.0, 0.0, 0.0, 0.0, 0.0,
57.250,,,,,,,,,,,,,,,D 0.70,,,,,,,,,,,,,,,,,,,,,,,,,,,,,,,,,,,,,,,,,
57.500,,,,,,,,,,,,,,,D 0.70,L 0.7,,,,,,,,,,,,,,,,,,,,,,,,,,,,,,,,Not Out (0),Not Out (0),,,,,,,
57.750,,,,,,,,,,,,,,,D 0.70,,,,,,,,,,,,,,,,,,,,,,,,,,,,,,,,,,,,,,,,,
58.000,,,,,,,,,,,G - Gnd (7),0,0.0,,D 0.70,L 0.7,260,,,E024 57.74,39.0,46.1,212,343,60255,,0.00,,,122,486,0.070,0.170,3.1,19.8,29.0,60.8,-2.8,-2.8,F/CLSD (0),F/CLSD (0),Gear down - ground (3),Gnd (1),0.0,0.0,Normal (0),Normal (0),Not Out (0),Not Out (0), 0.0, 0.0, 0.0, 0.0, 0.0, 0.0,
58.250,,,,,,,,,,,,,,,D 0.70,,,,,,,,,,,,,,,,,,,,,,,,,,,,,,,,,,,,,,,,,
58.500,,,,,,,,,,,,,,,D 0.70,L 0.7,,,,,,,,,,,,,,,,,,,,,,,,,,,,,,,,Not Out (0),Not Out (0),,,,,,,
58.750,,,,,,,,,,,,,,,D 0.70,,,,,,,,,,,,,,,,,,,,,,,,,,,,,,,,,,,,,,,,,
59.000,,,,,,,,,26,48,G - Gnd (7),0,0.0,,D 0.70,L 0.7,260,,,,39.0,46.1,272,343,,25.5,,,,143,486,0.080,0.168,3.8,19.8,30.6,60.8,-2.8,-2.8,,,Gear down - ground (3),Gnd (1),,,Normal (0),Normal (0),Not Out (0),Not Out (0), 0.0, 0.0, 0.0, 0.0, 0.0, 0.0,
59.250,,,,,,,,,,,,,,,D 0.70,,,,,,,,,,,,,,,,,,,,,,,,,,,,,,,,,,,,,,,,,
59.500,,,,,,,,,,,,,,,D 0.70,L 0.7,,,,,,,,,,,,,,,,,,,,,,,,,,,,,,,,Not Out (0),Not Out (0),,,,,,,
59.750,,,,,,,,,,,,,,,D 0.70,,,,,,,,,,,,,,,,,,,,,,,,,,,,,,,,,,,,,,,,,
60.000,,A319 (5),,EFHK,FIN913  ,16,,8,,,G - Gnd (7),0,0.0,0.00,D 0.70,L 0.7,260,,N60 05.08,,39.0,46.1,267,343,,,,0.0,0,164,487,0.086,0.168,4.5,19.6,32.1,60.8,-2.8,-2.8,F/CLSD (0),F/CLSD (0),Gear down - ground (3),Gnd (1),0.0,0.0,Normal (0),Normal (0),Not Out (0),Not Out (0), 0.0, 0.0, 0.0, 0.0, 0.0, 0.0,NOTCMD (0)
60.250,,,,,,,,,,,,,,,D 0.70,,,,,,,,,,,,,,,,,,,,,,,,,,,,,,,,,,,,,,,,,
60.500,,,,,,,,,,,,,,,D 0.70,L 0.7,,,,,,,,,,,,,,,,,,,,,,,,,,,,,,,,Not Out (0),Not Out (0),,,,,,,
60.750,,,,,,,,,,,,,,,D 0.70,,,,,,,,,,,,,,,,,,,,,,,,,,,,,,,,,,,,,,,,,
61.000,.OH-LVI,,EDDT,,,,6,,,,G - Gnd (7),0,0.0,,D 0.70,L 0.7,260,1009,,,39.0,46.1,270,345,,25.5,,,,186,487,0.096,0.168,5.3,19.6,33.6,60.8,-2.8,-2.8,,,Gear down - ground (3),Gnd (1),,,Normal (0),Normal (0),Not Out (0),Not Out (0), 0.0, 0.0, 0.0, 0.0, 0.0, 0.0,
61.250,,,,,,,,,,,,,,,D 0.70,,,,,,,,,,,,,,,,,,,,,,,,,,,,,,,,,,,,,,,,,
61.500,,,,,,,,,,,,,,,D 0.70,L 0.7,,,,,,,,,,,,,,,,,,,,,,,,,,,,,,,,Not Out (0),Not Out (0),,,,,,,
61.750,,,,,,,,,,,,,,,D 0.70,,,,,,,,,,,,,,,,,,,,,,,,,,,,,,,,,,,,,,,,,
62.000,,,,,,,,,,,G - Gnd (7),0,0.0,,D 0.70,L 0.7,260,,,E024 57.74,39.0,46.1,276,345,60255,,0.00,,,211,488,0.102,0.168,6.0,19.6,35.1,60.8,-2.8,-2.8,F/CLSD (0),F/CLSD (0),Gear down - ground (3),Gnd (1),0.0,0.0,Normal (0),Normal (0),Not Out (0),Not Out (0), 0.0, 0.0, 0.0, 0.0, 0.0, 0.0,
62.250,,,,,,,,,,,,,,,D 0.70,,,,,,,,,,,,,,,,,,,,,,,,,,,,,,,,,,,,,,,,,
62.500,,,,,,,,,,,,,,,D 0.70,L 0.7,,,,,,,,,,,,,,,,,,,,,,,,,,,,,,,,Not Out (0),Not Out (0),,,,,,,
62.750,,,,,,,,,,,,,,,D 0.70,,,,,,,,,,,,,,,,,,,,,,,,,,,,,,,,,,,,,,,,,
63.000,,,,,,,,,26,52,G - Gnd (7),0,0.0,,D 0.70,L 0.7,260,,,,39.0,46.1,283,341,,25.5,,,,233,488,0.107,0.168,6.9,19.5,36.5,60.8,-2.8,-2.8,,,Gear down - ground (3),Gnd (1),,,Normal (0),Normal (0),Not Out (0),Not Out (0), 0.0, 0.0, 0.0, 0.0, 0.0, 0.0,
63.250,,,,,,,,,,,,,,,D 0.70,,,,,,,,,,,,,,,,,,,,,,,,,,,,,,,,,,,,,,,,,
63.500,,,,,,,,,,,,,,,D 0.70,L 0.7,,,,,,,,,,,,,,,,,,,,,,,,,,,,,,,,Not Out (0),Not Out (0),,,,,,,
63.750,,,,,,,,,,,,,,,D 0.70,,,,,,,,,,,,,,,,,,,,,,,,,,,,,,,,,,,,,,,,,
64.000,,A319 (5),,EFHK,FIN913  ,16,,8,,,G - Gnd (7),0,0.0,0.00,D 0.70,L 0.7,260,,N60 05.08,,39.0,46.1,290,343,,,,0.0,0,254,488,0.115,0.168,7.5,19.5,38.0,60.8,-2.8,-2.8,F/CLSD (0),F/CLSD (0),Gear down - ground (3),Gnd (1),0.0,0.0,Normal (0),Normal (0),Not Out (0),Not Out (0), 0.0, 0.0, 0.0, 0.0, 0.0, 0.0,NOTCMD (0)
64.250,,,,,,,,,,,,,,,D 0.70,,,,,,,,,,,,,,,,,,,,,,,,,,,,,,,,,,,,,,,,,
64.500,,,,,,,,,,,,,,,D 0.70,L 0.7,,,,,,,,,,,,,,,,,,,,,,,,,,,,,,,,Not Out (0),Not Out (0),,,,,,,
64.750,,,,,,,,,,,,,,,D 0.70,,,,,,,,,,,,,,,,,,,,,,,,,,,,,,,,,,,,,,,,,
65.000,.OH-LVI,,EDDT,,,,6,,,,G - Gnd (7),0,0.0,,D 0.70,L 0.7,260,1009,,,39.0,46.1,299,343,,25.5,,,,276,489,0.119,0.168,8.3,19.5,39.5,60.8,-2.8,-2.8,,,Gear down - ground (3),Gnd (1),,,Normal (0),Normal (0),Not Out (0),Not Out (0), 0.0, 0.0, 0.0, 0.0, 0.0, 0.0,
65.250,,,,,,,,,,,,,,,D 0.70,,,,,,,,,,,,,,,,,,,,,,,,,,,,,,,,,,,,,,,,,
65.500,,,,,,,,,,,,,,,D 0.70,L 0.7,,,,,,,,,,,,,,,,,,,,,,,,,,,,,,,,Not Out (0),Not Out (0),,,,,,,
65.750,,,,,,,,,,,,,,,D 0.70,,,,,,,,,,,,,,,,,,,,,,,,,,,,,,,,,,,,,,,,,
66.000,,,,,,,,,,,G - Gnd (7),0,0.0,,D 0.70,L 0.7,260,,,E024 57.74,39.0,46.1,308,346,60255,,0.00,,,296,489,0.129,0.168,9.0,19.4,41.0,60.8,-2.8,-2.8,F/CLSD (0),F/CLSD (0),Gear down - ground (3),Gnd (1),0.0,0.0,Normal (0),Normal (0),Not Out (0),Not Out (0), 0.0, 0.0, 0.0, 0.0, 0.0, 0.0,
66.250,,,,,,,,,,,,,,,D 0.70,,,,,,,,,,,,,,,,,,,,,,,,,,,,,,,,,,,,,,,,,
66.500,,,,,,,,,,,,,,,D 0.70,L 0.7,,,,,,,,,,,,,,,,,,,,,,,,,,,,,,,,Not Out (0),Not Out (0),,,,,,,
66.750,,,,,,,,,,,,,,,D 0.70,,,,,,,,,,,,,,,,,,,,,,,,,,,,,,,,,,,,,,,,,
67.000,,,,,,,,,26,56,G - Gnd (7),0,0.0,,D 0.70,L 0.7,260,,,,39.0,46.1,316,343,,25.5,,,,312,489,0.135,0.168,9.6,19.3,42.5,60.8,-2.8,-2.8,,,Gear down - ground (3),Gnd (1),,,Normal (0),Normal (0),Not Out (0),Not Out (0), 0.0, 0.0, 0.0, 0.0, 0.0, 0.0,
67.250,,,,,,,,,,,,,,,D 0.70,,,,,,,,,,,,,,,,,,,,,,,,,,,,,,,,,,,,,,,,,
67.500,,,,,,,,,,,,,,,D 0.70,L 0.7,,,,,,,,,,,,,,,,,,,,,,,,,,,,,,,,Not Out (0),Not Out (0),,,,,,,
67.750,,,,,,,,,,,,,,,D 0.70,,,,,,,,,,,,,,,,,,,,,,,,,,,,,,,,,,,,,,,,,
68.000,,A319 (5),,EFHK,FIN913  ,16,,8,,,G - Gnd (7),0,0.0,0.00,D 0.70,L 0.7,260,,N60 05.08,,39.0,46.1,327,341,,,,0.0,0,325,490,0.141,0.168,10.3,19.3,43.9,60.8,-2.8,-2.8,F/CLSD (0),F/CLSD (0),Gear down - ground (3),Gnd (1),0.0,0.0,Normal (0),Normal (0),Not Out (0),Not Out (0), 0.0, 0.0, 0.0, 0.0, 0.0, 0.0,NOTCMD (0)
68.250,,,,,,,,,,,,,,,D 0.70,,,,,,,,,,,,,,,,,,,,,,,,,,,,,,,,,,,,,,,,,
68.500,,,,,,,,,,,,,,,D 0.70,L 0.7,,,,,,,,,,,,,,,,,,,,,,,,,,,,,,,,Not Out (0),Not Out (0),,,,,,,
68.750,,,,,,,,,,,,,,,D 0.70,,,,,,,,,,,,,,,,,,,,,,,,,,,,,,,,,,,,,,,,,
69.000,.OH-LVI,,EDDT,,,,6,,,,G - Gnd (7),0,0.0,,D 0.70,L 0.7,260,1009,,,39.0,46.1,337,345,,25.5,,,,337,490,0.150,0.168,11.0,19.1,45.3,60.8,-2.8,-2.8,,,Gear down - ground (3),Gnd (1),,,Normal (0),Normal (0),Not Out (0),Not Out (0), 0.0, 0.0, 0.0, 0.0, 0.0, 0.0,
69.250,,,,,,,,,,,,,,,D 0.70,,,,,,,,,,,,,,,,,,,,,,,,,,,,,,,,,,,,,,,,,
69.500,,,,,,,,,,,,,,,D 0.70,L 0.7,,,,,,,,,,,,,,,,,,,,,,,,,,,,,,,,Not Out (0),Not Out (0),,,,,,,
69.750,,,,,,,,,,,,,,,D 0.70,,,,,,,,,,,,,,,,,,,,,,,,,,,,,,,,,,,,,,,,,
70.000,,,,,,,,,,,G - Gnd (7),0,0.0,,D 0.70,L 0.7,260,,,E024 57.74,39.0,46.1,350,341,60255,,0.00,,,349,490,0.156,0.168,11.5,19.1,46.8,60.8,-2.8,-2.8,F/CLSD (0),F/CLSD (0),Gear down - ground (3),Gnd (1),0.0,0.0,Normal (0),Normal (0),Not Out (0),Not Out (0), 0.0, 0.0, 0.0, 0.0, 0.0, 0.0,
70.250,,,,,,,,,,,,,,,D 0.70,,,,,,,,,,,,,,,,,,,,,,,,,,,,,,,,,,,,,,,,,
70.500,,,,,,,,,,,,,,,D 0.70,L 0.7,,,,,,,,,,,,,,,,,,,,,,,,,,,,,,,,Not Out (0),Not Out (0),,,,,,,
70.750,,,,,,,,,,,,,,,D 0.70,,,,,,,,,,,,,,,,,,,,,,,,,,,,,,,,,,,,,,,,,
71.000,,,,,,,,,27,0,G - Gnd (7),0,0.0,,D 0.70,L 0.7,260,,,,39.0,46.1,363,341,,25.5,,,,361,491,0.164,0.170,12.3,19.1,48.3,60.8,-2.8,-2.8,,,Gear down - ground (3),Gnd (1),,,Normal (0),Normal (0),Not Out (0),Not Out (0), 0.0, 0.0, 0.0, 0.0, 0.0, 0.0,
71.250,,,,,,,,,,,,,,,D 0.70,,,,,,,,,,,,,,,,,,,,,,,,,,,,,,,,,,,,,,,,,
71.500,,,,,,,,,,,,,,,D 0.70,L 0.7,,,,,,,,,,,,,,,,,,,,,,,,,,,,,,,,Not Out (0),Not Out (0),,,,,,,
71.750,,,,,,,,,,,,,,,D 0.70,,,,,,,,,,,,,,,,,,,,,,,,,,,,,,,,,,,,,,,,,
72.000,,A319 (5),,EFHK,FIN913  ,16,,8,,,G - Gnd (7),0,0.0,0.00,D 0.70,L 0.7,260,,N60 05.08,,39.0,46.1,374,345,,,,0.0,0,373,491,0.168,0.168,13.0,19.3,49.6,60.8,-2.8,-2.8,F/CLSD (0),F/CLSD (0),Gear down - ground (3),Gnd (1),0.0,0.0,Normal (0),Normal (0),Not Out (0),Not Out (0), 0.0, 0.0, 0.0, 0.0, 0.0, 0.0,NOTCMD (0)
72.250,,,,,,,,,,,,,,,D 0.70,,,,,,,,,,,,,,,,,,,,,,,,,,,,,,,,,,,,,,,,,
72.500,,,,,,,,,,,,,,,D 0.70,L 0.7,,,,,,,,,,,,,,,,,,,,,,,,,,,,,,,,Not Out (0),Not Out (0),,,,,,,
72.750,,,,,,,,,,,,,,,D 0.70,,,,,,,,,,,,,,,,,,,,,,,,,,,,,,,,,,,,,,,,,
73.000,.OH-LVI,,EDDT,,,,6,,,,G - Gnd (7),0,0.0,,D 0.70,L 0.7,260,1009,,,39.0,46.1,381,343,,25.5,,,,383,491,0.174,0.168,13.6,19.3,51.0,60.8,-2.8,-2.8,,,Gear down - ground (3),Gnd (1),,,Normal (0),Normal (0),Not Out (0),Not Out (0), 0.0, 0.0, 0.0, 0.0, 0.0, 0.0,
73.250,,,,,,,,,,,,,,,D 0.70,,,,,,,,,,,,,,,,,,,,,,,,,,,,,,,,,,,,,,,,,
73.500,,,,,,,,,,,,,,,D 0.70,L 0.7,,,,,,,,,,,,,,,,,,,,,,,,,,,,,,,,Not Out (0),Not Out (0),,,,,,,
73.750,,,,,,,,,,,,,,,D 0.70,,,,,,,,,,,,,,,,,,,,,,,,,,,,,,,,,,,,,,,,,
74.000,,,,,,,,,,,G - Gnd (7),0,0.0,,D 0.70,L 0.7,260,,,E024 57.74,39.0,46.1,388,341,60255,,0.00,,,393,492,0.178,0.168,14.4,19.4,51.8,60.8,-2.8,-2.8,F/CLSD (0),F/CLSD (0),Gear down - ground (3),Gnd (1),0.0,0.0,Normal (0),Normal (0),Not Out (0),Not Out (0), 0.0, 0.0, 0.0, 0.0, 0.0, 0.0,
74.250,,,,,,,,,,,,,,,D 0.70,,,,,,,,,,,,,,,,,,,,,,,,,,,,,,,,,,,,,,,,,
74.500,,,,,,,,,,,,,,,D 0.70,L 0.7,,,,,,,,,,,,,,,,,,,,,,,,,,,,,,,,Not Out (0),Not Out (0),,,,,,,
74.750,,,,,,,,,,,,,,,D 0.70,,,,,,,,,,,,,,,,,,,,,,,,,,,,,,,,,,,,,,,,,
75.000,,,,,,,,,27,4,G - Gnd (7),0,0.0,,D 0.70,L 0.7,260,,,,39.0,46.1,403,345,,25.5,,,,401,493,0.188,0.168,15.0,19.5,52.4,60.8,-2.8,-2.8,,,Gear down - ground (3),Gnd (1),,,Normal (0),Normal (0),Not Out (0),Not Out (0), 0.0, 0.0, 0.0, 0.0, 0.0, 0.0,
75.250,,,,,,,,,,,,,,,D 0.70,,,,,,,,,,,,,,,,,,,,,,,,,,,,,,,,,,,,,,,,,
75.500,,,,,,,,,,,,,,,D 0.70,L 0.7,,,,,,,,,,,,,,,,,,,,,,,,,,,,,,,,Not Out (0),Not Out (0),,,,,,,
75.750,,,,,,,,,,,,,,,D 0.70,,,,,,,,,,,,,,,,,,,,,,,,,,,,,,,,,,,,,,,,,
76.000,,A319 (5),,EFHK,FIN913  ,16,,8,,,G - Gnd (7),0,0.0,0.00,D 0.70,L 0.7,260,,N60 05.08,,39.0,46.1,412,341,,,,0.0,0,408,493,0.191,0.168,15.5,19.6,53.3,60.8,-2.8,-2.8,F/CLSD (0),F/CLSD (0),Gear down - ground (3),Gnd (1),0.0,0.0,Normal (0),Normal (0),Not Out (0),Not Out (0), 0.0, 0.0, 0.0, 0.0, 0.0, 0.0,NOTCMD (0)
76.250,,,,,,,,,,,,,,,D 0.70,,,,,,,,,,,,,,,,,,,,,,,,,,,,,,,,,,,,,,,,,
76.500,,,,,,,,,,,,,,,D 0.70,L 0.7,,,,,,,,,,,,,,,,,,,,,,,,,,,,,,,,Not Out (0),Not Out (0),,,,,,,
76.750,,,,,,,,,,,,,,,D 0.70,,,,,,,,,,,,,,,,,,,,,,,,,,,,,,,,,,,,,,,,,
77.000,.OH-LVI,,EDDT,,,,6,,,,G - Gnd (7),0,0.0,,D 0.70,L 0.7,260,1009,,,39.0,46.1,415,345,,25.5,,,,418,493,0.195,0.170,16.0,19.6,54.1,60.8,-2.8,-2.8,,,Gear down - ground (3),Gnd (1),,,Normal (0),Normal (0),Not Out (0),Not Out (0), 0.0, 0.0, 0.0, 0.0, 0.0, 0.0,
77.250,,,,,,,,,,,,,,,D 0.70,,,,,,,,,,,,,,,,,,,,,,,,,,,,,,,,,,,,,,,,,
77.500,,,,,,,,,,,,,,,D 0.70,L 0.7,,,,,,,,,,,,,,,,,,,,,,,,,,,,,,,,Not Out (0),Not Out (0),,,,,,,
77.750,,,,,,,,,,,,,,,D 0.70,,,,,,,,,,,,,,,,,,,,,,,,,,,,,,,,,,,,,,,,,
78.000,,,,,,,,,,,G - Gnd (7),0,0.0,,D 0.70,L 0.7,260,,,E024 57.74,39.0,46.1,423,343,60255,,0.00,,,426,494,0.199,0.170,16.4,19.6,54.9,60.8,-2.8,-2.8,F/CLSD (0),F/CLSD (0),Gear down - ground (3),Gnd (1),0.0,0.0,Normal (0),Normal (0),Not Out (0),Not Out (0), 0.0, 0.0, 0.0, 0.0, 0.0, 0.0,
78.250,,,,,,,,,,,,,,,D 0.70,,,,,,,,,,,,,,,,,,,,,,,,,,,,,,,,,,,,,,,,,
78.500,,,,,,,,,,,,,,,D 0.70,L 0.7,,,,,,,,,,,,,,,,,,,,,,,,,,,,,,,,Not Out (0),Not Out (0),,,,,,,
78.750,,,,,,,,,,,,,,,D 0.70,,,,,,,,,,,,,,,,,,,,,,,,,,,,,,,,,,,,,,,,,
79.000,,,,,,,,,27,8,G - Gnd (7),0,0.0,,D 0.70,L 0.7,260,,,,39.0,46.1,432,343,,25.5,,,,433,495,0.205,0.170,16.9,19.6,55.9,60.8,-2.8,-2.8,,,Gear down - ground (3),Gnd (1),,,Normal (0),Normal (0),Not Out (0),Not Out (0), 0.0, 0.0, 0.0, 0.0, 0.0, 0.0,
79.250,,,,,,,,,,,,,,,D 0.70,,,,,,,,,,,,,,,,,,,,,,,,,,,,,,,,,,,,,,,,,
79.500,,,,,,,,,,,,,,,D 0.70,L 0.7,,,,,,,,,,,,,,,,,,,,,,,,,,,,,,,,Not Out (0),Not Out (0),,,,,,,
79.750,,,,,,,,,,,,,,,D 0.70,,,,,,,,,,,,,,,,,,,,,,,,,,,,,,,,,,,,,,,,,
80.000,,A319 (5),,EFHK,FIN913  ,16,,8,,,G - Gnd (7),0,0.0,0.00,D 0.70,L 0.7,260,,N60 05.08,,39.0,46.1,443,345,,,,0.0,0,440,495,0.213,0.166,17.4,19.8,56.8,60.8,-2.8,-2.8,F/CLSD (0),F/CLSD (0),Gear down - ground (3),Gnd (1),0.0,0.0,Normal (0),Normal (0),Not Out (0),Not Out (0), 0.0, 0.0, 0.0, 0.0, 0.0, 0.0,NOTCMD (0)
80.250,,,,,,,,,,,,,,,D 0.70,,,,,,,,,,,,,,,,,,,,,,,,,,,,,,,,,,,,,,,,,
80.500,,,,,,,,,,,,,,,D 0.70,L 0.7,,,,,,,,,,,,,,,,,,,,,,,,,,,,,,,,Not Out (0),Not Out (0),,,,,,,
80.750,,,,,,,,,,,,,,,D 0.70,,,,,,,,,,,,,,,,,,,,,,,,,,,,,,,,,,,,,,,,,
81.000,.OH-LVI,,EDDT,,,,6,,,,G - Gnd (7),0,0.0,,D 0.70,L 0.7,260,1009,,,39.0,46.1,454,343,,25.5,,,,446,495,0.219,0.168,17.9,19.9,57.8,60.8,-2.8,-2.8,,,Gear down - ground (3),Gnd (1),,,Normal (0),Normal (0),Not Out (0),Not Out (0), 0.0, 0.0, 0.0, 0.0, 0.0, 0.0,
81.250,,,,,,,,,,,,,,,D 0.70,,,,,,,,,,,,,,,,,,,,,,,,,,,,,,,,,,,,,,,,,
81.500,,,,,,,,,,,,,,,D 0.70,L 0.7,,,,,,,,,,,,,,,,,,,,,,,,,,,,,,,,Not Out (0),Not Out (0),,,,,,,
81.750,,,,,,,,,,,,,,,D 0.70,,,,,,,,,,,,,,,,,,,,,,,,,,,,,,,,,,,,,,,,,
82.000,,,,,,,,,,,G - Gnd (7),0,0.0,,D 0.70,L 0.7,260,,,E024 57.74,39.0,46.1,464,345,60255,,0.00,,,452,495,0.225,0.168,18.5,19.9,58.9,60.8,-2.8,-2.8,F/CLSD (0),F/CLSD (0),Gear down - ground (3),Gnd (1),0.0,0.0,Normal (0),Normal (0),Not Out (0),Not Out (0), 0.0, 0.0, 0.0, 0.0, 0.0, 0.0,
82.250,,,,,,,,,,,,,,,D 0.70,,,,,,,,,,,,,,,,,,,,,,,,,,,,,,,,,,,,,,,,,
82.500,,,,,,,,,,,,,,,D 0.70,L 0.7,,,,,,,,,,,,,,,,,,,,,,,,,,,,,,,,Not Out (0),Not Out (0),,,,,,,
82.750,,,,,,,,,,,,,,,D 0.70,,,,,,,,,,,,,,,,,,,,,,,,,,,,,,,,,,,,,,,,,
83.000,,,,,,,,,27,12,G - Gnd (7),0,0.0,,D 0.70,L 0.7,260,,,,39.0,46.1,475,341,,25.5,,,,459,496,0.229,0.170,19.1,20.0,60.0,60.8,-2.8,-2.8,,,Gear down - ground (3),Gnd (1),,,Normal (0),Normal (0),Not Out (0),Not Out (0), 0.0, 0.0, 0.0, 0.0, 0.0, 0.0,
83.250,,,,,,,,,,,,,,,D 0.70,,,,,,,,,,,,,,,,,,,,,,,,,,,,,,,,,,,,,,,,,
83.500,,,,,,,,,,,,,,,D 0.70,L 0.7,,,,,,,,,,,,,,,,,,,,,,,,,,,,,,,,Not Out (0),Not Out (0),,,,,,,
83.750,,,,,,,,,,,,,,,D 0.70,,,,,,,,,,,,,,,,,,,,,,,,,,,,,,,,,,,,,,,,,
84.000,,A319 (5),,EFHK,FIN913  ,16,,8,,,G - Gnd (7),0,0.0,0.00,D 0.70,L 0.7,260,,N60 05.08,,39.0,46.1,446,345,,,,0.0,0,463,496,0.223,0.168,19.8,20.0,61.0,60.8,-2.8,-2.8,F/CLSD (0),F/CLSD (0),Gear down - ground (3),Gnd (1),0.0,0.0,Normal (0),Normal (0),Not Out (0),Not Out (0), 0.0, 0.0, 0.0, 0.0, 0.0, 0.0,NOTCMD (0)
84.250,,,,,,,,,,,,,,,D 0.70,,,,,,,,,,,,,,,,,,,,,,,,,,,,,,,,,,,,,,,,,
84.500,,,,,,,,,,,,,,,D 0.70,L 0.7,,,,,,,,,,,,,,,,,,,,,,,,,,,,,,,,Not Out (0),Not Out (0),,,,,,,
84.750,,,,,,,,,,,,,,,D 0.70,,,,,,,,,,,,,,,,,,,,,,,,,,,,,,,,,,,,,,,,,
85.000,.OH-LVI,,EDDT,,,,6,,,,G - Gnd (7),0,0.0,,D 0.70,L 0.7,260,1009,,,39.0,46.1,366,343,,25.5,,,,467,497,0.168,0.170,20.3,19.9,61.1,60.8,-2.8,-2.8,,,Gear down - ground (3),Gnd (1),,,Normal (0),Normal (0),Not Out (0),Not Out (0), 0.0, 0.0, 0.0, 0.0, 0.0, 0.0,
85.250,,,,,,,,,,,,,,,D 0.70,,,,,,,,,,,,,,,,,,,,,,,,,,,,,,,,,,,,,,,,,
85.500,,,,,,,,,,,,,,,D 0.70,L 0.7,,,,,,,,,,,,,,,,,,,,,,,,,,,,,,,,Not Out (0),Not Out (0),,,,,,,
85.750,,,,,,,,,,,,,,,D 0.70,,,,,,,,,,,,,,,,,,,,,,,,,,,,,,,,,,,,,,,,,
86.000,,,,,,,,,,,G - Gnd (7),0,0.0,,D 0.70,L 0.7,260,,,E024 57.74,39.0,46.1,352,341,60255,,0.00,,,470,497,0.158,0.168,20.1,19.9,61.0,60.8,-2.8,-2.8,F/CLSD (0),F/CLSD (0),Gear down - ground (3),Gnd (1),0.0,0.0,Normal (0),Normal (0),Not Out (0),Not Out (0), 0.0, 0.0, 0.0, 0.0, 0.0, 0.0,
86.250,,,,,,,,,,,,,,,D 0.70,,,,,,,,,,,,,,,,,,,,,,,,,,,,,,,,,,,,,,,,,
86.500,,,,,,,,,,,,,,,D 0.70,L 0.7,,,,,,,,,,,,,,,,,,,,,,,,,,,,,,,,Not Out (0),Not Out (0),,,,,,,
86.750,,,,,,,,,,,,,,,D 0.70,,,,,,,,,,,,,,,,,,,,,,,,,,,,,,,,,,,,,,,,,
87.000,,,,,,,,,27,16,G - Gnd (7),0,0.0,,D 0.70,L 0.7,260,,,,39.0,46.1,354,339,,25.5,,,,468,498,0.158,0.168,20.1,19.9,61.0,60.8,-2.8,-2.8,,,Gear down - ground (3),Gnd (1),,,Normal (0),Normal (0),Not Out (0),Not Out (0), 0.0, 0.0, 0.0, 0.0, 0.0, 0.0,
87.250,,,,,,,,,,,,,,,D 0.70,,,,,,,,,,,,,,,,,,,,,,,,,,,,,,,,,,,,,,,,,
87.500,,,,,,,,,,,,,,,D 0.70,L 0.7,,,,,,,,,,,,,,,,,,,,,,,,,,,,,,,,Not Out (0),Not Out (0),,,,,,,
87.750,,,,,,,,,,,,,,,D 0.70,,,,,,,,,,,,,,,,,,,,,,,,,,,,,,,,,,,,,,,,,
88.000,,A319 (5),,EFHK,FIN913  ,16,,8,,,G - Gnd (7),0,0.0,0.00,D 0.70,L 0.7,260,,N60 05.08,,39.0,46.1,357,343,,,,0.0,0,465,498,0.160,0.168,20.0,19.9,60.9,60.8,-2.8,-2.8,F/CLSD (0),F/CLSD (0),Gear down - ground (3),Gnd (1),0.0,0.0,Normal (0),Normal (0),Not Out (0),Not Out (0), 0.0, 0.0, 0.0, 0.0, 0.0, 0.0,NOTCMD (0)
88.250,,,,,,,,,,,,,,,D 0.70,,,,,,,,,,,,,,,,,,,,,,,,,,,,,,,,,,,,,,,,,
88.500,,,,,,,,,,,,,,,D 0.70,L 0.7,,,,,,,,,,,,,,,,,,,,,,,,,,,,,,,,Not Out (0),Not Out (0),,,,,,,
88.750,,,,,,,,,,,,,,,D 0.70,,,,,,,,,,,,,,,,,,,,,,,,,,,,,,,,,,,,,,,,,
89.000,.OH-LVI,,EDDT,,,,6,,,,G - Gnd (7),0,0.0,,D 0.70,L 0.7,260,1009,,,39.0,46.1,361,341,,25.5,,,,464,499,0.162,0.168,20.0,19.9,60.9,60.8,-2.8,-2.8,,,Gear down - ground (3),Gnd (1),,,Normal (0),Normal (0),Not Out (0),Not Out (0), 0.0, 0.0, 0.0, 0.0, 0.0, 0.0,
89.250,,,,,,,,,,,,,,,D 0.70,,,,,,,,,,,,,,,,,,,,,,,,,,,,,,,,,,,,,,,,,
89.500,,,,,,,,,,,,,,,D 0.70,L 0.7,,,,,,,,,,,,,,,,,,,,,,,,,,,,,,,,Not Out (0),Not Out (0),,,,,,,
89.750,,,,,,,,,,,,,,,D 0.70,,,,,,,,,,,,,,,,,,,,,,,,,,,,,,,,,,,,,,,,,
90.000,,,,,,,,,,,G - Gnd (7),0,0.0,,D 0.70,L 0.7,260,,,E024 57.74,39.0,46.1,361,343,60255,,0.00,,,464,498,0.162,0.168,20.0,20.0,60.8,60.8,-2.8,-2.8,F/CLSD (0),F/CLSD (0),Gear down - ground (3),Gnd (1),0.0,0.0,Normal (0),Normal (0),Not Out (0),Not Out (0), 0.0, 0.0, 0.0, 0.0, 0.0, 0.0,
90.250,,,,,,,,,,,,,,,D 0.70,,,,,,,,,,,,,,,,,,,,,,,,,,,,,,,,,,,,,,,,,
90.500,,,,,,,,,,,,,,,D 0.70,L 0.7,,,,,,,,,,,,,,,,,,,,,,,,,,,,,,,,Not Out (0),Not Out (0),,,,,,,
90.750,,,,,,,,,,,,,,,D 0.70,,,,,,,,,,,,,,,,,,,,,,,,,,,,,,,,,,,,,,,,,
91.000,,,,,,,,,27,20,G - Gnd (7),0,0.0,,D 0.70,L 0.7,260,,,,39.0,46.1,363,343,,25.5,,,,464,498,0.162,0.168,20.0,20.0,60.8,60.8,-2.8,-2.8,,,Gear down - ground (3),Gnd (1),,,Normal (0),Normal (0),Not Out (0),Not Out (0), 0.0, 0.0, 0.0, 0.0, 0.0, 0.0,
91.250,,,,,,,,,,,,,,,D 0.70,,,,,,,,,,,,,,,,,,,,,,,,,,,,,,,,,,,,,,,,,
91.500,,,,,,,,,,,,,,,D 0.70,L 0.7,,,,,,,,,,,,,,,,,,,,,,,,,,,,,,,,Not Out (0),Not Out (0),,,,,,,
91.750,,,,,,,,,,,,,,,D 0.70,,,,,,,,,,,,,,,,,,,,,,,,,,,,,,,,,,,,,,,,,
92.000,,A319 (5),,EFHK,FIN913  ,16,,8,,,G - Gnd (7),0,0.0,0.00,D 0.70,L 0.7,260,,N60 05.08,,39.0,46.1,363,343,,,,0.0,0,464,499,0.162,0.170,20.0,20.1,60.8,60.8,-2.8,-2.8,F/CLSD (0),F/CLSD (0),Gear down - ground (3),Gnd (1),0.0,0.0,Normal (0),Normal (0),Not Out (0),Not Out (0), 0.0, 0.0, 0.0, 0.0, 0.0, 0.0,NOTCMD (0)
92.250,,,,,,,,,,,,,,,D 0.70,,,,,,,,,,,,,,,,,,,,,,,,,,,,,,,,,,,,,,,,,
92.500,,,,,,,,,,,,,,,D 0.70,L 0.7,,,,,,,,,,,,,,,,,,,,,,,,,,,,,,,,Not Out (0),Not Out (0),,,,,,,
92.750,,,,,,,,,,,,,,,D 0.70,,,,,,,,,,,,,,,,,,,,,,,,,,,,,,,,,,,,,,,,,
93.000,.OH-LVI,,EDDT,,,,6,,,,G - Gnd (7),0,0.0,,D 0.70,L 0.7,260,1009,,,39.0,46.1,366,345,,25.5,,,,464,499,0.164,0.168,20.0,20.1,60.8,60.8,-2.8,-2.8,,,Gear down - ground (3),Gnd (1),,,Normal (0),Normal (0),Not Out (0),Not Out (0), 0.0, 0.0, 0.0, 0.0, 0.0, 0.0,
93.250,,,,,,,,,,,,,,,D 0.70,,,,,,,,,,,,,,,,,,,,,,,,,,,,,,,,,,,,,,,,,
93.500,,,,,,,,,,,,,,,D 0.70,L 0.7,,,,,,,,,,,,,,,,,,,,,,,,,,,,,,,,Not Out (0),Not Out (0),,,,,,,
93.750,,,,,,,,,,,,,,,D 0.70,,,,,,,,,,,,,,,,,,,,,,,,,,,,,,,,,,,,,,,,,
94.000,,,,,,,,,,,G - Gnd (7),0,0.0,,D 0.70,L 0.7,260,,,E024 57.74,39.0,46.1,363,341,60255,,0.00,,,465,500,0.164,0.170,20.0,20.1,60.8,60.8,-2.8,-2.8,F/CLSD (0),F/CLSD (0),Gear down - ground (3),Gnd (1),0.0,0.0,Normal (0),Normal (0),Not Out (0),Not Out (0), 0.0, 0.0, 0.0, 0.0, 0.0, 0.0,
94.250,,,,,,,,,,,,,,,D 0.70,,,,,,,,,,,,,,,,,,,,,,,,,,,,,,,,,,,,,,,,,
94.500,,,,,,,,,,,,,,,D 0.70,L 0.7,,,,,,,,,,,,,,,,,,,,,,,,,,,,,,,,Not Out (0),Not Out (0),,,,,,,
94.750,,,,,,,,,,,,,,,D 0.70,,,,,,,,,,,,,,,,,,,,,,,,,,,,,,,,,,,,,,,,,
95.000,,,,,,,,,27,24,G - Gnd (7),0,0.0,,D 0.70,L 0.7,260,,,,39.0,46.1,363,345,,25.5,,,,465,499,0.164,0.168,20.0,20.1,60.8,60.8,-2.8,-2.8,,,Gear down - ground (3),Gnd (1),,,Normal (0),Normal (0),Not Out (0),Not Out (0), 0.0, 0.0, 0.0, 0.0, 0.0, 0.0,
95.250,,,,,,,,,,,,,,,D 0.70,,,,,,,,,,,,,,,,,,,,,,,,,,,,,,,,,,,,,,,,,
95.500,,,,,,,,,,,,,,,D 0.70,L 0.7,,,,,,,,,,,,,,,,,,,,,,,,,,,,,,,,Not Out (0),Not Out (0),,,,,,,
95.750,,,,,,,,,,,,,,,D 0.70,,,,,,,,,,,,,,,,,,,,,,,,,,,,,,,,,,,,,,,,,
96.000,,A319 (5),,EFHK,FIN913  ,16,,8,,,G - Gnd (7),0,0.0,0.00,D 0.70,L 0.7,260,,N60 05.08,,39.0,46.1,381,343,,,,0.0,0,466,500,0.172,0.172,19.9,20.1,60.6,60.8,-2.8,-2.8,F/CLSD (0),N/CLSD (1),Gear down - ground (3),Gnd (1),0.0,0.0,Normal (0),Normal (0),Not Out (0),Not Out (0), 0.0, 0.0, 0.0, 0.0, 0.0, 0.0,NOTCMD (0)
96.250,,,,,,,,,,,,,,,D 0.70,,,,,,,,,,,,,,,,,,,,,,,,,,,,,,,,,,,,,,,,,
96.500,,,,,,,,,,,,,,,D 0.70,L 0.7,,,,,,,,,,,,,,,,,,,,,,,,,,,,,,,,Not Out (0),Not Out (0),,,,,,,
96.750,,,,,,,,,,,,,,,D 0.70,,,,,,,,,,,,,,,,,,,,,,,,,,,,,,,,,,,,,,,,,
97.000,.OH-LVI,,EDDT,,,,6,,,,G - Gnd (7),0,0.0,,D 0.70,L 0.7,260,1009,,,39.0,46.1,383,345,,25.5,,,,467,500,0.176,0.170,19.9,20.1,60.6,60.8,-2.8,-2.8,,,Gear down - ground (3),Gnd (1),,,Normal (0),Normal (0),Not Out (0),Not Out (0), 0.0, 0.0, 0.0, 0.0, 0.0, 0.0,
97.250,,,,,,,,,,,,,,,D 0.70,,,,,,,,,,,,,,,,,,,,,,,,,,,,,,,,,,,,,,,,,
97.500,,,,,,,,,,,,,,,D 0.70,L 0.7,,,,,,,,,,,,,,,,,,,,,,,,,,,,,,,,Not Out (0),Not Out (0),,,,,,,
97.750,,,,,,,,,,,,,,,D 0.70,,,,,,,,,,,,,,,,,,,,,,,,,,,,,,,,,,,,,,,,,
98.000,,,,,,,,,,,G - Gnd (7),0,0.0,,D 0.70,L 0.7,260,,,E024 57.74,39.0,46.1,388,354,60255,,0.00,,,469,501,0.178,0.174,20.0,20.3,60.6,60.6,-2.8,-2.8,F/CLSD (0),N/CLSD (1),Gear down - ground (3),Gnd (1),0.0,2.5,Normal (0),Normal (0),Not Out (0),Not Out (0), 0.0, 0.0, 0.0, 0.0, 0.0, 0.0,
98.250,,,,,,,,,,,,,,,D 0.70,,,,,,,,,,,,,,,,,,,,,,,,,,,,,,,,,,,,,,,,,
98.500,,,,,,,,,,,,,,,D 0.70,L 0.7,,,,,,,,,,,,,,,,,,,,,,,,,,,,,,,,Not Out (0),Not Out (0),,,,,,,
98.750,,,,,,,,,,,,,,,D 0.70,,,,,,,,,,,,,,,,,,,,,,,,,,,,,,,,,,,,,,,,,
99.000,,,,,,,,,27,28,G - Gnd (7),0,0.0,,D 0.70,L 0.7,260,,,,39.0,46.1,385,356,,25.5,,,,471,502,0.178,0.174,20.1,20.4,60.6,60.6,-2.8,-2.8,,,Gear down - ground (3),Gnd (1),,,Normal (0),Normal (0),Not Out (0),Not Out (0), 0.0, 0.0, 0.0, 0.0, 0.0, 0.0,
99.250,,,,,,,,,,,,,,,D 0.70,,,,,,,,,,,,,,,,,,,,,,,,,,,,,,,,,,,,,,,,,
99.500,,,,,,,,,,,,,,,D 0.70,L 0.7,,,,,,,,,,,,,,,,,,,,,,,,,,,,,,,,Not Out (0),Not Out (0),,,,,,,
99.750,,,,,,,,,,,,,,,D 0.70,,,,,,,,,,,,,,,,,,,,,,,,,,,,,,,,,,,,,,,,,
100.000,,A319 (5),,EFHK,FIN913  ,16,,8,,,G - Gnd (7),0,0.0,0.00,D 0.70,L 0.7,260,,N60 05.08,,39.0,46.1,385,356,,,,0.0,0,473,505,0.176,0.180,20.1,20.3,60.6,60.6,-2.8,-2.8,F/CLSD (0),N/CLSD (1),Gear down - ground (3),Gnd (1),1.0,5.8,Normal (0),Normal (0),Not Out (0),Not Out (0), 0.0, 0.0, 0.0, 0.0, 0.0, 0.0,NOTCMD (0)
100.250,,,,,,,,,,,,,,,D 0.70,,,,,,,,,,,,,,,,,,,,,,,,,,,,,,,,,,,,,,,,,
100.500,,,,,,,,,,,,,,,D 0.70,L 0.7,,,,,,,,,,,,,,,,,,,,,,,,,,,,,,,,Not Out (0),Not Out (0),,,,,,,
100.750,,,,,,,,,,,,,,,D 0.70,,,,,,,,,,,,,,,,,,,,,,,,,,,,,,,,,,,,,,,,,
101.000,.OH-LVI,,EDDT,,,,6,,,,G - Gnd (7),0,0.0,,D 0.70,L 0.7,260,1009,,,39.0,46.1,383,368,,25.5,,,,475,508,0.176,0.189,20.1,20.1,60.8,60.5,-2.8,-2.8,,,Gear down - ground (3),Gnd (1),,,Normal (0),Normal (0),Not Out (0),Not Out (0), 0.0, 0.0, 0.0, 0.0, 0.0, 0.0,
101.250,,,,,,,,,,,,,,,D 0.70,,,,,,,,,,,,,,,,,,,,,,,,,,,,,,,,,,,,,,,,,
101.500,,,,,,,,,,,,,,,D 0.70,L 0.7,,,,,,,,,,,,,,,,,,,,,,,,,,,,,,,,Not Out (0),Not Out (0),,,,,,,
101.750,,,,,,,,,,,,,,,D 0.70,,,,,,,,,,,,,,,,,,,,,,,,,,,,,,,,,,,,,,,,,
102.000,,,,,,,,,,,G - Gnd (7),0,0.0,,D 0.70,L 0.7,260,,,E024 57.74,39.0,46.1,383,377,60255,,0.00,,,476,513,0.176,0.193,20.1,20.1,60.8,60.5,-2.8,-2.8,F/CLSD (0),N/CLSD (1),Gear down - ground (3),Gnd (1),1.0,9.2,Normal (0),Normal (0),Not Out (0),Not Out (0), 0.0, 0.0, 0.0, 0.0, 0.0, 0.0,
102.250,,,,,,,,,,,,,,,D 0.70,,,,,,,,,,,,,,,,,,,,,,,,,,,,,,,,,,,,,,,,,
102.500,,,,,,,,,,,,,,,D 0.70,L 0.7,,,,,,,,,,,,,,,,,,,,,,,,,,,,,,,,Not Out (0),Not Out (0),,,,,,,
102.750,,,,,,,,,,,,,,,D 0.70,,,,,,,,,,,,,,,,,,,,,,,,,,,,,,,,,,,,,,,,,
103.000,,,,,,,,,27,32,G - Gnd (7),0,0.0,,D 0.70,L 0.7,260,,,,39.0,46.1,377,386,,25.5,,,,477,517,0.174,0.191,20.1,20.1,60.8,60.6,-2.8,-2.8,,,Gear down - ground (3),Gnd (1),,,Normal (0),Normal (0),Not Out (0),Not Out (0), 0.0, 0.0, 0.0, 0.0, 0.0, 0.0,
103.250,,,,,,,,,,,,,,,D 0.70,,,,,,,,,,,,,,,,,,,,,,,,,,,,,,,,,,,,,,,,,
103.500,,,,,,,,,,,,,,,D 0.70,L 0.7,,,,,,,,,,,,,,,,,,,,,,,,,,,,,,,,Not Out (0),Not Out (0),,,,,,,
103.750,,,,,,,,,,,,,,,D 0.70,,,,,,,,,,,,,,,,,,,,,,,,,,,,,,,,,,,,,,,,,
104.000,,A319 (5),,EFHK,FIN913  ,16,,8,,,G - Gnd (7),0,0.0,0.00,D 0.70,L 0.7,260,,N60 05.08,,39.0,46.1,377,379,,,,0.0,0,479,521,0.174,0.191,20.0,20.0,60.8,60.6,-2.8,-2.8,F/CLSD (0),N/CLSD (1),Gear down - ground (3),Gnd (1),1.5,10.0,Normal (0),Normal (0),Not Out (0),Not Out (0), 0.0, 0.0, 0.0, 0.0, 0.0, 0.0,NOTCMD (0)
104.250,,,,,,,,,,,,,,,D 0.70,,,,,,,,,,,,,,,,,,,,,,,,,,,,,,,,,,,,,,,,,
104.500,,,,,,,,,,,,,,,D 0.70,L 0.7,,,,,,,,,,,,,,,,,,,,,,,,,,,,,,,,Not Out (0),Not Out (0),,,,,,,
104.750,,,,,,,,,,,,,,,D 0.70,,,,,,,,,,,,,,,,,,,,,,,,,,,,,,,,,,,,,,,,,
105.000,.OH-LVI,,EDDT,,,,6,,,,G - Gnd (7),0,0.0,,D 0.70,L 0.7,260,1009,,,39.0,46.1,386,383,,25.5,,,,479,525,0.182,0.191,20.0,20.0,60.6,60.6,-2.8,-2.8,,,Gear down - ground (3),Gnd (1),,,Normal (0),Normal (0),Not Out (0),Not Out (0), 0.0, 0.0, 0.0, 0.0, 0.0, 0.0,
105.250,,,,,,,,,,,,,,,D 0.70,,,,,,,,,,,,,,,,,,,,,,,,,,,,,,,,,,,,,,,,,
105.500,,,,,,,,,,,,,,,D 0.70,L 0.7,,,,,,,,,,,,,,,,,,,,,,,,,,,,,,,,Not Out (0),Not Out (0),,,,,,,
105.750,,,,,,,,,,,,,,,D 0.70,,,,,,,,,,,,,,,,,,,,,,,,,,,,,,,,,,,,,,,,,
106.000,,,,,,,,,,,G - Gnd (7),0,0.0,,D 0.70,L 0.7,260,,,E024 57.74,39.0,46.1,399,383,60255,,0.00,,,481,527,0.188,0.189,20.0,20.0,60.6,60.6,-2.8,-2.8,N/CLSD (1),N/CLSD (1),Gear down - ground (3),Gnd (1),1.5,10.0,Normal (0),Normal (0),Not Out (0),Not Out (0), 0.0, 0.0, 0.0, 0.0, 0.0, 0.0,
106.250,,,,,,,,,,,,,,,D 0.70,,,,,,,,,,,,,,,,,,,,,,,,,,,,,,,,,,,,,,,,,
106.500,,,,,,,,,,,,,,,D 0.70,L 0.7,,,,,,,,,,,,,,,,,,,,,,,,,,,,,,,,Not Out (0),Not Out (0),,,,,,,
106.750,,,,,,,,,,,,,,,D 0.70,,,,,,,,,,,,,,,,,,,,,,,,,,,,,,,,,,,,,,,,,
107.000,,,,,,,,,27,36,G - Gnd (7),0,0.0,,D 0.70,L 0.7,260,,,,39.0,46.1,406,379,,25.5,,,,484,530,0.189,0.193,19.9,20.0,60.6,60.6,-2.8,-2.8,,,Gear down - ground (3),Gnd (1),,,Normal (0),Normal (0),Not Out (0),Not Out (0), 0.0, 0.0, 0.0, 0.0, 0.0, 0.0,
107.250,,,,,,,,,,,,,,,D 0.70,,,,,,,,,,,,,,,,,,,,,,,,,,,,,,,,,,,,,,,,,
107.500,,,,,,,,,,,,,,,D 0.70,L 0.7,,,,,,,,,,,,,,,,,,,,,,,,,,,,,,,,Not Out (0),Not Out (0),,,,,,,
107.750,,,,,,,,,,,,,,,D 0.70,,,,,,,,,,,,,,,,,,,,,,,,,,,,,,,,,,,,,,,,,
108.000,,A319 (5),,EFHK,FIN913  ,16,,8,,,G - Gnd (7),0,0.0,0.00,D 0.70,L 0.7,260,,N60 05.08,,39.0,46.1,405,381,,,,0.0,0,488,533,0.188,0.189,19.9,20.0,60.6,60.8,-2.8,-2.8,N/CLSD (1),N/CLSD (1),Gear down - ground (3),Gnd (1),1.5,10.0,Normal (0),Normal (0),Not Out (0),Not Out (0), 0.0, 0.0, 0.0, 0.0, 0.0, 0.0,NOTCMD (0)
108.250,,,,,,,,,,,,,,,D 0.70,,,,,,,,,,,,,,,,,,,,,,,,,,,,,,,,,,,,,,,,,
108.500,,,,,,,,,,,,,,,D 0.70,L 0.7,,,,,,,,,,,,,,,,,,,,,,,,,,,,,,,,Not Out (0),Not Out (0),,,,,,,
108.750,,,,,,,,,,,,,,,D 0.70,,,,,,,,,,,,,,,,,,,,,,,,,,,,,,,,,,,,,,,,,
109.000,.OH-LVI,,EDDT,,,,6,,,,G - Gnd (7),0,0.0,,D 0.70,L 0.7,260,1009,,,39.0,46.1,397,377,,25.5,,,,492,534,0.186,0.191,19.9,20.0,60.8,60.8,-2.8,-2.8,,,Gear down - ground (3),Gnd (1),,,Normal (0),Normal (0),Not Out (0),Not Out (0), 0.0, 0.0, 0.0, 0.0, 0.0, 0.0,
109.250,,,,,,,,,,,,,,,D 0.70,,,,,,,,,,,,,,,,,,,,,,,,,,,,,,,,,,,,,,,,,
109.500,,,,,,,,,,,,,,,D 0.70,L 0.7,,,,,,,,,,,,,,,,,,,,,,,,,,,,,,,,Not Out (0),Not Out (0),,,,,,,
109.750,,,,,,,,,,,,,,,D 0.70,,,,,,,,,,,,,,,,,,,,,,,,,,,,,,,,,,,,,,,,,
110.000,,,,,,,,,,,G - Gnd (7),0,0.0,,D 0.70,L 0.7,260,,,E024 57.74,39.0,46.1,395,379,60255,,0.00,,,495,536,0.184,0.189,19.9,20.0,60.8,60.8,-2.8,-2.8,N/CLSD (1),N/CLSD (1),Gear down - ground (3),Gnd (1),1.5,10.0,Normal (0),Normal (0),Not Out (0),Not Out (0), 0.0, 0.0, 0.0, 0.0, 0.0, 0.0,
110.250,,,,,,,,,,,,,,,D 0.70,,,,,,,,,,,,,,,,,,,,,,,,,,,,,,,,,,,,,,,,,
110.500,,,,,,,,,,,,,,,D 0.70,L 0.7,,,,,,,,,,,,,,,,,,,,,,,,,,,,,,,,Not Out (0),Not Out (0),,,,,,,
110.750,,,,,,,,,,,,,,,D 0.70,,,,,,,,,,,,,,,,,,,,,,,,,,,,,,,,,,,,,,,,,
