Time (secs),A/C Tail Number,A/C Type,City Pair - To,City Pair - From,Flight Number,Date - Day,Date - Month,UTC - Hour,UTC - Minute,UTC - Second,Air / Gnd,Ground Speed,Computed Airspeed,Mach (derived),Pitch Angle,Roll Angle,Altitude (1013.25mB),Selected Baro Setting Capt,Present Pos - Latitude,Present Pos - Longitude,Magnetic Heading,True Heading,Fuel Flow Eng 1,Fuel Flow Eng 2,Actual Gross Weight,Total Air Temp,Drift Angle,Wind Direction True,Wind Speed,EGT Eng 1,EGT Eng 2,_EPR Actual Eng 1,_EPR Actual Eng 2,N1 Actual Eng 1,N1 Actual Eng 2,N2 Actual Eng 1,N2 Actual Eng 2,Throttle Angle Eng 1,Throttle Angle Eng 2,Pack 1 Flow Ctl Valve,Pack 2 Flow Ctl Valve,Gear (left),Land Gear Squat Switch - Nose,Flap Handle (derived),Flap Angle,Reverser Deployed Eng 1,Reverser Deployed Eng 2,Left Spoiler 1 Out,Right Spoiler 1 Out,Spoiler Pos LH 2,Spoiler Pos LH 4,Spoiler Pos LH 5,Spoiler Pos RH 2,Spoiler Pos RH 3,Spoiler Pos RH 5,Speed Brake Command
0.000,,*A319 (5),,*EFHK,*FIN5KK  ,*16,,*10,,,*G - Gnd (7),*0,*36.0,*0.05,*D 0.35,*L 0.4,*264,,*N60 05.06,,*130.4,*137.5,*0,*348,,,,*39.4,*4,*161,*499,*0.000,*0.000,*0.0,*19.4,*0.4,*61.1,*-2.8,*-2.8,*F/CLSD (0),*F/CLSD (0),*Gear down - ground (3),*Gnd (1),*0.0,*0.0,*Normal (0),*Normal (0),*Not Out (0),*Not Out (0),* 0.0,* 0.0,* 0.0,* 0.0,* 0.0,* 0.0,*NOTCMD (0)
0.250,,,,,,,,,,,,,,,*D 0.35,,,,,,,,,,,,,,,,,,,,,,,,,,,,,,,,,,,,,,,,,
0.500,,,,,,,,,,,,,,,*D 0.35,*L 0.4,,,,,,,,,,,,,,,,,,,,,,,,,,,,,,,,*Not Out (0),*Not Out (0),,,,,,,
0.750,,,,,,,,,,,,,,,*D 0.35,,,,,,,,,,,,,,,,,,,,,,,,,,,,,,,,,,,,,,,,,
1.000,*.OH-LVL,,*EFOU,,,,*6,,,,*G - Gnd (7),*0,*35.4,,*D 0.35,*L 0.4,*264,*1009,,,*130.4,*137.5,*0,*348,,*27.5,,,,*161,*500,*0.000,*0.000,*0.0,*19.4,*1.9,*61.1,*-2.8,*-2.8,,,*Gear down - ground (3),*Gnd (1),,,*Normal (0),*Normal (0),*Not Out (0),*Not Out (0),* 0.0,* 0.0,* 0.0,* 0.0,* 0.0,* 0.0,
1.250,,,,,,,,,,,,,,,*D 0.35,,,,,,,,,,,,,,,,,,,,,,,,,,,,,,,,,,,,,,,,,
1.500,,,,,,,,,,,,,,,*D 0.35,*L 0.4,,,,,,,,,,,,,,,,,,,,,,,,,,,,,,,,*Not Out (0),*Not Out (0),,,,,,,
1.750,,,,,,,,,,,,,,,*D 0.35,,,,,,,,,,,,,,,,,,,,,,,,,,,,,,,,,,,,,,,,,
2.000,,,,,,,,,,,*G - Gnd (7),*0,*33.3,,*D 0.35,*L 0.4,*264,,,*E024 57.82,*130.4,*137.5,*0,*348,*60345,,*0.00,,,*161,*499,*0.000,*0.000,*0.0,*19.3,*3.8,*61.1,*-2.8,*-2.8,*F/CLSD (0),*F/CLSD (0),*Gear down - ground (3),*Gnd (1),*0.0,*0.0,*Normal (0),*Normal (0),*Not Out (0),*Not Out (0),* 0.0,* 0.0,* 0.0,* 0.0,* 0.0,* 0.0,
2.250,,,,,,,,,,,,,,,*D 0.35,,,,,,,,,,,,,,,,,,,,,,,,,,,,,,,,,,,,,,,,,
2.500,,,,,,,,,,,,,,,*D 0.35,*L 0.4,,,,,,,,,,,,,,,,,,,,,,,,,,,,,,,,*Not Out (0),*Not Out (0),,,,,,,
2.750,,,,,,,,,,,,,,,*D 0.35,,,,,,,,,,,,,,,,,,,,,,,,,,,,,,,,,,,,,,,,,
3.000,,,,,,,,,*11,*9,*G - Gnd (7),*0,*30.4,,*D 0.35,*L 0.4,*264,,,,*130.4,*137.5,*0,*346,,*27.5,,,,*162,*499,*0.000,*0.000,*0.0,*19.3,*6.1,*61.1,*-2.8,*-2.8,,,*Gear down - ground (3),*Gnd (1),,,*Normal (0),*Normal (0),*Not Out (0),*Not Out (0),* 0.0,* 0.0,* 0.0,* 0.0,* 0.0,* 0.0,
3.250,,,,,,,,,,,,,,,*D 0.35,,,,,,,,,,,,,,,,,,,,,,,,,,,,,,,,,,,,,,,,,
3.500,,,,,,,,,,,,,,,*D 0.35,*L 0.4,,,,,,,,,,,,,,,,,,,,,,,,,,,,,,,,*Not Out (0),*Not Out (0),,,,,,,
3.750,,,,,,,,,,,,,,,*D 0.35,,,,,,,,,,,,,,,,,,,,,,,,,,,,,,,,,,,,,,,,,
4.000,,*A319 (5),,*EFHK,*FIN5KK  ,*16,,*10,,,*G - Gnd (7),*0,*36.0,*0.05,*D 0.35,*L 0.4,*264,,*N60 05.06,,*130.4,*137.5,*0,*348,,,,*39.4,*4,*161,*499,*0.000,*0.000,*0.0,*19.4,*0.4,*61.1,*-2.8,*-2.8,*F/CLSD (0),*F/CLSD (0),*Gear down - ground (3),*Gnd (1),*0.0,*0.0,*Normal (0),*Normal (0),*Not Out (0),*Not Out (0),* 0.0,* 0.0,* 0.0,* 0.0,* 0.0,* 0.0,*NOTCMD (0)
4.250,,,,,,,,,,,,,,,*D 0.35,,,,,,,,,,,,,,,,,,,,,,,,,,,,,,,,,,,,,,,,,
4.500,,,,,,,,,,,,,,,*D 0.35,*L 0.4,,,,,,,,,,,,,,,,,,,,,,,,,,,,,,,,*Not Out (0),*Not Out (0),,,,,,,
4.750,,,,,,,,,,,,,,,*D 0.35,,,,,,,,,,,,,,,,,,,,,,,,,,,,,,,,,,,,,,,,,
5.000,*.OH-LVL,,*EFOU,,,,*6,,,,*G - Gnd (7),*0,*35.4,,*D 0.35,*L 0.4,*264,*1009,,,*130.4,*137.5,*0,*348,,*27.5,,,,*161,*500,*0.000,*0.000,*0.0,*19.4,*1.9,*61.1,*-2.8,*-2.8,,,*Gear down - ground (3),*Gnd (1),,,*Normal (0),*Normal (0),*Not Out (0),*Not Out (0),* 0.0,* 0.0,* 0.0,* 0.0,* 0.0,* 0.0,
5.250,,,,,,,,,,,,,,,*D 0.35,,,,,,,,,,,,,,,,,,,,,,,,,,,,,,,,,,,,,,,,,
5.500,,,,,,,,,,,,,,,*D 0.35,*L 0.4,,,,,,,,,,,,,,,,,,,,,,,,,,,,,,,,*Not Out (0),*Not Out (0),,,,,,,
5.750,,,,,,,,,,,,,,,*D 0.35,,,,,,,,,,,,,,,,,,,,,,,,,,,,,,,,,,,,,,,,,
6.000,,,,,,,,,,,*G - Gnd (7),*0,*33.3,,*D 0.35,*L 0.4,*264,,,*E024 57.82,*130.4,*137.5,*0,*348,*60345,,*0.00,,,*161,*499,*0.000,*0.000,*0.0,*19.3,*3.8,*61.1,*-2.8,*-2.8,*F/CLSD (0),*F/CLSD (0),*Gear down - ground (3),*Gnd (1),*0.0,*0.0,*Normal (0),*Normal (0),*Not Out (0),*Not Out (0),* 0.0,* 0.0,* 0.0,* 0.0,* 0.0,* 0.0,
6.250,,,,,,,,,,,,,,,*D 0.35,,,,,,,,,,,,,,,,,,,,,,,,,,,,,,,,,,,,,,,,,
6.500,,,,,,,,,,,,,,,*D 0.35,*L 0.4,,,,,,,,,,,,,,,,,,,,,,,,,,,,,,,,*Not Out (0),*Not Out (0),,,,,,,
6.750,,,,,,,,,,,,,,,*D 0.35,,,,,,,,,,,,,,,,,,,,,,,,,,,,,,,,,,,,,,,,,
7.000,,,,,,,,,*11,*9,*G - Gnd (7),*0,*30.4,,*D 0.35,*L 0.4,*264,,,,*130.4,*137.5,*0,*346,,*27.5,,,,*162,*499,*0.000,*0.000,*0.0,*19.3,*6.1,*61.1,*-2.8,*-2.8,,,*Gear down - ground (3),*Gnd (1),,,*Normal (0),*Normal (0),*Not Out (0),*Not Out (0),* 0.0,* 0.0,* 0.0,* 0.0,* 0.0,* 0.0,
7.250,,,,,,,,,,,,,,,*D 0.35,,,,,,,,,,,,,,,,,,,,,,,,,,,,,,,,,,,,,,,,,
7.500,,,,,,,,,,,,,,,*D 0.35,*L 0.4,,,,,,,,,,,,,,,,,,,,,,,,,,,,,,,,*Not Out (0),*Not Out (0),,,,,,,
7.750,,,,,,,,,,,,,,,*D 0.35,,,,,,,,,,,,,,,,,,,,,,,,,,,,,,,,,,,,,,,,,
8.000,,*A319 (5),,*EFHK,*FIN5KK  ,*16,,*10,,,*G - Gnd (7),*0,*36.0,*0.05,*D 0.35,*L 0.4,*264,,*N60 05.06,,*130.4,*137.5,*0,*348,,,,*39.4,*4,*161,*499,*0.000,*0.000,*0.0,*19.4,*0.4,*61.1,*-2.8,*-2.8,*F/CLSD (0),*F/CLSD (0),*Gear down - ground (3),*Gnd (1),*0.0,*0.0,*Normal (0),*Normal (0),*Not Out (0),*Not Out (0),* 0.0,* 0.0,* 0.0,* 0.0,* 0.0,* 0.0,*NOTCMD (0)
8.250,,,,,,,,,,,,,,,*D 0.35,,,,,,,,,,,,,,,,,,,,,,,,,,,,,,,,,,,,,,,,,
8.500,,,,,,,,,,,,,,,*D 0.35,*L 0.4,,,,,,,,,,,,,,,,,,,,,,,,,,,,,,,,*Not Out (0),*Not Out (0),,,,,,,
8.750,,,,,,,,,,,,,,,*D 0.35,,,,,,,,,,,,,,,,,,,,,,,,,,,,,,,,,,,,,,,,,
9.000,*.OH-LVL,,*EFOU,,,,*6,,,,*G - Gnd (7),*0,*35.4,,*D 0.35,*L 0.4,*264,*1009,,,*130.4,*137.5,*0,*348,,*27.5,,,,*161,*500,*0.000,*0.000,*0.0,*19.4,*1.9,*61.1,*-2.8,*-2.8,,,*Gear down - ground (3),*Gnd (1),,,*Normal (0),*Normal (0),*Not Out (0),*Not Out (0),* 0.0,* 0.0,* 0.0,* 0.0,* 0.0,* 0.0,
9.250,,,,,,,,,,,,,,,*D 0.35,,,,,,,,,,,,,,,,,,,,,,,,,,,,,,,,,,,,,,,,,
9.500,,,,,,,,,,,,,,,*D 0.35,*L 0.4,,,,,,,,,,,,,,,,,,,,,,,,,,,,,,,,*Not Out (0),*Not Out (0),,,,,,,
9.750,,,,,,,,,,,,,,,*D 0.35,,,,,,,,,,,,,,,,,,,,,,,,,,,,,,,,,,,,,,,,,
10.000,,,,,,,,,,,*G - Gnd (7),*0,*33.3,,*D 0.35,*L 0.4,*264,,,*E024 57.82,*130.4,*137.5,*0,*348,*60345,,*0.00,,,*161,*499,*0.000,*0.000,*0.0,*19.3,*3.8,*61.1,*-2.8,*-2.8,*F/CLSD (0),*F/CLSD (0),*Gear down - ground (3),*Gnd (1),*0.0,*0.0,*Normal (0),*Normal (0),*Not Out (0),*Not Out (0),* 0.0,* 0.0,* 0.0,* 0.0,* 0.0,* 0.0,
10.250,,,,,,,,,,,,,,,*D 0.35,,,,,,,,,,,,,,,,,,,,,,,,,,,,,,,,,,,,,,,,,
10.500,,,,,,,,,,,,,,,*D 0.35,*L 0.4,,,,,,,,,,,,,,,,,,,,,,,,,,,,,,,,*Not Out (0),*Not Out (0),,,,,,,
10.750,,,,,,,,,,,,,,,*D 0.35,,,,,,,,,,,,,,,,,,,,,,,,,,,,,,,,,,,,,,,,,
11.000,,,,,,,,,*11,*9,*G - Gnd (7),*0,*30.4,,*D 0.35,*L 0.4,*264,,,,*130.4,*137.5,*0,*346,,*27.5,,,,*162,*499,*0.000,*0.000,*0.0,*19.3,*6.1,*61.1,*-2.8,*-2.8,,,*Gear down - ground (3),*Gnd (1),,,*Normal (0),*Normal (0),*Not Out (0),*Not Out (0),* 0.0,* 0.0,* 0.0,* 0.0,* 0.0,* 0.0,
11.250,,,,,,,,,,,,,,,*D 0.35,,,,,,,,,,,,,,,,,,,,,,,,,,,,,,,,,,,,,,,,,
11.500,,,,,,,,,,,,,,,*D 0.35,*L 0.4,,,,,,,,,,,,,,,,,,,,,,,,,,,,,,,,*Not Out (0),*Not Out (0),,,,,,,
11.750,,,,,,,,,,,,,,,*D 0.35,,,,,,,,,,,,,,,,,,,,,,,,,,,,,,,,,,,,,,,,,
12.000,,*A319 (5),,*EFHK,*FIN5KK  ,*16,,*10,,,*G - Gnd (7),*0,*36.0,*0.05,*D 0.35,*L 0.4,*264,,*N60 05.06,,*130.4,*137.5,*0,*348,,,,*39.4,*4,*161,*499,*0.000,*0.000,*0.0,*19.4,*0.4,*61.1,*-2.8,*-2.8,*F/CLSD (0),*F/CLSD (0),*Gear down - ground (3),*Gnd (1),*0.0,*0.0,*Normal (0),*Normal (0),*Not Out (0),*Not Out (0),* 0.0,* 0.0,* 0.0,* 0.0,* 0.0,* 0.0,*NOTCMD (0)
12.250,,,,,,,,,,,,,,,*D 0.35,,,,,,,,,,,,,,,,,,,,,,,,,,,,,,,,,,,,,,,,,
12.500,,,,,,,,,,,,,,,*D 0.35,*L 0.4,,,,,,,,,,,,,,,,,,,,,,,,,,,,,,,,*Not Out (0),*Not Out (0),,,,,,,
12.750,,,,,,,,,,,,,,,*D 0.35,,,,,,,,,,,,,,,,,,,,,,,,,,,,,,,,,,,,,,,,,
13.000,*.OH-LVL,,*EFOU,,,,*6,,,,*G - Gnd (7),*0,*35.4,,*D 0.35,*L 0.4,*264,*1009,,,*130.4,*137.5,*0,*348,,*27.5,,,,*161,*500,*0.000,*0.000,*0.0,*19.4,*1.9,*61.1,*-2.8,*-2.8,,,*Gear down - ground (3),*Gnd (1),,,*Normal (0),*Normal (0),*Not Out (0),*Not Out (0),* 0.0,* 0.0,* 0.0,* 0.0,* 0.0,* 0.0,
13.250,,,,,,,,,,,,,,,*D 0.35,,,,,,,,,,,,,,,,,,,,,,,,,,,,,,,,,,,,,,,,,
13.500,,,,,,,,,,,,,,,*D 0.35,*L 0.4,,,,,,,,,,,,,,,,,,,,,,,,,,,,,,,,*Not Out (0),*Not Out (0),,,,,,,
13.750,,,,,,,,,,,,,,,*D 0.35,,,,,,,,,,,,,,,,,,,,,,,,,,,,,,,,,,,,,,,,,
14.000,,,,,,,,,,,*G - Gnd (7),*0,*33.3,,*D 0.35,*L 0.4,*264,,,*E024 57.82,*130.4,*137.5,*0,*348,*60345,,*0.00,,,*161,*499,*0.000,*0.000,*0.0,*19.3,*3.8,*61.1,*-2.8,*-2.8,*F/CLSD (0),*F/CLSD (0),*Gear down - ground (3),*Gnd (1),*0.0,*0.0,*Normal (0),*Normal (0),*Not Out (0),*Not Out (0),* 0.0,* 0.0,* 0.0,* 0.0,* 0.0,* 0.0,
14.250,,,,,,,,,,,,,,,*D 0.35,,,,,,,,,,,,,,,,,,,,,,,,,,,,,,,,,,,,,,,,,
14.500,,,,,,,,,,,,,,,*D 0.35,*L 0.4,,,,,,,,,,,,,,,,,,,,,,,,,,,,,,,,*Not Out (0),*Not Out (0),,,,,,,
14.750,,,,,,,,,,,,,,,*D 0.35,,,,,,,,,,,,,,,,,,,,,,,,,,,,,,,,,,,,,,,,,
15.000,,,,,,,,,*11,*9,*G - Gnd (7),*0,*30.4,,*D 0.35,*L 0.4,*264,,,,*130.4,*137.5,*0,*346,,*27.5,,,,*162,*499,*0.000,*0.000,*0.0,*19.3,*6.1,*61.1,*-2.8,*-2.8,,,*Gear down - ground (3),*Gnd (1),,,*Normal (0),*Normal (0),*Not Out (0),*Not Out (0),* 0.0,* 0.0,* 0.0,* 0.0,* 0.0,* 0.0,
15.250,,,,,,,,,,,,,,,*D 0.35,,,,,,,,,,,,,,,,,,,,,,,,,,,,,,,,,,,,,,,,,
15.500,,,,,,,,,,,,,,,*D 0.35,*L 0.4,,,,,,,,,,,,,,,,,,,,,,,,,,,,,,,,*Not Out (0),*Not Out (0),,,,,,,
15.750,,,,,,,,,,,,,,,*D 0.35,,,,,,,,,,,,,,,,,,,,,,,,,,,,,,,,,,,,,,,,,
16.000,,*A319 (5),,*EFHK,*FIN5KK  ,*16,,*10,,,*G - Gnd (7),*0,*36.0,*0.05,*D 0.35,*L 0.4,*264,,*N60 05.06,,*130.4,*137.5,*0,*348,,,,*39.4,*4,*161,*499,*0.000,*0.000,*0.0,*19.4,*0.4,*61.1,*-2.8,*-2.8,*F/CLSD (0),*F/CLSD (0),*Gear down - ground (3),*Gnd (1),*0.0,*0.0,*Normal (0),*Normal (0),*Not Out (0),*Not Out (0),* 0.0,* 0.0,* 0.0,* 0.0,* 0.0,* 0.0,*NOTCMD (0)
16.250,,,,,,,,,,,,,,,*D 0.35,,,,,,,,,,,,,,,,,,,,,,,,,,,,,,,,,,,,,,,,,
16.500,,,,,,,,,,,,,,,*D 0.35,*L 0.4,,,,,,,,,,,,,,,,,,,,,,,,,,,,,,,,*Not Out (0),*Not Out (0),,,,,,,
16.750,,,,,,,,,,,,,,,*D 0.35,,,,,,,,,,,,,,,,,,,,,,,,,,,,,,,,,,,,,,,,,
17.000,*.OH-LVL,,*EFOU,,,,*6,,,,*G - Gnd (7),*0,*35.4,,*D 0.35,*L 0.4,*264,*1009,,,*130.4,*137.5,*0,*348,,*27.5,,,,*161,*500,*0.000,*0.000,*0.0,*19.4,*1.9,*61.1,*-2.8,*-2.8,,,*Gear down - ground (3),*Gnd (1),,,*Normal (0),*Normal (0),*Not Out (0),*Not Out (0),* 0.0,* 0.0,* 0.0,* 0.0,* 0.0,* 0.0,
17.250,,,,,,,,,,,,,,,*D 0.35,,,,,,,,,,,,,,,,,,,,,,,,,,,,,,,,,,,,,,,,,
17.500,,,,,,,,,,,,,,,*D 0.35,*L 0.4,,,,,,,,,,,,,,,,,,,,,,,,,,,,,,,,*Not Out (0),*Not Out (0),,,,,,,
17.750,,,,,,,,,,,,,,,*D 0.35,,,,,,,,,,,,,,,,,,,,,,,,,,,,,,,,,,,,,,,,,
18.000,,,,,,,,,,,*G - Gnd (7),*0,*33.3,,*D 0.35,*L 0.4,*264,,,*E024 57.82,*130.4,*137.5,*0,*348,*60345,,*0.00,,,*161,*499,*0.000,*0.000,*0.0,*19.3,*3.8,*61.1,*-2.8,*-2.8,*F/CLSD (0),*F/CLSD (0),*Gear down - ground (3),*Gnd (1),*0.0,*0.0,*Normal (0),*Normal (0),*Not Out (0),*Not Out (0),* 0.0,* 0.0,* 0.0,* 0.0,* 0.0,* 0.0,
18.250,,,,,,,,,,,,,,,*D 0.35,,,,,,,,,,,,,,,,,,,,,,,,,,,,,,,,,,,,,,,,,
18.500,,,,,,,,,,,,,,,*D 0.35,*L 0.4,,,,,,,,,,,,,,,,,,,,,,,,,,,,,,,,*Not Out (0),*Not Out (0),,,,,,,
18.750,,,,,,,,,,,,,,,*D 0.35,,,,,,,,,,,,,,,,,,,,,,,,,,,,,,,,,,,,,,,,,
19.000,,,,,,,,,*11,*9,*G - Gnd (7),*0,*30.4,,*D 0.35,*L 0.4,*264,,,,*130.4,*137.5,*0,*346,,*27.5,,,,*162,*499,*0.000,*0.000,*0.0,*19.3,*6.1,*61.1,*-2.8,*-2.8,,,*Gear down - ground (3),*Gnd (1),,,*Normal (0),*Normal (0),*Not Out (0),*Not Out (0),* 0.0,* 0.0,* 0.0,* 0.0,* 0.0,* 0.0,
19.250,,,,,,,,,,,,,,,*D 0.35,,,,,,,,,,,,,,,,,,,,,,,,,,,,,,,,,,,,,,,,,
19.500,,,,,,,,,,,,,,,*D 0.35,*L 0.4,,,,,,,,,,,,,,,,,,,,,,,,,,,,,,,,*Not Out (0),*Not Out (0),,,,,,,
19.750,,,,,,,,,,,,,,,*D 0.35,,,,,,,,,,,,,,,,,,,,,,,,,,,,,,,,,,,,,,,,,
20.000,,A319 (5),,EFHK,FIN5KK  ,16,,10,,,G - Gnd (7),0,36.0,0.05,D 0.35,L 0.4,264,,N60 05.06,,130.4,137.5,0,348,,,,39.4,4,161,499,0.000,0.000,0.0,19.4,0.4,61.1,-2.8,-2.8,F/CLSD (0),F/CLSD (0),Gear down - ground (3),Gnd (1),0.0,0.0,Normal (0),Normal (0),Not Out (0),Not Out (0), 0.0, 0.0, 0.0, 0.0, 0.0, 0.0,NOTCMD (0)
20.250,,,,,,,,,,,,,,,D 0.35,,,,,,,,,,,,,,,,,,,,,,,,,,,,,,,,,,,,,,,,,
20.500,,,,,,,,,,,,,,,D 0.35,L 0.4,,,,,,,,,,,,,,,,,,,,,,,,,,,,,,,,Not Out (0),Not Out (0),,,,,,,
20.750,,,,,,,,,,,,,,,D 0.35,,,,,,,,,,,,,,,,,,,,,,,,,,,,,,,,,,,,,,,,,
21.000,.OH-LVL,,EFOU,,,,6,,,,G - Gnd (7),0,35.4,,D 0.35,L 0.4,264,1009,,,130.4,137.5,0,348,,27.5,,,,161,500,0.000,0.000,0.0,19.4,1.9,61.1,-2.8,-2.8,,,Gear down - ground (3),Gnd (1),,,Normal (0),Normal (0),Not Out (0),Not Out (0), 0.0, 0.0, 0.0, 0.0, 0.0, 0.0,
21.250,,,,,,,,,,,,,,,D 0.35,,,,,,,,,,,,,,,,,,,,,,,,,,,,,,,,,,,,,,,,,
21.500,,,,,,,,,,,,,,,D 0.35,L 0.4,,,,,,,,,,,,,,,,,,,,,,,,,,,,,,,,Not Out (0),Not Out (0),,,,,,,
21.750,,,,,,,,,,,,,,,D 0.35,,,,,,,,,,,,,,,,,,,,,,,,,,,,,,,,,,,,,,,,,
22.000,,,,,,,,,,,G - Gnd (7),0,33.3,,D 0.35,L 0.4,264,,,E024 57.82,130.4,137.5,0,348,60345,,0.00,,,161,499,0.000,0.000,0.0,19.3,3.8,61.1,-2.8,-2.8,F/CLSD (0),F/CLSD (0),Gear down - ground (3),Gnd (1),0.0,0.0,Normal (0),Normal (0),Not Out (0),Not Out (0), 0.0, 0.0, 0.0, 0.0, 0.0, 0.0,
22.250,,,,,,,,,,,,,,,D 0.35,,,,,,,,,,,,,,,,,,,,,,,,,,,,,,,,,,,,,,,,,
22.500,,,,,,,,,,,,,,,D 0.35,L 0.4,,,,,,,,,,,,,,,,,,,,,,,,,,,,,,,,Not Out (0),Not Out (0),,,,,,,
22.750,,,,,,,,,,,,,,,D 0.35,,,,,,,,,,,,,,,,,,,,,,,,,,,,,,,,,,,,,,,,,
23.000,,,,,,,,,11,9,G - Gnd (7),0,30.4,,D 0.35,L 0.4,264,,,,130.4,137.5,0,346,,27.5,,,,162,499,0.000,0.000,0.0,19.3,6.1,61.1,-2.8,-2.8,,,Gear down - ground (3),Gnd (1),,,Normal (0),Normal (0),Not Out (0),Not Out (0), 0.0, 0.0, 0.0, 0.0, 0.0, 0.0,
23.250,,,,,,,,,,,,,,,D 0.35,,,,,,,,,,,,,,,,,,,,,,,,,,,,,,,,,,,,,,,,,
23.500,,,,,,,,,,,,,,,D 0.35,L 0.4,,,,,,,,,,,,,,,,,,,,,,,,,,,,,,,,Not Out (0),Not Out (0),,,,,,,
23.750,,,,,,,,,,,,,,,D 0.35,,,,,,,,,,,,,,,,,,,,,,,,,,,,,,,,,,,,,,,,,
24.000,,A319 (5),,EFHK,FIN5KK  ,16,,10,,,G - Gnd (7),0,36.0,0.05,D 0.35,L 0.4,264,,N60 05.06,,130.4,137.5,0,345,,,,39.4,4,161,500,0.000,0.000,0.0,19.1,8.4,61.1,-2.8,-2.8,F/CLSD (0),F/CLSD (0),Gear down - ground (3),Gnd (1),0.0,0.0,Normal (0),Normal (0),Not Out (0),Not Out (0), 0.0, 0.0, 0.0, 0.0, 0.0, 0.0,NOTCMD (0)
24.250,,,,,,,,,,,,,,,D 0.35,,,,,,,,,,,,,,,,,,,,,,,,,,,,,,,,,,,,,,,,,
24.500,,,,,,,,,,,,,,,D 0.35,L 0.4,,,,,,,,,,,,,,,,,,,,,,,,,,,,,,,,Not Out (0),Not Out (0),,,,,,,
24.750,,,,,,,,,,,,,,,D 0.35,,,,,,,,,,,,,,,,,,,,,,,,,,,,,,,,,,,,,,,,,
25.000,.OH-LVL,,EFOU,,,,6,,,,G - Gnd (7),0,35.4,,D 0.35,L 0.4,264,1009,,,130.4,137.5,0,346,,27.5,,,,162,499,0.000,0.000,0.0,19.1,10.6,61.1,-2.8,-2.8,,,Gear down - ground (3),Gnd (1),,,Normal (0),Normal (0),Not Out (0),Not Out (0), 0.0, 0.0, 0.0, 0.0, 0.0, 0.0,
25.250,,,,,,,,,,,,,,,D 0.35,,,,,,,,,,,,,,,,,,,,,,,,,,,,,,,,,,,,,,,,,
25.500,,,,,,,,,,,,,,,D 0.35,L 0.4,,,,,,,,,,,,,,,,,,,,,,,,,,,,,,,,Not Out (0),Not Out (0),,,,,,,
25.750,,,,,,,,,,,,,,,D 0.35,,,,,,,,,,,,,,,,,,,,,,,,,,,,,,,,,,,,,,,,,
26.000,,,,,,,,,,,G - Gnd (7),0,33.3,,D 0.35,L 0.4,264,,,E024 57.82,130.4,137.5,0,348,60345,,0.00,,,163,500,0.000,0.000,0.0,19.1,12.8,61.1,-2.8,-2.8,F/CLSD (0),F/CLSD (0),Gear down - ground (3),Gnd (1),0.0,0.0,Normal (0),Normal (0),Not Out (0),Not Out (0), 0.0, 0.0, 0.0, 0.0, 0.0, 0.0,
26.250,,,,,,,,,,,,,,,D 0.35,,,,,,,,,,,,,,,,,,,,,,,,,,,,,,,,,,,,,,,,,
26.500,,,,,,,,,,,,,,,D 0.35,L 0.4,,,,,,,,,,,,,,,,,,,,,,,,,,,,,,,,Not Out (0),Not Out (0),,,,,,,
26.750,,,,,,,,,,,,,,,D 0.35,,,,,,,,,,,,,,,,,,,,,,,,,,,,,,,,,,,,,,,,,
27.000,,,,,,,,,11,13,G - Gnd (7),0,30.4,,D 0.35,L 0.4,264,,,,130.4,137.5,0,345,,27.5,,,,162,500,0.000,0.000,0.0,19.1,14.8,61.1,-2.8,-2.8,,,Gear down - ground (3),Gnd (1),,,Normal (0),Normal (0),Not Out (0),Not Out (0), 0.0, 0.0, 0.0, 0.0, 0.0, 0.0,
27.250,,,,,,,,,,,,,,,D 0.35,,,,,,,,,,,,,,,,,,,,,,,,,,,,,,,,,,,,,,,,,
27.500,,,,,,,,,,,,,,,D 0.35,L 0.4,,,,,,,,,,,,,,,,,,,,,,,,,,,,,,,,Not Out (0),Not Out (0),,,,,,,
27.750,,,,,,,,,,,,,,,D 0.35,,,,,,,,,,,,,,,,,,,,,,,,,,,,,,,,,,,,,,,,,
28.000,,A319 (5),,EFHK,FIN5KK  ,16,,10,,,G - Gnd (7),0,36.0,0.05,D 0.35,L 0.4,264,,N60 05.06,,130.4,137.5,0,345,,,,39.4,4,162,500,0.000,0.000,0.0,19.1,16.5,61.1,-2.8,-2.8,F/CLSD (0),F/CLSD (0),Gear down - ground (3),Gnd (1),0.0,0.0,Normal (0),Normal (0),Not Out (0),Not Out (0), 0.0, 0.0, 0.0, 0.0, 0.0, 0.0,NOTCMD (0)
28.250,,,,,,,,,,,,,,,D 0.35,,,,,,,,,,,,,,,,,,,,,,,,,,,,,,,,,,,,,,,,,
28.500,,,,,,,,,,,,,,,D 0.35,L 0.4,,,,,,,,,,,,,,,,,,,,,,,,,,,,,,,,Not Out (0),Not Out (0),,,,,,,
28.750,,,,,,,,,,,,,,,D 0.35,,,,,,,,,,,,,,,,,,,,,,,,,,,,,,,,,,,,,,,,,
29.000,.OH-LVL,,EFOU,,,,6,,,,G - Gnd (7),0,35.4,,D 0.35,L 0.4,264,1009,,,130.4,137.5,0,345,,27.5,,,,162,500,0.000,0.000,0.0,19.1,18.3,61.1,-2.8,-2.8,,,Gear down - ground (3),Gnd (1),,,Normal (0),Normal (0),Not Out (0),Not Out (0), 0.0, 0.0, 0.0, 0.0, 0.0, 0.0,
29.250,,,,,,,,,,,,,,,D 0.35,,,,,,,,,,,,,,,,,,,,,,,,,,,,,,,,,,,,,,,,,
29.500,,,,,,,,,,,,,,,D 0.35,L 0.4,,,,,,,,,,,,,,,,,,,,,,,,,,,,,,,,Not Out (0),Not Out (0),,,,,,,
29.750,,,,,,,,,,,,,,,D 0.35,,,,,,,,,,,,,,,,,,,,,,,,,,,,,,,,,,,,,,,,,
30.000,,,,,,,,,,,G - Gnd (7),0,33.3,,D 0.35,L 0.4,264,,,E024 57.82,130.4,137.5,0,345,60345,,0.00,,,162,500,0.000,0.000,0.3,19.3,19.8,61.1,-2.8,-2.8,F/CLSD (0),F/CLSD (0),Gear down - ground (3),Gnd (1),0.0,0.0,Normal (0),Normal (0),Not Out (0),Not Out (0), 0.0, 0.0, 0.0, 0.0, 0.0, 0.0,
30.250,,,,,,,,,,,,,,,D 0.35,,,,,,,,,,,,,,,,,,,,,,,,,,,,,,,,,,,,,,,,,
30.500,,,,,,,,,,,,,,,D 0.35,L 0.4,,,,,,,,,,,,,,,,,,,,,,,,,,,,,,,,Not Out (0),Not Out (0),,,,,,,
30.750,,,,,,,,,,,,,,,D 0.35,,,,,,,,,,,,,,,,,,,,,,,,,,,,,,,,,,,,,,,,,
31.000,,,,,,,,,11,17,G - Gnd (7),0,30.4,,D 0.35,L 0.4,264,,,,130.4,137.5,0,345,,27.5,,,,161,500,0.000,0.000,0.9,19.3,21.1,61.1,-2.8,-2.8,,,Gear down - ground (3),Gnd (1),,,Normal (0),Normal (0),Not Out (0),Not Out (0), 0.0, 0.0, 0.0, 0.0, 0.0, 0.0,
31.250,,,,,,,,,,,,,,,D 0.35,,,,,,,,,,,,,,,,,,,,,,,,,,,,,,,,,,,,,,,,,
31.500,,,,,,,,,,,,,,,D 0.35,L 0.4,,,,,,,,,,,,,,,,,,,,,,,,,,,,,,,,Not Out (0),Not Out (0),,,,,,,
31.750,,,,,,,,,,,,,,,D 0.35,,,,,,,,,,,,,,,,,,,,,,,,,,,,,,,,,,,,,,,,,
32.000,,A319 (5),,EFHK,FIN5KK  ,16,,10,,,G - Gnd (7),0,36.0,0.05,D 0.35,L 0.4,264,,N60 05.06,,130.4,137.5,0,346,,,,39.4,4,161,500,0.000,0.000,1.1,19.3,22.4,61.1,-2.8,-2.8,F/CLSD (0),F/CLSD (0),Gear down - ground (3),Gnd (1),0.0,0.0,Normal (0),Normal (0),Not Out (0),Not Out (0), 0.0, 0.0, 0.0, 0.0, 0.0, 0.0,NOTCMD (0)
32.250,,,,,,,,,,,,,,,D 0.35,,,,,,,,,,,,,,,,,,,,,,,,,,,,,,,,,,,,,,,,,
32.500,,,,,,,,,,,,,,,D 0.35,L 0.4,,,,,,,,,,,,,,,,,,,,,,,,,,,,,,,,Not Out (0),Not Out (0),,,,,,,
32.750,,,,,,,,,,,,,,,D 0.35,,,,,,,,,,,,,,,,,,,,,,,,,,,,,,,,,,,,,,,,,
33.000,.OH-LVL,,EFOU,,,,6,,,,G - Gnd (7),0,35.4,,D 0.35,L 0.4,264,1009,,,130.4,137.5,158,345,,27.5,,,,160,501,0.000,0.000,1.4,19.3,23.5,61.1,-2.8,-2.8,,,Gear down - ground (3),Gnd (1),,,Normal (0),Normal (0),Not Out (0),Not Out (0), 0.0, 0.0, 0.0, 0.0, 0.0, 0.0,
33.250,,,,,,,,,,,,,,,D 0.35,,,,,,,,,,,,,,,,,,,,,,,,,,,,,,,,,,,,,,,,,
33.500,,,,,,,,,,,,,,,D 0.35,L 0.4,,,,,,,,,,,,,,,,,,,,,,,,,,,,,,,,Not Out (0),Not Out (0),,,,,,,
33.750,,,,,,,,,,,,,,,D 0.35,,,,,,,,,,,,,,,,,,,,,,,,,,,,,,,,,,,,,,,,,
34.000,,,,,,,,,,,G - Gnd (7),0,33.3,,D 0.35,L 0.4,264,,,E024 57.82,130.4,137.5,171,346,60327,,0.00,,,159,501,0.000,0.000,1.6,19.3,25.0,61.1,-2.8,-2.8,F/CLSD (0),F/CLSD (0),Gear down - ground (3),Gnd (1),0.0,0.0,Normal (0),Normal (0),Not Out (0),Not Out (0), 0.0, 0.0, 0.0, 0.0, 0.0, 0.0,
34.250,,,,,,,,,,,,,,,D 0.35,,,,,,,,,,,,,,,,,,,,,,,,,,,,,,,,,,,,,,,,,
34.500,,,,,,,,,,,,,,,D 0.35,L 0.4,,,,,,,,,,,,,,,,,,,,,,,,,,,,,,,,Not Out (0),Not Out (0),,,,,,,
34.750,,,,,,,,,,,,,,,D 0.35,,,,,,,,,,,,,,,,,,,,,,,,,,,,,,,,,,,,,,,,,
35.000,,,,,,,,,11,21,G - Gnd (7),0,30.4,,D 0.35,L 0.4,264,,,,130.4,137.5,185,345,,27.5,,,,168,501,0.000,0.000,2.1,19.3,26.8,61.1,-2.8,-2.8,,,Gear down - ground (3),Gnd (1),,,Normal (0),Normal (0),Not Out (0),Not Out (0), 0.0, 0.0, 0.0, 0.0, 0.0, 0.0,
35.250,,,,,,,,,,,,,,,D 0.35,,,,,,,,,,,,,,,,,,,,,,,,,,,,,,,,,,,,,,,,,
35.500,,,,,,,,,,,,,,,D 0.35,L 0.4,,,,,,,,,,,,,,,,,,,,,,,,,,,,,,,,Not Out (0),Not Out (0),,,,,,,
35.750,,,,,,,,,,,,,,,D 0.35,,,,,,,,,,,,,,,,,,,,,,,,,,,,,,,,,,,,,,,,,
36.000,,A319 (5),,EFHK,FIN5KK  ,16,,10,,,G - Gnd (7),0,36.0,0.05,D 0.35,L 0.4,264,,N60 05.06,,130.4,137.5,259,348,,,,39.4,4,182,501,0.000,0.000,2.6,19.3,28.5,61.1,-2.8,-2.8,F/CLSD (0),F/CLSD (0),Gear down - ground (3),Gnd (1),0.0,0.0,Normal (0),Normal (0),Not Out (0),Not Out (0), 0.0, 0.0, 0.0, 0.0, 0.0, 0.0,NOTCMD (0)
36.250,,,,,,,,,,,,,,,D 0.35,,,,,,,,,,,,,,,,,,,,,,,,,,,,,,,,,,,,,,,,,
36.500,,,,,,,,,,,,,,,D 0.35,L 0.4,,,,,,,,,,,,,,,,,,,,,,,,,,,,,,,,Not Out (0),Not Out (0),,,,,,,
36.750,,,,,,,,,,,,,,,D 0.35,,,,,,,,,,,,,,,,,,,,,,,,,,,,,,,,,,,,,,,,,
37.000,.OH-LVL,,EFOU,,,,6,,,,G - Gnd (7),0,35.4,,D 0.35,L 0.4,264,1009,,,130.4,137.5,252,345,,27.5,,,,198,502,0.000,0.000,3.3,19.1,30.1,61.1,-2.8,-2.8,,,Gear down - ground (3),Gnd (1),,,Normal (0),Normal (0),Not Out (0),Not Out (0), 0.0, 0.0, 0.0, 0.0, 0.0, 0.0,
37.250,,,,,,,,,,,,,,,D 0.35,,,,,,,,,,,,,,,,,,,,,,,,,,,,,,,,,,,,,,,,,
37.500,,,,,,,,,,,,,,,D 0.35,L 0.4,,,,,,,,,,,,,,,,,,,,,,,,,,,,,,,,Not Out (0),Not Out (0),,,,,,,
37.750,,,,,,,,,,,,,,,D 0.35,,,,,,,,,,,,,,,,,,,,,,,,,,,,,,,,,,,,,,,,,
38.000,,,,,,,,,,,G - Gnd (7),0,33.3,,D 0.35,L 0.4,264,,,E024 57.82,130.4,137.5,239,345,60327,,0.00,,,216,502,0.000,0.000,4.0,19.1,31.8,61.1,-2.8,-2.8,F/CLSD (0),F/CLSD (0),Gear down - ground (3),Gnd (1),0.0,0.0,Normal (0),Normal (0),Not Out (0),Not Out (0), 0.0, 0.0, 0.0, 0.0, 0.0, 0.0,
38.250,,,,,,,,,,,,,,,D 0.35,,,,,,,,,,,,,,,,,,,,,,,,,,,,,,,,,,,,,,,,,
38.500,,,,,,,,,,,,,,,D 0.35,L 0.4,,,,,,,,,,,,,,,,,,,,,,,,,,,,,,,,Not Out (0),Not Out (0),,,,,,,
38.750,,,,,,,,,,,,,,,D 0.35,,,,,,,,,,,,,,,,,,,,,,,,,,,,,,,,,,,,,,,,,
39.000,,,,,,,,,11,25,G - Gnd (7),0,30.4,,D 0.35,L 0.4,264,,,,130.4,137.5,234,345,,27.5,,,,236,502,0.000,0.000,4.8,19.1,33.3,61.1,-2.8,-2.8,,,Gear down - ground (3),Gnd (1),,,Normal (0),Normal (0),Not Out (0),Not Out (0), 0.0, 0.0, 0.0, 0.0, 0.0, 0.0,
39.250,,,,,,,,,,,,,,,D 0.35,,,,,,,,,,,,,,,,,,,,,,,,,,,,,,,,,,,,,,,,,
39.500,,,,,,,,,,,,,,,D 0.35,L 0.4,,,,,,,,,,,,,,,,,,,,,,,,,,,,,,,,Not Out (0),Not Out (0),,,,,,,
39.750,,,,,,,,,,,,,,,D 0.35,,,,,,,,,,,,,,,,,,,,,,,,,,,,,,,,,,,,,,,,,
40.000,,A319 (5),,EFHK,FIN5KK  ,16,,10,,,G - Gnd (7),0,36.0,0.05,D 0.35,L 0.4,264,,N60 05.06,,130.4,137.5,238,345,,,,39.4,4,254,503,0.000,0.000,5.4,19.3,34.8,61.1,-2.8,-2.8,F/CLSD (0),F/CLSD (0),Gear down - ground (3),Gnd (1),0.0,0.0,Normal (0),Normal (0),Not Out (0),Not Out (0), 0.0, 0.0, 0.0, 0.0, 0.0, 0.0,NOTCMD (0)
40.250,,,,,,,,,,,,,,,D 0.35,,,,,,,,,,,,,,,,,,,,,,,,,,,,,,,,,,,,,,,,,
40.500,,,,,,,,,,,,,,,D 0.35,L 0.4,,,,,,,,,,,,,,,,,,,,,,,,,,,,,,,,Not Out (0),Not Out (0),,,,,,,
40.750,,,,,,,,,,,,,,,D 0.35,,,,,,,,,,,,,,,,,,,,,,,,,,,,,,,,,,,,,,,,,
41.000,.OH-LVL,,EFOU,,,,6,,,,G - Gnd (7),0,35.4,,D 0.35,L 0.4,264,1009,,,130.4,137.5,243,345,,27.5,,,,272,503,0.000,0.000,6.1,19.3,36.1,61.1,-2.8,-2.8,,,Gear down - ground (3),Gnd (1),,,Normal (0),Normal (0),Not Out (0),Not Out (0), 0.0, 0.0, 0.0, 0.0, 0.0, 0.0,
41.250,,,,,,,,,,,,,,,D 0.35,,,,,,,,,,,,,,,,,,,,,,,,,,,,,,,,,,,,,,,,,
41.500,,,,,,,,,,,,,,,D 0.35,L 0.4,,,,,,,,,,,,,,,,,,,,,,,,,,,,,,,,Not Out (0),Not Out (0),,,,,,,
41.750,,,,,,,,,,,,,,,D 0.35,,,,,,,,,,,,,,,,,,,,,,,,,,,,,,,,,,,,,,,,,
42.000,,,,,,,,,,,G - Gnd (7),0,33.3,,D 0.35,L 0.4,264,,,E024 57.82,130.4,137.5,250,345,60327,,0.00,,,292,503,0.000,0.000,7.0,19.3,37.6,61.1,-2.8,-2.8,F/CLSD (0),F/CLSD (0),Gear down - ground (3),Gnd (1),0.0,0.0,Normal (0),Normal (0),Not Out (0),Not Out (0), 0.0, 0.0, 0.0, 0.0, 0.0, 0.0,
42.250,,,,,,,,,,,,,,,D 0.35,,,,,,,,,,,,,,,,,,,,,,,,,,,,,,,,,,,,,,,,,
42.500,,,,,,,,,,,,,,,D 0.35,L 0.4,,,,,,,,,,,,,,,,,,,,,,,,,,,,,,,,Not Out (0),Not Out (0),,,,,,,
42.750,,,,,,,,,,,,,,,D 0.35,,,,,,,,,,,,,,,,,,,,,,,,,,,,,,,,,,,,,,,,,
43.000,,,,,,,,,11,29,G - Gnd (7),0,30.4,,D 0.35,L 0.4,264,,,,130.4,137.5,256,345,,27.5,,,,309,504,0.000,0.000,7.6,19.3,38.9,61.1,-2.8,-2.8,,,Gear down - ground (3),Gnd (1),,,Normal (0),Normal (0),Not Out (0),Not Out (0), 0.0, 0.0, 0.0, 0.0, 0.0, 0.0,
43.250,,,,,,,,,,,,,,,D 0.35,,,,,,,,,,,,,,,,,,,,,,,,,,,,,,,,,,,,,,,,,
43.500,,,,,,,,,,,,,,,D 0.35,L 0.4,,,,,,,,,,,,,,,,,,,,,,,,,,,,,,,,Not Out (0),Not Out (0),,,,,,,
43.750,,,,,,,,,,,,,,,D 0.35,,,,,,,,,,,,,,,,,,,,,,,,,,,,,,,,,,,,,,,,,
44.000,,A319 (5),,EFHK,FIN5KK  ,16,,10,,,G - Gnd (7),0,36.0,0.05,D 0.35,L 0.4,264,,N60 05.06,,130.4,137.5,267,345,,,,39.4,4,326,504,0.000,0.000,8.4,19.3,40.4,61.1,-2.8,-2.8,F/CLSD (0),F/CLSD (0),Gear down - ground (3),Gnd (1),0.0,0.0,Normal (0),Normal (0),Not Out (0),Not Out (0), 0.0, 0.0, 0.0, 0.0, 0.0, 0.0,NOTCMD (0)
44.250,,,,,,,,,,,,,,,D 0.35,,,,,,,,,,,,,,,,,,,,,,,,,,,,,,,,,,,,,,,,,
44.500,,,,,,,,,,,,,,,D 0.35,L 0.4,,,,,,,,,,,,,,,,,,,,,,,,,,,,,,,,Not Out (0),Not Out (0),,,,,,,
44.750,,,,,,,,,,,,,,,D 0.35,,,,,,,,,,,,,,,,,,,,,,,,,,,,,,,,,,,,,,,,,
45.000,.OH-LVL,,EFOU,,,,6,,,,G - Gnd (7),0,35.4,,D 0.35,L 0.4,264,1009,,,130.4,137.5,270,343,,27.5,,,,337,504,0.000,0.000,9.0,19.1,41.9,61.1,-2.8,-2.8,,,Gear down - ground (3),Gnd (1),,,Normal (0),Normal (0),Not Out (0),Not Out (0), 0.0, 0.0, 0.0, 0.0, 0.0, 0.0,
45.250,,,,,,,,,,,,,,,D 0.35,,,,,,,,,,,,,,,,,,,,,,,,,,,,,,,,,,,,,,,,,
45.500,,,,,,,,,,,,,,,D 0.35,L 0.4,,,,,,,,,,,,,,,,,,,,,,,,,,,,,,,,Not Out (0),Not Out (0),,,,,,,
45.750,,,,,,,,,,,,,,,D 0.35,,,,,,,,,,,,,,,,,,,,,,,,,,,,,,,,,,,,,,,,,
46.000,,,,,,,,,,,G - Gnd (7),0,33.3,,D 0.35,L 0.4,264,,,E024 57.82,130.4,137.5,278,345,60327,,0.00,,,345,505,0.000,0.000,9.8,19.1,43.1,61.1,-2.8,-2.8,F/CLSD (0),F/CLSD (0),Gear down - ground (3),Gnd (1),0.0,0.0,Normal (0),Normal (0),Not Out (0),Not Out (0), 0.0, 0.0, 0.0, 0.0, 0.0, 0.0,
46.250,,,,,,,,,,,,,,,D 0.35,,,,,,,,,,,,,,,,,,,,,,,,,,,,,,,,,,,,,,,,,
46.500,,,,,,,,,,,,,,,D 0.35,L 0.4,,,,,,,,,,,,,,,,,,,,,,,,,,,,,,,,Not Out (0),Not Out (0),,,,,,,
46.750,,,,,,,,,,,,,,,D 0.35,,,,,,,,,,,,,,,,,,,,,,,,,,,,,,,,,,,,,,,,,
47.000,,,,,,,,,11,33,G - Gnd (7),0,30.4,,D 0.35,L 0.4,264,,,,130.4,137.5,287,345,,27.5,,,,353,505,0.000,0.000,10.3,19.1,44.5,61.1,-2.8,-2.8,,,Gear down - ground (3),Gnd (1),,,Normal (0),Normal (0),Not Out (0),Not Out (0), 0.0, 0.0, 0.0, 0.0, 0.0, 0.0,
47.250,,,,,,,,,,,,,,,D 0.35,,,,,,,,,,,,,,,,,,,,,,,,,,,,,,,,,,,,,,,,,
47.500,,,,,,,,,,,,,,,D 0.35,L 0.4,,,,,,,,,,,,,,,,,,,,,,,,,,,,,,,,Not Out (0),Not Out (0),,,,,,,
47.750,,,,,,,,,,,,,,,D 0.35,,,,,,,,,,,,,,,,,,,,,,,,,,,,,,,,,,,,,,,,,
48.000,,A319 (5),,EFHK,FIN5KK  ,16,,10,,,G - Gnd (7),0,36.0,0.05,D 0.35,L 0.4,264,,N60 05.06,,130.4,137.5,297,345,,,,39.4,4,362,505,0.000,0.000,10.9,19.1,45.9,61.1,-2.8,-2.8,F/CLSD (0),F/CLSD (0),Gear down - ground (3),Gnd (1),0.0,0.0,Normal (0),Normal (0),Not Out (0),Not Out (0), 0.0, 0.0, 0.0, 0.0, 0.0, 0.0,NOTCMD (0)
48.250,,,,,,,,,,,,,,,D 0.35,,,,,,,,,,,,,,,,,,,,,,,,,,,,,,,,,,,,,,,,,
48.500,,,,,,,,,,,,,,,D 0.35,L 0.4,,,,,,,,,,,,,,,,,,,,,,,,,,,,,,,,Not Out (0),Not Out (0),,,,,,,
48.750,,,,,,,,,,,,,,,D 0.35,,,,,,,,,,,,,,,,,,,,,,,,,,,,,,,,,,,,,,,,,
49.000,.OH-LVL,,EFOU,,,,6,,,,G - Gnd (7),0,35.4,,D 0.35,L 0.4,264,1009,,,130.4,137.5,307,343,,27.5,,,,370,506,0.000,0.000,11.4,19.1,47.3,61.1,-2.8,-2.8,,,Gear down - ground (3),Gnd (1),,,Normal (0),Normal (0),Not Out (0),Not Out (0), 0.0, 0.0, 0.0, 0.0, 0.0, 0.0,
49.250,,,,,,,,,,,,,,,D 0.35,,,,,,,,,,,,,,,,,,,,,,,,,,,,,,,,,,,,,,,,,
49.500,,,,,,,,,,,,,,,D 0.35,L 0.4,,,,,,,,,,,,,,,,,,,,,,,,,,,,,,,,Not Out (0),Not Out (0),,,,,,,
49.750,,,,,,,,,,,,,,,D 0.35,,,,,,,,,,,,,,,,,,,,,,,,,,,,,,,,,,,,,,,,,
50.000,,,,,,,,,,,G - Gnd (7),0,33.3,,D 0.35,L 0.4,264,,,E024 57.82,130.4,137.5,319,341,60327,,0.00,,,379,506,0.000,0.000,12.0,19.1,48.6,61.1,-2.8,-2.8,F/CLSD (0),F/CLSD (0),Gear down - ground (3),Gnd (1),0.0,0.0,Normal (0),Normal (0),Not Out (0),Not Out (0), 0.0, 0.0, 0.0, 0.0, 0.0, 0.0,
50.250,,,,,,,,,,,,,,,D 0.35,,,,,,,,,,,,,,,,,,,,,,,,,,,,,,,,,,,,,,,,,
50.500,,,,,,,,,,,,,,,D 0.35,L 0.4,,,,,,,,,,,,,,,,,,,,,,,,,,,,,,,,Not Out (0),Not Out (0),,,,,,,
50.750,,,,,,,,,,,,,,,D 0.35,,,,,,,,,,,,,,,,,,,,,,,,,,,,,,,,,,,,,,,,,
51.000,,,,,,,,,11,37,G - Gnd (7),0,30.4,,D 0.35,L 0.4,264,,,,130.4,137.5,328,345,,27.5,,,,388,506,0.000,0.000,12.8,19.1,50.0,61.1,-2.8,-2.8,,,Gear down - ground (3),Gnd (1),,,Normal (0),Normal (0),Not Out (0),Not Out (0), 0.0, 0.0, 0.0, 0.0, 0.0, 0.0,
51.250,,,,,,,,,,,,,,,D 0.35,,,,,,,,,,,,,,,,,,,,,,,,,,,,,,,,,,,,,,,,,
51.500,,,,,,,,,,,,,,,D 0.35,L 0.4,,,,,,,,,,,,,,,,,,,,,,,,,,,,,,,,Not Out (0),Not Out (0),,,,,,,
51.750,,,,,,,,,,,,,,,D 0.35,,,,,,,,,,,,,,,,,,,,,,,,,,,,,,,,,,,,,,,,,
52.000,,A319 (5),,EFHK,FIN5KK  ,16,,10,,,G - Gnd (7),0,36.0,0.05,D 0.35,L 0.4,264,,N60 05.06,,130.4,137.5,336,345,,,,39.4,4,395,506,0.000,0.000,13.4,19.1,51.1,61.1,-2.8,-2.8,F/CLSD (0),F/CLSD (0),Gear down - ground (3),Gnd (1),0.0,0.0,Normal (0),Normal (0),Not Out (0),Not Out (0), 0.0, 0.0, 0.0, 0.0, 0.0, 0.0,NOTCMD (0)
52.250,,,,,,,,,,,,,,,D 0.35,,,,,,,,,,,,,,,,,,,,,,,,,,,,,,,,,,,,,,,,,
52.500,,,,,,,,,,,,,,,D 0.35,L 0.4,,,,,,,,,,,,,,,,,,,,,,,,,,,,,,,,Not Out (0),Not Out (0),,,,,,,
52.750,,,,,,,,,,,,,,,D 0.35,,,,,,,,,,,,,,,,,,,,,,,,,,,,,,,,,,,,,,,,,
53.000,.OH-LVL,,EFOU,,,,6,,,,G - Gnd (7),0,35.4,,D 0.35,L 0.4,264,1009,,,130.4,137.5,341,345,,27.5,,,,402,507,0.000,0.000,13.9,19.1,51.5,61.1,-2.8,-2.8,,,Gear down - ground (3),Gnd (1),,,Normal (0),Normal (0),Not Out (0),Not Out (0), 0.0, 0.0, 0.0, 0.0, 0.0, 0.0,
53.250,,,,,,,,,,,,,,,D 0.35,,,,,,,,,,,,,,,,,,,,,,,,,,,,,,,,,,,,,,,,,
53.500,,,,,,,,,,,,,,,D 0.35,L 0.4,,,,,,,,,,,,,,,,,,,,,,,,,,,,,,,,Not Out (0),Not Out (0),,,,,,,
53.750,,,,,,,,,,,,,,,D 0.35,,,,,,,,,,,,,,,,,,,,,,,,,,,,,,,,,,,,,,,,,
54.000,,,,,,,,,,,G - Gnd (7),0,33.3,,D 0.35,L 0.4,264,,,E024 57.82,130.4,137.5,375,345,60327,,0.00,,,408,507,0.000,0.000,14.5,19.1,52.3,61.1,-2.8,-2.8,F/CLSD (0),F/CLSD (0),Gear down - ground (3),Gnd (1),0.0,0.0,Normal (0),Normal (0),Not Out (0),Not Out (0), 0.0, 0.0, 0.0, 0.0, 0.0, 0.0,
54.250,,,,,,,,,,,,,,,D 0.35,,,,,,,,,,,,,,,,,,,,,,,,,,,,,,,,,,,,,,,,,
54.500,,,,,,,,,,,,,,,D 0.35,L 0.4,,,,,,,,,,,,,,,,,,,,,,,,,,,,,,,,Not Out (0),Not Out (0),,,,,,,
54.750,,,,,,,,,,,,,,,D 0.35,,,,,,,,,,,,,,,,,,,,,,,,,,,,,,,,,,,,,,,,,
55.000,,,,,,,,,11,41,G - Gnd (7),0,30.4,,D 0.35,L 0.4,264,,,,130.4,137.5,363,343,,27.5,,,,417,507,0.000,0.000,14.9,19.1,52.8,61.1,-2.8,-2.8,,,Gear down - ground (3),Gnd (1),,,Normal (0),Normal (0),Not Out (0),Not Out (0), 0.0, 0.0, 0.0, 0.0, 0.0, 0.0,
55.250,,,,,,,,,,,,,,,D 0.35,,,,,,,,,,,,,,,,,,,,,,,,,,,,,,,,,,,,,,,,,
55.500,,,,,,,,,,,,,,,D 0.35,L 0.4,,,,,,,,,,,,,,,,,,,,,,,,,,,,,,,,Not Out (0),Not Out (0),,,,,,,
55.750,,,,,,,,,,,,,,,D 0.35,,,,,,,,,,,,,,,,,,,,,,,,,,,,,,,,,,,,,,,,,
56.000,,A319 (5),,EFHK,FIN5KK  ,16,,10,,,G - Gnd (7),0,36.0,0.05,D 0.35,L 0.4,264,,N60 05.06,,130.4,137.5,365,343,,,,39.4,4,423,508,0.000,0.000,15.1,19.1,53.5,61.1,-2.8,-2.8,F/CLSD (0),F/CLSD (0),Gear down - ground (3),Gnd (1),0.0,0.0,Normal (0),Normal (0),Not Out (0),Not Out (0), 0.0, 0.0, 0.0, 0.0, 0.0, 0.0,NOTCMD (0)
56.250,,,,,,,,,,,,,,,D 0.35,,,,,,,,,,,,,,,,,,,,,,,,,,,,,,,,,,,,,,,,,
56.500,,,,,,,,,,,,,,,D 0.35,L 0.4,,,,,,,,,,,,,,,,,,,,,,,,,,,,,,,,Not Out (0),Not Out (0),,,,,,,
56.750,,,,,,,,,,,,,,,D 0.35,,,,,,,,,,,,,,,,,,,,,,,,,,,,,,,,,,,,,,,,,
57.000,.OH-LVL,,EFOU,,,,6,,,,G - Gnd (7),0,35.4,,D 0.35,L 0.4,264,1009,,,130.4,137.5,370,343,,27.5,,,,429,508,0.000,0.000,15.4,19.1,54.1,61.1,-2.8,-2.8,,,Gear down - ground (3),Gnd (1),,,Normal (0),Normal (0),Not Out (0),Not Out (0), 0.0, 0.0, 0.0, 0.0, 0.0, 0.0,
57.250,,,,,,,,,,,,,,,D 0.35,,,,,,,,,,,,,,,,,,,,,,,,,,,,,,,,,,,,,,,,,
57.500,,,,,,,,,,,,,,,D 0.35,L 0.4,,,,,,,,,,,,,,,,,,,,,,,,,,,,,,,,Not Out (0),Not Out (0),,,,,,,
57.750,,,,,,,,,,,,,,,D 0.35,,,,,,,,,,,,,,,,,,,,,,,,,,,,,,,,,,,,,,,,,
58.000,,,,,,,,,,,G - Gnd (7),0,33.3,,D 0.35,L 0.4,264,,,E024 57.82,130.4,137.5,375,343,60327,,0.00,,,434,509,0.000,0.000,15.6,19.0,54.9,61.1,-2.8,-2.8,F/CLSD (0),F/CLSD (0),Gear down - ground (3),Gnd (1),0.0,0.0,Normal (0),Normal (0),Not Out (0),Not Out (0), 0.0, 0.0, 0.0, 0.0, 0.0, 0.0,
58.250,,,,,,,,,,,,,,,D 0.35,,,,,,,,,,,,,,,,,,,,,,,,,,,,,,,,,,,,,,,,,
58.500,,,,,,,,,,,,,,,D 0.35,L 0.4,,,,,,,,,,,,,,,,,,,,,,,,,,,,,,,,Not Out (0),Not Out (0),,,,,,,
58.750,,,,,,,,,,,,,,,D 0.35,,,,,,,,,,,,,,,,,,,,,,,,,,,,,,,,,,,,,,,,,
59.000,,,,,,,,,11,45,G - Gnd (7),0,30.4,,D 0.35,L 0.4,264,,,,130.4,137.5,385,343,,27.5,,,,439,509,0.000,0.000,15.9,19.1,55.6,61.1,-2.8,-2.8,,,Gear down - ground (3),Gnd (1),,,Normal (0),Normal (0),Not Out (0),Not Out (0), 0.0, 0.0, 0.0, 0.0, 0.0, 0.0,
59.250,,,,,,,,,,,,,,,D 0.35,,,,,,,,,,,,,,,,,,,,,,,,,,,,,,,,,,,,,,,,,
59.500,,,,,,,,,,,,,,,D 0.35,L 0.4,,,,,,,,,,,,,,,,,,,,,,,,,,,,,,,,Not Out (0),Not Out (0),,,,,,,
59.750,,,,,,,,,,,,,,,D 0.35,,,,,,,,,,,,,,,,,,,,,,,,,,,,,,,,,,,,,,,,,
60.000,,A319 (5),,EFHK,FIN5KK  ,16,,10,,,G - Gnd (7),0,36.0,0.05,D 0.35,L 0.4,264,,N60 05.06,,130.4,137.5,392,345,,,,39.4,4,445,510,0.000,0.000,16.3,19.3,56.5,61.1,-2.8,-2.8,F/CLSD (0),F/CLSD (0),Gear down - ground (3),Gnd (1),0.0,0.0,Normal (0),Normal (0),Not Out (0),Not Out (0), 0.0, 0.0, 0.0, 0.0, 0.0, 0.0,NOTCMD (0)
60.250,,,,,,,,,,,,,,,D 0.35,,,,,,,,,,,,,,,,,,,,,,,,,,,,,,,,,,,,,,,,,
60.500,,,,,,,,,,,,,,,D 0.35,L 0.4,,,,,,,,,,,,,,,,,,,,,,,,,,,,,,,,Not Out (0),Not Out (0),,,,,,,
60.750,,,,,,,,,,,,,,,D 0.35,,,,,,,,,,,,,,,,,,,,,,,,,,,,,,,,,,,,,,,,,
61.000,.OH-LVL,,EFOU,,,,6,,,,G - Gnd (7),0,35.4,,D 0.35,L 0.4,264,1009,,,130.4,137.5,401,345,,27.5,,,,449,510,0.000,0.000,16.8,19.3,57.5,61.1,-2.8,-2.8,,,Gear down - ground (3),Gnd (1),,,Normal (0),Normal (0),Not Out (0),Not Out (0), 0.0, 0.0, 0.0, 0.0, 0.0, 0.0,
61.250,,,,,,,,,,,,,,,D 0.35,,,,,,,,,,,,,,,,,,,,,,,,,,,,,,,,,,,,,,,,,
61.500,,,,,,,,,,,,,,,D 0.35,L 0.4,,,,,,,,,,,,,,,,,,,,,,,,,,,,,,,,Not Out (0),Not Out (0),,,,,,,
61.750,,,,,,,,,,,,,,,D 0.35,,,,,,,,,,,,,,,,,,,,,,,,,,,,,,,,,,,,,,,,,
62.000,,,,,,,,,,,G - Gnd (7),0,33.3,,D 0.35,L 0.4,264,,,E024 57.82,130.4,137.5,412,343,60327,,0.00,,,453,510,0.000,0.000,17.3,19.4,58.5,61.1,-2.8,-2.8,F/CLSD (0),F/CLSD (0),Gear down - ground (3),Gnd (1),0.0,0.0,Normal (0),Normal (0),Not Out (0),Not Out (0), 0.0, 0.0, 0.0, 0.0, 0.0, 0.0,
62.250,,,,,,,,,,,,,,,D 0.35,,,,,,,,,,,,,,,,,,,,,,,,,,,,,,,,,,,,,,,,,
62.500,,,,,,,,,,,,,,,D 0.35,L 0.4,,,,,,,,,,,,,,,,,,,,,,,,,,,,,,,,Not Out (0),Not Out (0),,,,,,,
62.750,,,,,,,,,,,,,,,D 0.35,,,,,,,,,,,,,,,,,,,,,,,,,,,,,,,,,,,,,,,,,
63.000,,,,,,,,,11,49,G - Gnd (7),0,30.4,,D 0.35,L 0.4,264,,,,130.4,137.5,423,343,,27.5,,,,458,511,0.000,0.000,18.0,19.4,59.6,61.1,-2.8,-2.8,,,Gear down - ground (3),Gnd (1),,,Normal (0),Normal (0),Not Out (0),Not Out (0), 0.0, 0.0, 0.0, 0.0, 0.0, 0.0,
63.250,,,,,,,,,,,,,,,D 0.35,,,,,,,,,,,,,,,,,,,,,,,,,,,,,,,,,,,,,,,,,
63.500,,,,,,,,,,,,,,,D 0.35,L 0.4,,,,,,,,,,,,,,,,,,,,,,,,,,,,,,,,Not Out (0),Not Out (0),,,,,,,
63.750,,,,,,,,,,,,,,,D 0.35,,,,,,,,,,,,,,,,,,,,,,,,,,,,,,,,,,,,,,,,,
64.000,,A319 (5),,EFHK,FIN5KK  ,16,,10,,,G - Gnd (7),0,36.0,0.05,D 0.35,L 0.4,264,,N60 05.06,,130.4,137.5,434,341,,,,39.4,4,461,511,0.000,0.000,18.6,19.3,60.6,61.1,-2.8,-2.8,F/CLSD (0),F/CLSD (0),Gear down - ground (3),Gnd (1),0.0,0.0,Normal (0),Normal (0),Not Out (0),Not Out (0), 0.0, 0.0, 0.0, 0.0, 0.0, 0.0,NOTCMD (0)
64.250,,,,,,,,,,,,,,,D 0.35,,,,,,,,,,,,,,,,,,,,,,,,,,,,,,,,,,,,,,,,,
64.500,,,,,,,,,,,,,,,D 0.35,L 0.4,,,,,,,,,,,,,,,,,,,,,,,,,,,,,,,,Not Out (0),Not Out (0),,,,,,,
64.750,,,,,,,,,,,,,,,D 0.35,,,,,,,,,,,,,,,,,,,,,,,,,,,,,,,,,,,,,,,,,
65.000,.OH-LVL,,EFOU,,,,6,,,,G - Gnd (7),0,35.4,,D 0.35,L 0.4,264,1009,,,130.4,137.5,426,343,,27.5,,,,464,511,0.000,0.000,19.3,19.3,61.5,61.1,-2.8,-2.8,,,Gear down - ground (3),Gnd (1),,,Normal (0),Normal (0),Not Out (0),Not Out (0), 0.0, 0.0, 0.0, 0.0, 0.0, 0.0,
65.250,,,,,,,,,,,,,,,D 0.35,,,,,,,,,,,,,,,,,,,,,,,,,,,,,,,,,,,,,,,,,
65.500,,,,,,,,,,,,,,,D 0.35,L 0.4,,,,,,,,,,,,,,,,,,,,,,,,,,,,,,,,Not Out (0),Not Out (0),,,,,,,
65.750,,,,,,,,,,,,,,,D 0.35,,,,,,,,,,,,,,,,,,,,,,,,,,,,,,,,,,,,,,,,,
66.000,,,,,,,,,,,G - Gnd (7),0,33.3,,D 0.35,L 0.4,264,,,E024 57.82,130.4,137.5,346,343,60327,,0.00,,,467,511,0.000,0.000,19.6,19.3,61.5,61.1,-2.8,-2.8,F/CLSD (0),F/CLSD (0),Gear down - ground (3),Gnd (1),0.0,0.0,Normal (0),Normal (0),Not Out (0),Not Out (0), 0.0, 0.0, 0.0, 0.0, 0.0, 0.0,
66.250,,,,,,,,,,,,,,,D 0.35,,,,,,,,,,,,,,,,,,,,,,,,,,,,,,,,,,,,,,,,,
66.500,,,,,,,,,,,,,,,D 0.35,L 0.4,,,,,,,,,,,,,,,,,,,,,,,,,,,,,,,,Not Out (0),Not Out (0),,,,,,,
66.750,,,,,,,,,,,,,,,D 0.35,,,,,,,,,,,,,,,,,,,,,,,,,,,,,,,,,,,,,,,,,
67.000,,,,,,,,,11,53,G - Gnd (7),0,30.4,,D 0.35,L 0.4,264,,,,130.4,137.5,330,341,,27.5,,,,468,512,0.000,0.000,19.8,19.3,61.4,61.1,-2.8,-2.8,,,Gear down - ground (3),Gnd (1),,,Normal (0),Normal (0),Not Out (0),Not Out (0), 0.0, 0.0, 0.0, 0.0, 0.0, 0.0,
67.250,,,,,,,,,,,,,,,D 0.35,,,,,,,,,,,,,,,,,,,,,,,,,,,,,,,,,,,,,,,,,
67.500,,,,,,,,,,,,,,,D 0.35,L 0.4,,,,,,,,,,,,,,,,,,,,,,,,,,,,,,,,Not Out (0),Not Out (0),,,,,,,
67.750,,,,,,,,,,,,,,,D 0.35,,,,,,,,,,,,,,,,,,,,,,,,,,,,,,,,,,,,,,,,,
68.000,,A319 (5),,EFHK,FIN5KK  ,16,,10,,,G - Gnd (7),0,36.0,0.05,D 0.35,L 0.4,264,,N60 05.06,,130.4,137.5,330,345,,,,39.4,4,466,512,0.000,0.000,19.6,19.3,61.4,61.1,-2.8,-2.8,F/CLSD (0),F/CLSD (0),Gear down - ground (3),Gnd (1),0.0,0.0,Normal (0),Normal (0),Not Out (0),Not Out (0), 0.0, 0.0, 0.0, 0.0, 0.0, 0.0,NOTCMD (0)
68.250,,,,,,,,,,,,,,,D 0.35,,,,,,,,,,,,,,,,,,,,,,,,,,,,,,,,,,,,,,,,,
68.500,,,,,,,,,,,,,,,D 0.35,L 0.4,,,,,,,,,,,,,,,,,,,,,,,,,,,,,,,,Not Out (0),Not Out (0),,,,,,,
68.750,,,,,,,,,,,,,,,D 0.35,,,,,,,,,,,,,,,,,,,,,,,,,,,,,,,,,,,,,,,,,
69.000,.OH-LVL,,EFOU,,,,6,,,,G - Gnd (7),0,35.4,,D 0.35,L 0.4,264,1009,,,130.4,137.5,330,341,,27.5,,,,466,512,0.000,0.000,19.3,19.3,61.3,61.1,-2.8,-2.8,,,Gear down - ground (3),Gnd (1),,,Normal (0),Normal (0),Not Out (0),Not Out (0), 0.0, 0.0, 0.0, 0.0, 0.0, 0.0,
69.250,,,,,,,,,,,,,,,D 0.35,,,,,,,,,,,,,,,,,,,,,,,,,,,,,,,,,,,,,,,,,
69.500,,,,,,,,,,,,,,,D 0.35,L 0.4,,,,,,,,,,,,,,,,,,,,,,,,,,,,,,,,Not Out (0),Not Out (0),,,,,,,
69.750,,,,,,,,,,,,,,,D 0.35,,,,,,,,,,,,,,,,,,,,,,,,,,,,,,,,,,,,,,,,,
70.000,,,,,,,,,,,G - Gnd (7),0,33.3,,D 0.35,L 0.4,264,,,E024 57.82,130.4,137.5,334,341,60327,,0.00,,,466,512,0.000,0.000,19.1,19.3,61.3,61.1,-2.8,-2.8,F/CLSD (0),F/CLSD (0),Gear down - ground (3),Gnd (1),0.0,0.0,Normal (0),Normal (0),Not Out (0),Not Out (0), 0.0, 0.0, 0.0, 0.0, 0.0, 0.0,
70.250,,,,,,,,,,,,,,,D 0.35,,,,,,,,,,,,,,,,,,,,,,,,,,,,,,,,,,,,,,,,,
70.500,,,,,,,,,,,,,,,D 0.35,L 0.4,,,,,,,,,,,,,,,,,,,,,,,,,,,,,,,,Not Out (0),Not Out (0),,,,,,,
70.750,,,,,,,,,,,,,,,D 0.35,,,,,,,,,,,,,,,,,,,,,,,,,,,,,,,,,,,,,,,,,
71.000,,,,,,,,,11,57,G - Gnd (7),0,30.4,,D 0.35,L 0.4,264,,,,130.4,137.5,334,339,,27.5,,,,466,512,0.000,0.000,19.0,19.3,61.3,61.1,-2.8,-2.8,,,Gear down - ground (3),Gnd (1),,,Normal (0),Normal (0),Not Out (0),Not Out (0), 0.0, 0.0, 0.0, 0.0, 0.0, 0.0,
71.250,,,,,,,,,,,,,,,D 0.35,,,,,,,,,,,,,,,,,,,,,,,,,,,,,,,,,,,,,,,,,
71.500,,,,,,,,,,,,,,,D 0.35,L 0.4,,,,,,,,,,,,,,,,,,,,,,,,,,,,,,,,Not Out (0),Not Out (0),,,,,,,
71.750,,,,,,,,,,,,,,,D 0.35,,,,,,,,,,,,,,,,,,,,,,,,,,,,,,,,,,,,,,,,,
72.000,,A319 (5),,EFHK,FIN5KK  ,16,,10,,,G - Gnd (7),0,36.0,0.05,D 0.35,L 0.4,264,,N60 05.06,,130.4,137.5,334,339,,,,39.4,4,467,513,0.000,0.000,19.0,19.3,61.1,61.1,-2.8,-2.8,F/CLSD (0),F/CLSD (0),Gear down - ground (3),Gnd (1),0.0,0.0,Normal (0),Normal (0),Not Out (0),Not Out (0), 0.0, 0.0, 0.0, 0.0, 0.0, 0.0,NOTCMD (0)
72.250,,,,,,,,,,,,,,,D 0.35,,,,,,,,,,,,,,,,,,,,,,,,,,,,,,,,,,,,,,,,,
72.500,,,,,,,,,,,,,,,D 0.35,L 0.4,,,,,,,,,,,,,,,,,,,,,,,,,,,,,,,,Not Out (0),Not Out (0),,,,,,,
72.750,,,,,,,,,,,,,,,D 0.35,,,,,,,,,,,,,,,,,,,,,,,,,,,,,,,,,,,,,,,,,
73.000,.OH-LVL,,EFOU,,,,6,,,,G - Gnd (7),0,35.4,,D 0.35,L 0.4,264,1009,,,130.4,137.5,334,341,,27.5,,,,467,513,0.000,0.000,19.0,19.1,61.1,61.1,-2.8,-2.8,,,Gear down - ground (3),Gnd (1),,,Normal (0),Normal (0),Not Out (0),Not Out (0), 0.0, 0.0, 0.0, 0.0, 0.0, 0.0,
73.250,,,,,,,,,,,,,,,D 0.35,,,,,,,,,,,,,,,,,,,,,,,,,,,,,,,,,,,,,,,,,
73.500,,,,,,,,,,,,,,,D 0.35,L 0.4,,,,,,,,,,,,,,,,,,,,,,,,,,,,,,,,Not Out (0),Not Out (0),,,,,,,
73.750,,,,,,,,,,,,,,,D 0.35,,,,,,,,,,,,,,,,,,,,,,,,,,,,,,,,,,,,,,,,,
74.000,,,,,,,,,,,G - Gnd (7),0,33.3,,D 0.35,L 0.4,264,,,E024 57.82,130.4,137.5,332,339,60327,,0.00,,,468,513,0.000,0.000,19.0,19.1,61.1,61.0,-2.8,-2.8,F/CLSD (0),F/CLSD (0),Gear down - ground (3),Gnd (1),0.0,0.0,Normal (0),Normal (0),Not Out (0),Not Out (0), 0.0, 0.0, 0.0, 0.0, 0.0, 0.0,
74.250,,,,,,,,,,,,,,,D 0.35,,,,,,,,,,,,,,,,,,,,,,,,,,,,,,,,,,,,,,,,,
74.500,,,,,,,,,,,,,,,D 0.35,L 0.4,,,,,,,,,,,,,,,,,,,,,,,,,,,,,,,,Not Out (0),Not Out (0),,,,,,,
74.750,,,,,,,,,,,,,,,D 0.35,,,,,,,,,,,,,,,,,,,,,,,,,,,,,,,,,,,,,,,,,
75.000,,,,,,,,,12,1,G - Gnd (7),0,30.4,,D 0.35,L 0.4,264,,,,130.4,137.5,332,343,,27.5,,,,469,513,0.000,0.000,19.0,19.1,61.1,61.0,-2.8,-2.8,,,Gear down - ground (3),Gnd (1),,,Normal (0),Normal (0),Not Out (0),Not Out (0), 0.0, 0.0, 0.0, 0.0, 0.0, 0.0,
75.250,,,,,,,,,,,,,,,D 0.35,,,,,,,,,,,,,,,,,,,,,,,,,,,,,,,,,,,,,,,,,
75.500,,,,,,,,,,,,,,,D 0.35,L 0.4,,,,,,,,,,,,,,,,,,,,,,,,,,,,,,,,Not Out (0),Not Out (0),,,,,,,
75.750,,,,,,,,,,,,,,,D 0.35,,,,,,,,,,,,,,,,,,,,,,,,,,,,,,,,,,,,,,,,,
76.000,,A319 (5),,EFHK,FIN5KK  ,16,,10,,,G - Gnd (7),0,36.0,0.05,D 0.35,L 0.4,264,,N60 05.06,,130.4,137.5,336,341,,,,39.4,4,469,513,0.000,0.000,19.0,19.1,61.1,61.1,-2.8,-2.8,F/CLSD (0),F/CLSD (0),Gear down - ground (3),Gnd (1),0.0,0.0,Normal (0),Normal (0),Not Out (0),Not Out (0), 0.0, 0.0, 0.0, 0.0, 0.0, 0.0,NOTCMD (0)
76.250,,,,,,,,,,,,,,,D 0.35,,,,,,,,,,,,,,,,,,,,,,,,,,,,,,,,,,,,,,,,,
76.500,,,,,,,,,,,,,,,D 0.35,L 0.4,,,,,,,,,,,,,,,,,,,,,,,,,,,,,,,,Not Out (0),Not Out (0),,,,,,,
76.750,,,,,,,,,,,,,,,D 0.35,,,,,,,,,,,,,,,,,,,,,,,,,,,,,,,,,,,,,,,,,
77.000,.OH-LVL,,EFOU,,,,6,,,,G - Gnd (7),0,35.4,,D 0.35,L 0.4,264,1009,,,130.4,137.5,334,341,,27.5,,,,470,514,0.000,0.000,19.0,19.1,61.1,61.1,-2.8,-2.8,,,Gear down - ground (3),Gnd (1),,,Normal (0),Normal (0),Not Out (0),Not Out (0), 0.0, 0.0, 0.0, 0.0, 0.0, 0.0,
77.250,,,,,,,,,,,,,,,D 0.35,,,,,,,,,,,,,,,,,,,,,,,,,,,,,,,,,,,,,,,,,
77.500,,,,,,,,,,,,,,,D 0.35,L 0.4,,,,,,,,,,,,,,,,,,,,,,,,,,,,,,,,Not Out (0),Not Out (0),,,,,,,
77.750,,,,,,,,,,,,,,,D 0.35,,,,,,,,,,,,,,,,,,,,,,,,,,,,,,,,,,,,,,,,,
78.000,,,,,,,,,,,G - Gnd (7),0,33.3,,D 0.35,L 0.4,264,,,E024 57.82,130.4,137.5,334,343,60327,,0.00,,,470,514,0.000,0.000,19.0,19.1,61.1,61.0,-2.8,-2.8,F/CLSD (0),F/CLSD (0),Gear down - ground (3),Gnd (1),0.0,0.0,Normal (0),Normal (0),Not Out (0),Not Out (0), 0.0, 0.0, 0.0, 0.0, 0.0, 0.0,
78.250,,,,,,,,,,,,,,,D 0.35,,,,,,,,,,,,,,,,,,,,,,,,,,,,,,,,,,,,,,,,,
78.500,,,,,,,,,,,,,,,D 0.35,L 0.4,,,,,,,,,,,,,,,,,,,,,,,,,,,,,,,,Not Out (0),Not Out (0),,,,,,,
78.750,,,,,,,,,,,,,,,D 0.35,,,,,,,,,,,,,,,,,,,,,,,,,,,,,,,,,,,,,,,,,
79.000,,,,,,,,,12,5,G - Gnd (7),0,30.4,,D 0.35,L 0.4,264,,,,130.4,137.5,334,343,,27.5,,,,471,514,0.000,0.000,18.9,19.1,61.1,61.1,-2.8,-2.8,,,Gear down - ground (3),Gnd (1),,,Normal (0),Normal (0),Not Out (0),Not Out (0), 0.0, 0.0, 0.0, 0.0, 0.0, 0.0,
79.250,,,,,,,,,,,,,,,D 0.35,,,,,,,,,,,,,,,,,,,,,,,,,,,,,,,,,,,,,,,,,
79.500,,,,,,,,,,,,,,,D 0.35,L 0.4,,,,,,,,,,,,,,,,,,,,,,,,,,,,,,,,Not Out (0),Not Out (0),,,,,,,
79.750,,,,,,,,,,,,,,,D 0.35,,,,,,,,,,,,,,,,,,,,,,,,,,,,,,,,,,,,,,,,,
80.000,,A319 (5),,EFHK,FIN5KK  ,16,,10,,,G - Gnd (7),0,36.0,0.05,D 0.35,L 0.4,264,,N60 05.06,,130.4,137.5,346,343,,,,39.4,4,472,515,0.000,0.000,18.9,19.3,61.0,61.0,-2.8,-2.8,F/CLSD (0),F/CLSD (0),Gear down - ground (3),Gnd (1),0.0,0.7,Normal (0),Normal (0),Not Out (0),Not Out (0), 0.0, 0.0, 0.0, 0.0, 0.0, 0.0,NOTCMD (0)
80.250,,,,,,,,,,,,,,,D 0.35,,,,,,,,,,,,,,,,,,,,,,,,,,,,,,,,,,,,,,,,,
80.500,,,,,,,,,,,,,,,D 0.35,L 0.4,,,,,,,,,,,,,,,,,,,,,,,,,,,,,,,,Not Out (0),Not Out (0),,,,,,,
80.750,,,,,,,,,,,,,,,D 0.35,,,,,,,,,,,,,,,,,,,,,,,,,,,,,,,,,,,,,,,,,
81.000,.OH-LVL,,EFOU,,,,6,,,,G - Gnd (7),0,35.4,,D 0.35,L 0.4,264,1009,,,130.4,137.5,356,346,,27.5,,,,474,515,0.000,0.000,18.8,19.3,61.0,61.0,-2.8,-2.8,,,Gear down - ground (3),Gnd (1),,,Normal (0),Normal (0),Not Out (0),Not Out (0), 0.0, 0.0, 0.0, 0.0, 0.0, 0.0,
81.250,,,,,,,,,,,,,,,D 0.35,,,,,,,,,,,,,,,,,,,,,,,,,,,,,,,,,,,,,,,,,
81.500,,,,,,,,,,,,,,,D 0.35,L 0.4,,,,,,,,,,,,,,,,,,,,,,,,,,,,,,,,Not Out (0),Not Out (0),,,,,,,
81.750,,,,,,,,,,,,,,,D 0.35,,,,,,,,,,,,,,,,,,,,,,,,,,,,,,,,,,,,,,,,,
82.000,,,,,,,,,,,G - Gnd (7),0,33.3,,D 0.35,L 0.4,264,,,E024 57.82,130.4,137.5,356,345,60327,,0.00,,,476,516,0.000,0.000,18.8,19.1,61.0,61.0,-2.8,-2.8,F/CLSD (0),N/CLSD (1),Gear down - ground (3),Gnd (1),0.0,4.0,Normal (0),Normal (0),Not Out (0),Not Out (0), 0.0, 0.0, 0.0, 0.0, 0.0, 0.0,
82.250,,,,,,,,,,,,,,,D 0.35,,,,,,,,,,,,,,,,,,,,,,,,,,,,,,,,,,,,,,,,,
82.500,,,,,,,,,,,,,,,D 0.35,L 0.4,,,,,,,,,,,,,,,,,,,,,,,,,,,,,,,,Not Out (0),Not Out (0),,,,,,,
82.750,,,,,,,,,,,,,,,D 0.35,,,,,,,,,,,,,,,,,,,,,,,,,,,,,,,,,,,,,,,,,
83.000,,,,,,,,,12,9,G - Gnd (7),0,30.4,,D 0.35,L 0.4,264,,,,130.4,137.5,366,363,,27.5,,,,479,519,0.000,0.000,18.8,19.0,61.0,60.9,-2.8,-2.8,,,Gear down - ground (3),Gnd (1),,,Normal (0),Normal (0),Not Out (0),Not Out (0), 0.0, 0.0, 0.0, 0.0, 0.0, 0.0,
83.250,,,,,,,,,,,,,,,D 0.35,,,,,,,,,,,,,,,,,,,,,,,,,,,,,,,,,,,,,,,,,
83.500,,,,,,,,,,,,,,,D 0.35,L 0.4,,,,,,,,,,,,,,,,,,,,,,,,,,,,,,,,Not Out (0),Not Out (0),,,,,,,
83.750,,,,,,,,,,,,,,,D 0.35,,,,,,,,,,,,,,,,,,,,,,,,,,,,,,,,,,,,,,,,,
84.000,,A319 (5),,EFHK,FIN5KK  ,16,,10,,,G - Gnd (7),0,36.0,0.05,D 0.35,L 0.4,264,,N60 05.06,,130.4,137.5,372,375,,,,39.4,4,483,524,0.000,0.000,18.8,19.0,61.0,60.9,-2.8,-2.8,N/CLSD (1),N/CLSD (1),Gear down - ground (3),Gnd (1),1.0,7.4,Normal (0),Normal (0),Not Out (0),Not Out (0), 0.0, 0.0, 0.0, 0.0, 0.0, 0.0,NOTCMD (0)
84.250,,,,,,,,,,,,,,,D 0.35,,,,,,,,,,,,,,,,,,,,,,,,,,,,,,,,,,,,,,,,,
84.500,,,,,,,,,,,,,,,D 0.35,L 0.4,,,,,,,,,,,,,,,,,,,,,,,,,,,,,,,,Not Out (0),Not Out (0),,,,,,,
84.750,,,,,,,,,,,,,,,D 0.35,,,,,,,,,,,,,,,,,,,,,,,,,,,,,,,,,,,,,,,,,
85.000,.OH-LVL,,EFOU,,,,6,,,,G - Gnd (7),0,35.4,,D 0.35,L 0.4,264,1009,,,130.4,137.5,383,383,,27.5,,,,487,529,0.000,0.000,18.9,19.1,61.0,60.9,-2.8,-2.8,,,Gear down - ground (3),Gnd (1),,,Normal (0),Normal (0),Not Out (0),Not Out (0), 0.0, 0.0, 0.0, 0.0, 0.0, 0.0,
85.250,,,,,,,,,,,,,,,D 0.35,,,,,,,,,,,,,,,,,,,,,,,,,,,,,,,,,,,,,,,,,
85.500,,,,,,,,,,,,,,,D 0.35,L 0.4,,,,,,,,,,,,,,,,,,,,,,,,,,,,,,,,Not Out (0),Not Out (0),,,,,,,
85.750,,,,,,,,,,,,,,,D 0.35,,,,,,,,,,,,,,,,,,,,,,,,,,,,,,,,,,,,,,,,,
86.000,,,,,,,,,,,G - Gnd (7),0,33.3,,D 0.35,L 0.4,264,,,E024 57.82,130.4,137.5,386,392,60327,,0.00,,,492,534,0.000,0.000,18.9,19.1,61.0,61.0,-2.8,-2.8,N/CLSD (1),N/CLSD (1),Gear down - ground (3),Gnd (1),1.0,9.8,Normal (0),Normal (0),Not Out (0),Not Out (0), 0.0, 0.0, 0.0, 0.0, 0.0, 0.0,
86.250,,,,,,,,,,,,,,,D 0.35,,,,,,,,,,,,,,,,,,,,,,,,,,,,,,,,,,,,,,,,,
86.500,,,,,,,,,,,,,,,D 0.35,L 0.4,,,,,,,,,,,,,,,,,,,,,,,,,,,,,,,,Not Out (0),Not Out (0),,,,,,,
86.750,,,,,,,,,,,,,,,D 0.35,,,,,,,,,,,,,,,,,,,,,,,,,,,,,,,,,,,,,,,,,
87.000,,,,,,,,,12,13,G - Gnd (7),0,30.4,,D 0.35,L 0.4,264,,,,130.4,137.5,386,385,,27.5,,,,496,538,0.000,0.000,18.9,19.1,61.0,61.0,-2.8,-2.8,,,Gear down - ground (3),Gnd (1),,,Normal (0),Normal (0),Not Out (0),Not Out (0), 0.0, 0.0, 0.0, 0.0, 0.0, 0.0,
87.250,,,,,,,,,,,,,,,D 0.35,,,,,,,,,,,,,,,,,,,,,,,,,,,,,,,,,,,,,,,,,
87.500,,,,,,,,,,,,,,,D 0.35,L 0.4,,,,,,,,,,,,,,,,,,,,,,,,,,,,,,,,Not Out (0),Not Out (0),,,,,,,
87.750,,,,,,,,,,,,,,,D 0.35,,,,,,,,,,,,,,,,,,,,,,,,,,,,,,,,,,,,,,,,,
88.000,,A319 (5),,EFHK,FIN5KK  ,16,,10,,,G - Gnd (7),0,36.0,0.05,D 0.35,L 0.4,264,,N60 05.06,,130.4,137.5,386,383,,,,39.4,4,501,541,0.000,0.000,19.0,19.1,61.0,61.0,-2.8,-2.8,N/CLSD (1),N/CLSD (1),Gear down - ground (3),Gnd (1),1.5,10.0,Normal (0),Normal (0),Not Out (0),Not Out (0), 0.0, 0.0, 0.0, 0.0, 0.0, 0.0,NOTCMD (0)
88.250,,,,,,,,,,,,,,,D 0.35,,,,,,,,,,,,,,,,,,,,,,,,,,,,,,,,,,,,,,,,,
88.500,,,,,,,,,,,,,,,D 0.35,L 0.4,,,,,,,,,,,,,,,,,,,,,,,,,,,,,,,,Not Out (0),Not Out (0),,,,,,,
88.750,,,,,,,,,,,,,,,D 0.35,,,,,,,,,,,,,,,,,,,,,,,,,,,,,,,,,,,,,,,,,
89.000,.OH-LVL,,EFOU,,,,6,,,,G - Gnd (7),0,35.4,,D 0.35,L 0.4,264,1009,,,130.4,137.5,385,383,,27.5,,,,505,543,0.000,0.000,19.0,19.0,61.1,61.0,-2.8,-2.8,,,Gear down - ground (3),Gnd (1),,,Normal (0),Normal (0),Not Out (0),Not Out (0), 0.0, 0.0, 0.0, 0.0, 0.0, 0.0,
89.250,,,,,,,,,,,,,,,D 0.35,,,,,,,,,,,,,,,,,,,,,,,,,,,,,,,,,,,,,,,,,
89.500,,,,,,,,,,,,,,,D 0.35,L 0.4,,,,,,,,,,,,,,,,,,,,,,,,,,,,,,,,Not Out (0),Not Out (0),,,,,,,
89.750,,,,,,,,,,,,,,,D 0.35,,,,,,,,,,,,,,,,,,,,,,,,,,,,,,,,,,,,,,,,,
90.000,,,,,,,,,,,G - Gnd (7),0,33.3,,D 0.35,L 0.4,264,,,E024 57.82,130.4,137.5,386,381,60327,,0.00,,,508,545,0.000,0.000,19.1,19.0,61.1,61.0,-2.8,-2.8,N/CLSD (1),N/CLSD (1),Gear down - ground (3),Gnd (1),1.5,10.0,Normal (0),Normal (0),Not Out (0),Not Out (0), 0.0, 0.0, 0.0, 0.0, 0.0, 0.0,
90.250,,,,,,,,,,,,,,,D 0.35,,,,,,,,,,,,,,,,,,,,,,,,,,,,,,,,,,,,,,,,,
90.500,,,,,,,,,,,,,,,D 0.35,L 0.4,,,,,,,,,,,,,,,,,,,,,,,,,,,,,,,,Not Out (0),Not Out (0),,,,,,,
90.750,,,,,,,,,,,,,,,D 0.35,,,,,,,,,,,,,,,,,,,,,,,,,,,,,,,,,,,,,,,,,
91.000,,,,,,,,,12,17,G - Gnd (7),0,30.4,,D 0.35,L 0.4,264,,,,130.4,137.5,386,383,,27.5,,,,511,548,0.000,0.000,19.3,19.0,61.3,61.1,-2.8,-2.8,,,Gear down - ground (3),Gnd (1),,,Normal (0),Normal (0),Not Out (0),Not Out (0), 0.0, 0.0, 0.0, 0.0, 0.0, 0.0,
91.250,,,,,,,,,,,,,,,D 0.35,,,,,,,,,,,,,,,,,,,,,,,,,,,,,,,,,,,,,,,,,
91.500,,,,,,,,,,,,,,,D 0.35,L 0.4,,,,,,,,,,,,,,,,,,,,,,,,,,,,,,,,Not Out (0),Not Out (0),,,,,,,
91.750,,,,,,,,,,,,,,,D 0.35,,,,,,,,,,,,,,,,,,,,,,,,,,,,,,,,,,,,,,,,,
92.000,,A319 (5),,EFHK,FIN5KK  ,16,,10,,,G - Gnd (7),0,36.0,0.05,D 0.35,L 0.4,264,,N60 05.06,,130.4,137.5,385,386,,,,39.4,4,514,550,0.000,0.000,19.3,19.0,61.3,61.1,-2.8,-2.8,N/CLSD (1),N/CLSD (1),Gear down - ground (3),Gnd (1),1.5,10.0,Normal (0),Normal (0),Not Out (0),Not Out (0), 0.0, 0.0, 0.0, 0.0, 0.0, 0.0,NOTCMD (0)
92.250,,,,,,,,,,,,,,,D 0.35,,,,,,,,,,,,,,,,,,,,,,,,,,,,,,,,,,,,,,,,,
92.500,,,,,,,,,,,,,,,D 0.35,L 0.4,,,,,,,,,,,,,,,,,,,,,,,,,,,,,,,,Not Out (0),Not Out (0),,,,,,,
92.750,,,,,,,,,,,,,,,D 0.35,,,,,,,,,,,,,,,,,,,,,,,,,,,,,,,,,,,,,,,,,
93.000,.OH-LVL,,EFOU,,,,6,,,,G - Gnd (7),0,35.4,,D 0.35,L 0.4,264,1009,,,130.4,137.5,377,390,,27.5,,,,516,553,0.000,0.000,19.3,19.1,61.4,61.1,-2.8,-2.8,,,Gear down - ground (3),Gnd (1),,,Normal (0),Normal (0),Not Out (0),Not Out (0), 0.0, 0.0, 0.0, 0.0, 0.0, 0.0,
93.250,,,,,,,,,,,,,,,D 0.35,,,,,,,,,,,,,,,,,,,,,,,,,,,,,,,,,,,,,,,,,
93.500,,,,,,,,,,,,,,,D 0.35,L 0.4,,,,,,,,,,,,,,,,,,,,,,,,,,,,,,,,Not Out (0),Not Out (0),,,,,,,
93.750,,,,,,,,,,,,,,,D 0.35,,,,,,,,,,,,,,,,,,,,,,,,,,,,,,,,,,,,,,,,,
94.000,,,,,,,,,,,G - Gnd (7),0,33.3,,D 0.35,L 0.4,264,,,E024 57.82,130.4,137.5,366,383,60327,,0.00,,,518,554,0.000,0.000,19.3,19.1,61.3,61.3,-2.8,-2.8,N/CLSD (1),N/CLSD (1),Gear down - ground (3),Gnd (1),1.5,10.0,Normal (0),Normal (0),Not Out (0),Not Out (0), 0.0, 0.0, 0.0, 0.0, 0.0, 0.0,
94.250,,,,,,,,,,,,,,,D 0.35,,,,,,,,,,,,,,,,,,,,,,,,,,,,,,,,,,,,,,,,,
94.500,,,,,,,,,,,,,,,D 0.35,L 0.4,,,,,,,,,,,,,,,,,,,,,,,,,,,,,,,,Not Out (0),Not Out (0),,,,,,,
94.750,,,,,,,,,,,,,,,D 0.35,,,,,,,,,,,,,,,,,,,,,,,,,,,,,,,,,,,,,,,,,
95.000,,,,,,,,,12,21,G - Gnd (7),0,30.4,,D 0.35,L 0.4,264,,,,130.4,137.5,356,370,,27.5,,,,518,554,0.000,0.000,19.3,19.1,61.1,61.1,-2.8,-2.8,,,Gear down - ground (3),Gnd (1),,,Normal (0),Normal (0),Not Out (0),Not Out (0), 0.0, 0.0, 0.0, 0.0, 0.0, 0.0,
95.250,,,,,,,,,,,,,,,D 0.35,,,,,,,,,,,,,,,,,,,,,,,,,,,,,,,,,,,,,,,,,
95.500,,,,,,,,,,,,,,,D 0.35,L 0.4,,,,,,,,,,,,,,,,,,,,,,,,,,,,,,,,Not Out (0),Not Out (0),,,,,,,
95.750,,,,,,,,,,,,,,,D 0.35,,,,,,,,,,,,,,,,,,,,,,,,,,,,,,,,,,,,,,,,,
96.000,,A319 (5),,EFHK,FIN5KK  ,16,,10,,,G - Gnd (7),0,36.0,0.05,D 0.35,L 0.4,264,,N60 05.06,,130.4,137.5,361,368,,,,39.4,4,517,552,0.000,0.000,19.4,19.1,61.1,61.1,-2.8,-2.8,N/CLSD (1),N/CLSD (1),Gear down - ground (3),Gnd (1),1.5,10.0,Normal (0),Normal (0),Not Out (0),Not Out (0), 0.0, 0.0, 0.0, 0.0, 0.0, 0.0,NOTCMD (0)
96.250,,,,,,,,,,,,,,,D 0.35,,,,,,,,,,,,,,,,,,,,,,,,,,,,,,,,,,,,,,,,,
96.500,,,,,,,,,,,,,,,D 0.35,L 0.4,,,,,,,,,,,,,,,,,,,,,,,,,,,,,,,,Not Out (0),Not Out (0),,,,,,,
96.750,,,,,,,,,,,,,,,D 0.35,,,,,,,,,,,,,,,,,,,,,,,,,,,,,,,,,,,,,,,,,
97.000,.OH-LVL,,EFOU,,,,6,,,,G - Gnd (7),0,35.4,,D 0.35,L 0.4,264,1009,,,130.4,137.5,368,375,,27.5,,,,516,552,0.000,0.000,19.5,19.3,61.1,61.1,-2.8,-2.8,,,Gear down - ground (3),Gnd (1),,,Normal (0),Normal (0),Not Out (0),Not Out (0), 0.0, 0.0, 0.0, 0.0, 0.0, 0.0,
97.250,,,,,,,,,,,,,,,D 0.35,,,,,,,,,,,,,,,,,,,,,,,,,,,,,,,,,,,,,,,,,
97.500,,,,,,,,,,,,,,,D 0.35,L 0.4,,,,,,,,,,,,,,,,,,,,,,,,,,,,,,,,Not Out (0),Not Out (0),,,,,,,
97.750,,,,,,,,,,,,,,,D 0.35,,,,,,,,,,,,,,,,,,,,,,,,,,,,,,,,,,,,,,,,,
98.000,,,,,,,,,,,G - Gnd (7),0,33.3,,D 0.35,L 0.4,264,,,E024 57.82,130.4,137.5,366,377,60327,,0.00,,,516,552,0.000,0.000,19.8,19.4,61.1,61.1,-2.8,-2.8,N/CLSD (1),N/CLSD (1),Gear down - ground (3),Gnd (1),1.5,10.0,Normal (0),Normal (0),Not Out (0),Not Out (0), 0.0, 0.0, 0.0, 0.0, 0.0, 0.0,
98.250,,,,,,,,,,,,,,,D 0.35,,,,,,,,,,,,,,,,,,,,,,,,,,,,,,,,,,,,,,,,,
98.500,,,,,,,,,,,,,,,D 0.35,L 0.4,,,,,,,,,,,,,,,,,,,,,,,,,,,,,,,,Not Out (0),Not Out (0),,,,,,,
98.750,,,,,,,,,,,,,,,D 0.35,,,,,,,,,,,,,,,,,,,,,,,,,,,,,,,,,,,,,,,,,
99.000,,,,,,,,,12,25,G - Gnd (7),0,30.4,,D 0.35,L 0.4,264,,,,130.4,137.5,370,379,,27.5,,,,516,551,0.000,0.000,19.8,19.6,61.1,61.1,-2.8,-2.8,,,Gear down - ground (3),Gnd (1),,,Normal (0),Normal (0),Not Out (0),Not Out (0), 0.0, 0.0, 0.0, 0.0, 0.0, 0.0,
99.250,,,,,,,,,,,,,,,D 0.35,,,,,,,,,,,,,,,,,,,,,,,,,,,,,,,,,,,,,,,,,
99.500,,,,,,,,,,,,,,,D 0.35,L 0.4,,,,,,,,,,,,,,,,,,,,,,,,,,,,,,,,Not Out (0),Not Out (0),,,,,,,
99.750,,,,,,,,,,,,,,,D 0.35,,,,,,,,,,,,,,,,,,,,,,,,,,,,,,,,,,,,,,,,,
100.000,,A319 (5),,EFHK,FIN5KK  ,16,,10,,,G - Gnd (7),0,36.0,0.05,D 0.35,L 0.4,264,,N60 05.06,,130.4,137.5,368,379,,,,39.4,4,516,550,0.000,0.000,19.9,19.8,61.1,61.0,-2.8,-2.8,N/CLSD (1),N/CLSD (1),Gear down - ground (3),Gnd (1),1.5,10.0,Normal (0),Normal (0),Not Out (0),Not Out (0), 0.0, 0.0, 0.0, 0.0, 0.0, 0.0,NOTCMD (0)
100.250,,,,,,,,,,,,,,,D 0.35,,,,,,,,,,,,,,,,,,,,,,,,,,,,,,,,,,,,,,,,,
100.500,,,,,,,,,,,,,,,D 0.35,L 0.4,,,,,,,,,,,,,,,,,,,,,,,,,,,,,,,,Not Out (0),Not Out (0),,,,,,,
100.750,,,,,,,,,,,,,,,D 0.35,,,,,,,,,,,,,,,,,,,,,,,,,,,,,,,,,,,,,,,,,
101.000,.OH-LVL,,EFOU,,,,6,,,,G - Gnd (7),0,35.4,,D 0.35,L 0.4,264,1009,,,130.4,137.5,368,379,,27.5,,,,516,549,0.000,0.000,20.1,19.9,61.1,61.0,-2.8,-2.8,,,Gear down - ground (3),Gnd (1),,,Normal (0),Normal (0),Not Out (0),Not Out (0), 0.0, 0.0, 0.0, 0.0, 0.0, 0.0,
101.250,,,,,,,,,,,,,,,D 0.35,,,,,,,,,,,,,,,,,,,,,,,,,,,,,,,,,,,,,,,,,
101.500,,,,,,,,,,,,,,,D 0.35,L 0.4,,,,,,,,,,,,,,,,,,,,,,,,,,,,,,,,Not Out (0),Not Out (0),,,,,,,
101.750,,,,,,,,,,,,,,,D 0.35,,,,,,,,,,,,,,,,,,,,,,,,,,,,,,,,,,,,,,,,,
102.000,,,,,,,,,,,G - Gnd (7),0,33.3,,D 0.35,L 0.4,264,,,E024 57.82,130.4,137.5,368,379,60327,,0.00,,,515,548,0.000,0.000,20.3,20.0,61.1,61.1,-2.8,-2.8,N/CLSD (1),N/CLSD (1),Gear down - ground (3),Gnd (1),1.5,10.0,Normal (0),Normal (0),Not Out (0),Not Out (0), 0.0, 0.0, 0.0, 0.0, 0.0, 0.0,
102.250,,,,,,,,,,,,,,,D 0.35,,,,,,,,,,,,,,,,,,,,,,,,,,,,,,,,,,,,,,,,,
102.500,,,,,,,,,,,,,,,D 0.35,L 0.4,,,,,,,,,,,,,,,,,,,,,,,,,,,,,,,,Not Out (0),Not Out (0),,,,,,,
102.750,,,,,,,,,,,,,,,D 0.35,,,,,,,,,,,,,,,,,,,,,,,,,,,,,,,,,,,,,,,,,
103.000,,,,,,,,,12,29,G - Gnd (7),0,30.4,,D 0.35,L 0.4,264,,,,130.4,137.5,370,381,,27.5,,,,515,547,0.000,0.000,20.3,20.1,61.1,61.1,-2.8,-2.8,,,Gear down - ground (3),Gnd (1),,,Normal (0),Normal (0),Not Out (0),Not Out (0), 0.0, 0.0, 0.0, 0.0, 0.0, 0.0,
103.250,,,,,,,,,,,,,,,D 0.35,,,,,,,,,,,,,,,,,,,,,,,,,,,,,,,,,,,,,,,,,
103.500,,,,,,,,,,,,,,,D 0.35,L 0.4,,,,,,,,,,,,,,,,,,,,,,,,,,,,,,,,Not Out (0),Not Out (0),,,,,,,
103.750,,,,,,,,,,,,,,,D 0.35,,,,,,,,,,,,,,,,,,,,,,,,,,,,,,,,,,,,,,,,,
104.000,,A319 (5),,EFHK,FIN5KK  ,16,,10,,,G - Gnd (7),0,36.0,0.05,D 0.35,L 0.4,264,,N60 05.06,,130.4,137.5,370,383,,,,39.4,4,514,546,0.000,0.000,20.4,20.3,61.1,61.1,-2.8,-2.8,N/CLSD (1),N/CLSD (1),Gear down - ground (3),Gnd (1),1.5,10.0,Normal (0),Normal (0),Not Out (0),Not Out (0), 0.0, 0.0, 0.0, 0.0, 0.0, 0.0,NOTCMD (0)
104.250,,,,,,,,,,,,,,,D 0.35,,,,,,,,,,,,,,,,,,,,,,,,,,,,,,,,,,,,,,,,,
104.500,,,,,,,,,,,,,,,D 0.35,L 0.4,,,,,,,,,,,,,,,,,,,,,,,,,,,,,,,,Not Out (0),Not Out (0),,,,,,,
104.750,,,,,,,,,,,,,,,D 0.35,,,,,,,,,,,,,,,,,,,,,,,,,,,,,,,,,,,,,,,,,
105.000,.OH-LVL,,EFOU,,,,6,,,,G - Gnd (7),0,35.4,,D 0.35,L 0.4,264,1009,,,130.4,137.5,372,379,,27.5,,,,514,546,0.000,0.000,20.4,20.4,61.1,61.1,-2.8,-2.8,,,Gear down - ground (3),Gnd (1),,,Normal (0),Normal (0),Not Out (0),Not Out (0), 0.0, 0.0, 0.0, 0.0, 0.0, 0.0,
105.250,,,,,,,,,,,,,,,D 0.35,,,,,,,,,,,,,,,,,,,,,,,,,,,,,,,,,,,,,,,,,
105.500,,,,,,,,,,,,,,,D 0.35,L 0.4,,,,,,,,,,,,,,,,,,,,,,,,,,,,,,,,Not Out (0),Not Out (0),,,,,,,
105.750,,,,,,,,,,,,,,,D 0.35,,,,,,,,,,,,,,,,,,,,,,,,,,,,,,,,,,,,,,,,,
106.000,,,,,,,,,,,G - Gnd (7),0,33.3,,D 0.35,L 0.4,264,,,E024 57.82,130.4,137.5,368,383,60327,,0.00,,,514,545,0.000,0.000,20.4,20.4,61.0,61.1,-2.8,-2.8,N/CLSD (1),N/CLSD (1),Gear down - ground (3),Gnd (1),1.5,10.0,Normal (0),Normal (0),Not Out (0),Not Out (0), 0.0, 0.0, 0.0, 0.0, 0.0, 0.0,
106.250,,,,,,,,,,,,,,,D 0.35,,,,,,,,,,,,,,,,,,,,,,,,,,,,,,,,,,,,,,,,,
106.500,,,,,,,,,,,,,,,D 0.35,L 0.4,,,,,,,,,,,,,,,,,,,,,,,,,,,,,,,,Not Out (0),Not Out (0),,,,,,,
106.750,,,,,,,,,,,,,,,D 0.35,,,,,,,,,,,,,,,,,,,,,,,,,,,,,,,,,,,,,,,,,
107.000,,,,,,,,,12,33,G - Gnd (7),0,30.4,,D 0.35,L 0.4,264,,,,130.4,137.5,372,379,,27.5,,,,514,545,0.000,0.000,20.4,20.4,61.1,61.1,-2.8,-2.8,,,Gear down - ground (3),Gnd (1),,,Normal (0),Normal (0),Not Out (0),Not Out (0), 0.0, 0.0, 0.0, 0.0, 0.0, 0.0,
107.250,,,,,,,,,,,,,,,D 0.35,,,,,,,,,,,,,,,,,,,,,,,,,,,,,,,,,,,,,,,,,
107.500,,,,,,,,,,,,,,,D 0.35,L 0.4,,,,,,,,,,,,,,,,,,,,,,,,,,,,,,,,Not Out (0),Not Out (0),,,,,,,
107.750,,,,,,,,,,,,,,,D 0.35,,,,,,,,,,,,,,,,,,,,,,,,,,,,,,,,,,,,,,,,,
108.000,,A319 (5),,EFHK,FIN5KK  ,16,,10,,,G - Gnd (7),0,36.0,0.05,D 0.35,L 0.4,264,,N60 05.06,,130.4,137.5,370,377,,,,39.4,4,514,544,0.000,0.000,20.4,20.4,61.0,61.1,-2.8,-2.8,N/CLSD (1),N/CLSD (1),Gear down - ground (3),Gnd (1),1.5,10.0,Normal (0),Normal (0),Not Out (0),Not Out (0), 0.0, 0.0, 0.0, 0.0, 0.0, 0.0,NOTCMD (0)
108.250,,,,,,,,,,,,,,,D 0.35,,,,,,,,,,,,,,,,,,,,,,,,,,,,,,,,,,,,,,,,,
108.500,,,,,,,,,,,,,,,D 0.35,L 0.4,,,,,,,,,,,,,,,,,,,,,,,,,,,,,,,,Not Out (0),Not Out (0),,,,,,,
108.750,,,,,,,,,,,,,,,D 0.35,,,,,,,,,,,,,,,,,,,,,,,,,,,,,,,,,,,,,,,,,
109.000,.OH-LVL,,EFOU,,,,6,,,,G - Gnd (7),0,35.4,,D 0.35,L 0.4,264,1009,,,130.4,137.5,372,385,,27.5,,,,514,544,0.000,0.000,20.4,20.5,61.1,61.1,-2.8,-2.8,,,Gear down - ground (3),Gnd (1),,,Normal (0),Normal (0),Not Out (0),Not Out (0), 0.0, 0.0, 0.0, 0.0, 0.0, 0.0,
109.250,,,,,,,,,,,,,,,D 0.35,,,,,,,,,,,,,,,,,,,,,,,,,,,,,,,,,,,,,,,,,
109.500,,,,,,,,,,,,,,,D 0.35,L 0.4,,,,,,,,,,,,,,,,,,,,,,,,,,,,,,,,Not Out (0),Not Out (0),,,,,,,
109.750,,,,,,,,,,,,,,,D 0.35,,,,,,,,,,,,,,,,,,,,,,,,,,,,,,,,,,,,,,,,,
110.000,,,,,,,,,,,G - Gnd (7),0,33.3,,D 0.35,L 0.4,264,,,E024 57.82,130.4,137.5,370,383,60327,,0.00,,,514,544,0.000,0.000,20.5,20.5,61.1,61.1,-2.8,-2.8,N/CLSD (1),N/CLSD (1),Gear down - ground (3),Gnd (1),1.5,10.0,Normal (0),Normal (0),Not Out (0),Not Out (0), 0.0, 0.0, 0.0, 0.0, 0.0, 0.0,
110.250,,,,,,,,,,,,,,,D 0.35,,,,,,,,,,,,,,,,,,,,,,,,,,,,,,,,,,,,,,,,,
110.500,,,,,,,,,,,,,,,D 0.35,L 0.4,,,,,,,,,,,,,,,,,,,,,,,,,,,,,,,,Not Out (0),Not Out (0),,,,,,,
110.750,,,,,,,,,,,,,,,D 0.35,,,,,,,,,,,,,,,,,,,,,,,,,,,,,,,,,,,,,,,,,
111.000,,,,,,,,,12,37,G - Gnd (7),0,30.4,,D 0.35,L 0.4,264,,,,130.4,137.5,370,383,,27.5,,,,514,544,0.000,0.000,20.5,20.5,61.0,61.1,-2.8,-2.8,,,Gear down - ground (3),Gnd (1),,,Normal (0),Normal (0),Not Out (0),Not Out (0), 0.0, 0.0, 0.0, 0.0, 0.0, 0.0,
111.250,,,,,,,,,,,,,,,D 0.35,,,,,,,,,,,,,,,,,,,,,,,,,,,,,,,,,,,,,,,,,
111.500,,,,,,,,,,,,,,,D 0.35,L 0.4,,,,,,,,,,,,,,,,,,,,,,,,,,,,,,,,Not Out (0),Not Out (0),,,,,,,
111.750,,,,,,,,,,,,,,,D 0.35,,,,,,,,,,,,,,,,,,,,,,,,,,,,,,,,,,,,,,,,,
