Time (secs),A/C Tail Number,A/C Type,City Pair - To,City Pair - From,Flight Number,Date - Day,Date - Month,UTC - Hour,UTC - Minute,UTC - Second,Air / Gnd,Ground Speed,Computed Airspeed,Mach (derived),Pitch Angle,Roll Angle,Altitude (1013.25mB),Selected Baro Setting Capt,Present Pos - Latitude,Present Pos - Longitude,Magnetic Heading,True Heading,Fuel Flow Eng 1,Fuel Flow Eng 2,Actual Gross Weight,Total Air Temp,Drift Angle,Wind Direction True,Wind Speed,EGT Eng 1,EGT Eng 2,_EPR Actual Eng 1,_EPR Actual Eng 2,N1 Actual Eng 1,N1 Actual Eng 2,N2 Actual Eng 1,N2 Actual Eng 2,Throttle Angle Eng 1,Throttle Angle Eng 2,Pack 1 Flow Ctl Valve,Pack 2 Flow Ctl Valve,Gear (left),Land Gear Squat Switch - Nose,Flap Handle (derived),Flap Angle,Reverser Deployed Eng 1,Reverser Deployed Eng 2,Left Spoiler 1 Out,Right Spoiler 1 Out,Spoiler Pos LH 2,Spoiler Pos LH 4,Spoiler Pos LH 5,Spoiler Pos RH 2,Spoiler Pos RH 3,Spoiler Pos RH 5,Speed Brake Command
0.000,,*A319 (5),,*EFHK,*FIN63G  ,*16,,*14,,,*G - Gnd (7),*1,*0.0,*0.00,*U 0.35,* 0.0,*268,,*N60 05.02,,*35.2,*42.2,*0,*337,,,,*1.4,*63,*111,*479,*0.000,*0.000,*0.0,*19.0,*0.0,*59.9,*-2.8,*-2.8,*F/CLSD (0),*F/CLSD (0),*Gear down - ground (3),*Gnd (1),*0.0,*0.0,*Normal (0),*Normal (0),*Not Out (0),*Not Out (0),* 0.0,* 0.0,* 0.0,* 0.0,* 0.0,* 0.0,*NOTCMD (0)
0.250,,,,,,,,,,,,,,,*U 0.35,,,,,,,,,,,,,,,,,,,,,,,,,,,,,,,,,,,,,,,,,
0.500,,,,,,,,,,,,,,,*U 0.70,* 0.0,,,,,,,,,,,,,,,,,,,,,,,,,,,,,,,,*Not Out (0),*Not Out (0),,,,,,,
0.750,,,,,,,,,,,,,,,*U 0.70,,,,,,,,,,,,,,,,,,,,,,,,,,,,,,,,,,,,,,,,,
1.000,*.OH-LVL,,*EDDT,,,,*6,,,,*G - Gnd (7),*1,*0.0,,*U 0.70,* 0.0,*268,*1009,,,*38.7,*45.6,*0,*327,,*18.3,,,,*111,*477,*0.000,*0.000,*0.0,*18.9,*0.0,*59.6,*-2.8,*-2.8,,,*Gear down - ground (3),*Gnd (1),,,*Normal (0),*Normal (0),*Not Out (0),*Not Out (0),* 0.0,* 0.0,* 0.0,* 0.0,* 0.0,* 0.0,
1.250,,,,,,,,,,,,,,,*U 0.70,,,,,,,,,,,,,,,,,,,,,,,,,,,,,,,,,,,,,,,,,
1.500,,,,,,,,,,,,,,,*U 0.70,* 0.0,,,,,,,,,,,,,,,,,,,,,,,,,,,,,,,,*Not Out (0),*Not Out (0),,,,,,,
1.750,,,,,,,,,,,,,,,*U 0.70,,,,,,,,,,,,,,,,,,,,,,,,,,,,,,,,,,,,,,,,,
2.000,,,,,,,,,,,*G - Gnd (7),*1,*0.0,,*U 0.70,* 0.0,*268,,,*E024 57.82,*41.8,*48.7,*0,*327,*56544,,*0.00,,,*111,*475,*0.000,*0.000,*0.0,*18.8,*0.0,*59.5,*-2.8,*-2.8,*F/CLSD (0),*F/CLSD (0),*Gear down - ground (3),*Gnd (1),*0.0,*0.0,*Normal (0),*Normal (0),*Not Out (0),*Not Out (0),* 0.0,* 0.0,* 0.0,* 0.0,* 0.0,* 0.0,
2.250,,,,,,,,,,,,,,,*U 0.70,,,,,,,,,,,,,,,,,,,,,,,,,,,,,,,,,,,,,,,,,
2.500,,,,,,,,,,,,,,,*U 0.70,* 0.0,,,,,,,,,,,,,,,,,,,,,,,,,,,,,,,,*Not Out (0),*Not Out (0),,,,,,,
2.750,,,,,,,,,,,,,,,*U 0.70,,,,,,,,,,,,,,,,,,,,,,,,,,,,,,,,,,,,,,,,,
3.000,,,,,,,,,*7,*10,*G - Gnd (7),*1,*0.0,,*U 0.70,* 0.0,*268,,,,*44.3,*51.2,*0,*332,,*18.3,,,,*111,*475,*0.000,*0.000,*0.0,*18.8,*0.3,*59.5,*-2.8,*-2.8,,,*Gear down - ground (3),*Gnd (1),,,*Normal (0),*Normal (0),*Not Out (0),*Not Out (0),* 0.0,* 0.0,* 0.0,* 0.0,* 0.0,* 0.0,
3.250,,,,,,,,,,,,,,,*U 0.70,,,,,,,,,,,,,,,,,,,,,,,,,,,,,,,,,,,,,,,,,
3.500,,,,,,,,,,,,,,,*U 0.70,* 0.0,,,,,,,,,,,,,,,,,,,,,,,,,,,,,,,,*Not Out (0),*Not Out (0),,,,,,,
3.750,,,,,,,,,,,,,,,*U 0.70,,,,,,,,,,,,,,,,,,,,,,,,,,,,,,,,,,,,,,,,,
4.000,,*A319 (5),,*EFHK,*FIN63G  ,*16,,*14,,,*G - Gnd (7),*1,*0.0,*0.00,*U 0.35,* 0.0,*268,,*N60 05.02,,*35.2,*42.2,*0,*337,,,,*1.4,*63,*111,*479,*0.000,*0.000,*0.0,*19.0,*0.0,*59.9,*-2.8,*-2.8,*F/CLSD (0),*F/CLSD (0),*Gear down - ground (3),*Gnd (1),*0.0,*0.0,*Normal (0),*Normal (0),*Not Out (0),*Not Out (0),* 0.0,* 0.0,* 0.0,* 0.0,* 0.0,* 0.0,*NOTCMD (0)
4.250,,,,,,,,,,,,,,,*U 0.35,,,,,,,,,,,,,,,,,,,,,,,,,,,,,,,,,,,,,,,,,
4.500,,,,,,,,,,,,,,,*U 0.70,* 0.0,,,,,,,,,,,,,,,,,,,,,,,,,,,,,,,,*Not Out (0),*Not Out (0),,,,,,,
4.750,,,,,,,,,,,,,,,*U 0.70,,,,,,,,,,,,,,,,,,,,,,,,,,,,,,,,,,,,,,,,,
5.000,*.OH-LVL,,*EDDT,,,,*6,,,,*G - Gnd (7),*1,*0.0,,*U 0.70,* 0.0,*268,*1009,,,*38.7,*45.6,*0,*327,,*18.3,,,,*111,*477,*0.000,*0.000,*0.0,*18.9,*0.0,*59.6,*-2.8,*-2.8,,,*Gear down - ground (3),*Gnd (1),,,*Normal (0),*Normal (0),*Not Out (0),*Not Out (0),* 0.0,* 0.0,* 0.0,* 0.0,* 0.0,* 0.0,
5.250,,,,,,,,,,,,,,,*U 0.70,,,,,,,,,,,,,,,,,,,,,,,,,,,,,,,,,,,,,,,,,
5.500,,,,,,,,,,,,,,,*U 0.70,* 0.0,,,,,,,,,,,,,,,,,,,,,,,,,,,,,,,,*Not Out (0),*Not Out (0),,,,,,,
5.750,,,,,,,,,,,,,,,*U 0.70,,,,,,,,,,,,,,,,,,,,,,,,,,,,,,,,,,,,,,,,,
6.000,,,,,,,,,,,*G - Gnd (7),*1,*0.0,,*U 0.70,* 0.0,*268,,,*E024 57.82,*41.8,*48.7,*0,*327,*56544,,*0.00,,,*111,*475,*0.000,*0.000,*0.0,*18.8,*0.0,*59.5,*-2.8,*-2.8,*F/CLSD (0),*F/CLSD (0),*Gear down - ground (3),*Gnd (1),*0.0,*0.0,*Normal (0),*Normal (0),*Not Out (0),*Not Out (0),* 0.0,* 0.0,* 0.0,* 0.0,* 0.0,* 0.0,
6.250,,,,,,,,,,,,,,,*U 0.70,,,,,,,,,,,,,,,,,,,,,,,,,,,,,,,,,,,,,,,,,
6.500,,,,,,,,,,,,,,,*U 0.70,* 0.0,,,,,,,,,,,,,,,,,,,,,,,,,,,,,,,,*Not Out (0),*Not Out (0),,,,,,,
6.750,,,,,,,,,,,,,,,*U 0.70,,,,,,,,,,,,,,,,,,,,,,,,,,,,,,,,,,,,,,,,,
7.000,,,,,,,,,*7,*10,*G - Gnd (7),*1,*0.0,,*U 0.70,* 0.0,*268,,,,*44.3,*51.2,*0,*332,,*18.3,,,,*111,*475,*0.000,*0.000,*0.0,*18.8,*0.3,*59.5,*-2.8,*-2.8,,,*Gear down - ground (3),*Gnd (1),,,*Normal (0),*Normal (0),*Not Out (0),*Not Out (0),* 0.0,* 0.0,* 0.0,* 0.0,* 0.0,* 0.0,
7.250,,,,,,,,,,,,,,,*U 0.70,,,,,,,,,,,,,,,,,,,,,,,,,,,,,,,,,,,,,,,,,
7.500,,,,,,,,,,,,,,,*U 0.70,* 0.0,,,,,,,,,,,,,,,,,,,,,,,,,,,,,,,,*Not Out (0),*Not Out (0),,,,,,,
7.750,,,,,,,,,,,,,,,*U 0.70,,,,,,,,,,,,,,,,,,,,,,,,,,,,,,,,,,,,,,,,,
8.000,,*A319 (5),,*EFHK,*FIN63G  ,*16,,*14,,,*G - Gnd (7),*1,*0.0,*0.00,*U 0.35,* 0.0,*268,,*N60 05.02,,*35.2,*42.2,*0,*337,,,,*1.4,*63,*111,*479,*0.000,*0.000,*0.0,*19.0,*0.0,*59.9,*-2.8,*-2.8,*F/CLSD (0),*F/CLSD (0),*Gear down - ground (3),*Gnd (1),*0.0,*0.0,*Normal (0),*Normal (0),*Not Out (0),*Not Out (0),* 0.0,* 0.0,* 0.0,* 0.0,* 0.0,* 0.0,*NOTCMD (0)
8.250,,,,,,,,,,,,,,,*U 0.35,,,,,,,,,,,,,,,,,,,,,,,,,,,,,,,,,,,,,,,,,
8.500,,,,,,,,,,,,,,,*U 0.70,* 0.0,,,,,,,,,,,,,,,,,,,,,,,,,,,,,,,,*Not Out (0),*Not Out (0),,,,,,,
8.750,,,,,,,,,,,,,,,*U 0.70,,,,,,,,,,,,,,,,,,,,,,,,,,,,,,,,,,,,,,,,,
9.000,*.OH-LVL,,*EDDT,,,,*6,,,,*G - Gnd (7),*1,*0.0,,*U 0.70,* 0.0,*268,*1009,,,*38.7,*45.6,*0,*327,,*18.3,,,,*111,*477,*0.000,*0.000,*0.0,*18.9,*0.0,*59.6,*-2.8,*-2.8,,,*Gear down - ground (3),*Gnd (1),,,*Normal (0),*Normal (0),*Not Out (0),*Not Out (0),* 0.0,* 0.0,* 0.0,* 0.0,* 0.0,* 0.0,
9.250,,,,,,,,,,,,,,,*U 0.70,,,,,,,,,,,,,,,,,,,,,,,,,,,,,,,,,,,,,,,,,
9.500,,,,,,,,,,,,,,,*U 0.70,* 0.0,,,,,,,,,,,,,,,,,,,,,,,,,,,,,,,,*Not Out (0),*Not Out (0),,,,,,,
9.750,,,,,,,,,,,,,,,*U 0.70,,,,,,,,,,,,,,,,,,,,,,,,,,,,,,,,,,,,,,,,,
10.000,,,,,,,,,,,*G - Gnd (7),*1,*0.0,,*U 0.70,* 0.0,*268,,,*E024 57.82,*41.8,*48.7,*0,*327,*56544,,*0.00,,,*111,*475,*0.000,*0.000,*0.0,*18.8,*0.0,*59.5,*-2.8,*-2.8,*F/CLSD (0),*F/CLSD (0),*Gear down - ground (3),*Gnd (1),*0.0,*0.0,*Normal (0),*Normal (0),*Not Out (0),*Not Out (0),* 0.0,* 0.0,* 0.0,* 0.0,* 0.0,* 0.0,
10.250,,,,,,,,,,,,,,,*U 0.70,,,,,,,,,,,,,,,,,,,,,,,,,,,,,,,,,,,,,,,,,
10.500,,,,,,,,,,,,,,,*U 0.70,* 0.0,,,,,,,,,,,,,,,,,,,,,,,,,,,,,,,,*Not Out (0),*Not Out (0),,,,,,,
10.750,,,,,,,,,,,,,,,*U 0.70,,,,,,,,,,,,,,,,,,,,,,,,,,,,,,,,,,,,,,,,,
11.000,,,,,,,,,*7,*10,*G - Gnd (7),*1,*0.0,,*U 0.70,* 0.0,*268,,,,*44.3,*51.2,*0,*332,,*18.3,,,,*111,*475,*0.000,*0.000,*0.0,*18.8,*0.3,*59.5,*-2.8,*-2.8,,,*Gear down - ground (3),*Gnd (1),,,*Normal (0),*Normal (0),*Not Out (0),*Not Out (0),* 0.0,* 0.0,* 0.0,* 0.0,* 0.0,* 0.0,
11.250,,,,,,,,,,,,,,,*U 0.70,,,,,,,,,,,,,,,,,,,,,,,,,,,,,,,,,,,,,,,,,
11.500,,,,,,,,,,,,,,,*U 0.70,* 0.0,,,,,,,,,,,,,,,,,,,,,,,,,,,,,,,,*Not Out (0),*Not Out (0),,,,,,,
11.750,,,,,,,,,,,,,,,*U 0.70,,,,,,,,,,,,,,,,,,,,,,,,,,,,,,,,,,,,,,,,,
12.000,,*A319 (5),,*EFHK,*FIN63G  ,*16,,*14,,,*G - Gnd (7),*1,*0.0,*0.00,*U 0.35,* 0.0,*268,,*N60 05.02,,*35.2,*42.2,*0,*337,,,,*1.4,*63,*111,*479,*0.000,*0.000,*0.0,*19.0,*0.0,*59.9,*-2.8,*-2.8,*F/CLSD (0),*F/CLSD (0),*Gear down - ground (3),*Gnd (1),*0.0,*0.0,*Normal (0),*Normal (0),*Not Out (0),*Not Out (0),* 0.0,* 0.0,* 0.0,* 0.0,* 0.0,* 0.0,*NOTCMD (0)
12.250,,,,,,,,,,,,,,,*U 0.35,,,,,,,,,,,,,,,,,,,,,,,,,,,,,,,,,,,,,,,,,
12.500,,,,,,,,,,,,,,,*U 0.70,* 0.0,,,,,,,,,,,,,,,,,,,,,,,,,,,,,,,,*Not Out (0),*Not Out (0),,,,,,,
12.750,,,,,,,,,,,,,,,*U 0.70,,,,,,,,,,,,,,,,,,,,,,,,,,,,,,,,,,,,,,,,,
13.000,*.OH-LVL,,*EDDT,,,,*6,,,,*G - Gnd (7),*1,*0.0,,*U 0.70,* 0.0,*268,*1009,,,*38.7,*45.6,*0,*327,,*18.3,,,,*111,*477,*0.000,*0.000,*0.0,*18.9,*0.0,*59.6,*-2.8,*-2.8,,,*Gear down - ground (3),*Gnd (1),,,*Normal (0),*Normal (0),*Not Out (0),*Not Out (0),* 0.0,* 0.0,* 0.0,* 0.0,* 0.0,* 0.0,
13.250,,,,,,,,,,,,,,,*U 0.70,,,,,,,,,,,,,,,,,,,,,,,,,,,,,,,,,,,,,,,,,
13.500,,,,,,,,,,,,,,,*U 0.70,* 0.0,,,,,,,,,,,,,,,,,,,,,,,,,,,,,,,,*Not Out (0),*Not Out (0),,,,,,,
13.750,,,,,,,,,,,,,,,*U 0.70,,,,,,,,,,,,,,,,,,,,,,,,,,,,,,,,,,,,,,,,,
14.000,,,,,,,,,,,*G - Gnd (7),*1,*0.0,,*U 0.70,* 0.0,*268,,,*E024 57.82,*41.8,*48.7,*0,*327,*56544,,*0.00,,,*111,*475,*0.000,*0.000,*0.0,*18.8,*0.0,*59.5,*-2.8,*-2.8,*F/CLSD (0),*F/CLSD (0),*Gear down - ground (3),*Gnd (1),*0.0,*0.0,*Normal (0),*Normal (0),*Not Out (0),*Not Out (0),* 0.0,* 0.0,* 0.0,* 0.0,* 0.0,* 0.0,
14.250,,,,,,,,,,,,,,,*U 0.70,,,,,,,,,,,,,,,,,,,,,,,,,,,,,,,,,,,,,,,,,
14.500,,,,,,,,,,,,,,,*U 0.70,* 0.0,,,,,,,,,,,,,,,,,,,,,,,,,,,,,,,,*Not Out (0),*Not Out (0),,,,,,,
14.750,,,,,,,,,,,,,,,*U 0.70,,,,,,,,,,,,,,,,,,,,,,,,,,,,,,,,,,,,,,,,,
15.000,,,,,,,,,*7,*10,*G - Gnd (7),*1,*0.0,,*U 0.70,* 0.0,*268,,,,*44.3,*51.2,*0,*332,,*18.3,,,,*111,*475,*0.000,*0.000,*0.0,*18.8,*0.3,*59.5,*-2.8,*-2.8,,,*Gear down - ground (3),*Gnd (1),,,*Normal (0),*Normal (0),*Not Out (0),*Not Out (0),* 0.0,* 0.0,* 0.0,* 0.0,* 0.0,* 0.0,
15.250,,,,,,,,,,,,,,,*U 0.70,,,,,,,,,,,,,,,,,,,,,,,,,,,,,,,,,,,,,,,,,
15.500,,,,,,,,,,,,,,,*U 0.70,* 0.0,,,,,,,,,,,,,,,,,,,,,,,,,,,,,,,,*Not Out (0),*Not Out (0),,,,,,,
15.750,,,,,,,,,,,,,,,*U 0.70,,,,,,,,,,,,,,,,,,,,,,,,,,,,,,,,,,,,,,,,,
16.000,,*A319 (5),,*EFHK,*FIN63G  ,*16,,*14,,,*G - Gnd (7),*1,*0.0,*0.00,*U 0.35,* 0.0,*268,,*N60 05.02,,*35.2,*42.2,*0,*337,,,,*1.4,*63,*111,*479,*0.000,*0.000,*0.0,*19.0,*0.0,*59.9,*-2.8,*-2.8,*F/CLSD (0),*F/CLSD (0),*Gear down - ground (3),*Gnd (1),*0.0,*0.0,*Normal (0),*Normal (0),*Not Out (0),*Not Out (0),* 0.0,* 0.0,* 0.0,* 0.0,* 0.0,* 0.0,*NOTCMD (0)
16.250,,,,,,,,,,,,,,,*U 0.35,,,,,,,,,,,,,,,,,,,,,,,,,,,,,,,,,,,,,,,,,
16.500,,,,,,,,,,,,,,,*U 0.70,* 0.0,,,,,,,,,,,,,,,,,,,,,,,,,,,,,,,,*Not Out (0),*Not Out (0),,,,,,,
16.750,,,,,,,,,,,,,,,*U 0.70,,,,,,,,,,,,,,,,,,,,,,,,,,,,,,,,,,,,,,,,,
17.000,*.OH-LVL,,*EDDT,,,,*6,,,,*G - Gnd (7),*1,*0.0,,*U 0.70,* 0.0,*268,*1009,,,*38.7,*45.6,*0,*327,,*18.3,,,,*111,*477,*0.000,*0.000,*0.0,*18.9,*0.0,*59.6,*-2.8,*-2.8,,,*Gear down - ground (3),*Gnd (1),,,*Normal (0),*Normal (0),*Not Out (0),*Not Out (0),* 0.0,* 0.0,* 0.0,* 0.0,* 0.0,* 0.0,
17.250,,,,,,,,,,,,,,,*U 0.70,,,,,,,,,,,,,,,,,,,,,,,,,,,,,,,,,,,,,,,,,
17.500,,,,,,,,,,,,,,,*U 0.70,* 0.0,,,,,,,,,,,,,,,,,,,,,,,,,,,,,,,,*Not Out (0),*Not Out (0),,,,,,,
17.750,,,,,,,,,,,,,,,*U 0.70,,,,,,,,,,,,,,,,,,,,,,,,,,,,,,,,,,,,,,,,,
18.000,,,,,,,,,,,*G - Gnd (7),*1,*0.0,,*U 0.70,* 0.0,*268,,,*E024 57.82,*41.8,*48.7,*0,*327,*56544,,*0.00,,,*111,*475,*0.000,*0.000,*0.0,*18.8,*0.0,*59.5,*-2.8,*-2.8,*F/CLSD (0),*F/CLSD (0),*Gear down - ground (3),*Gnd (1),*0.0,*0.0,*Normal (0),*Normal (0),*Not Out (0),*Not Out (0),* 0.0,* 0.0,* 0.0,* 0.0,* 0.0,* 0.0,
18.250,,,,,,,,,,,,,,,*U 0.70,,,,,,,,,,,,,,,,,,,,,,,,,,,,,,,,,,,,,,,,,
18.500,,,,,,,,,,,,,,,*U 0.70,* 0.0,,,,,,,,,,,,,,,,,,,,,,,,,,,,,,,,*Not Out (0),*Not Out (0),,,,,,,
18.750,,,,,,,,,,,,,,,*U 0.70,,,,,,,,,,,,,,,,,,,,,,,,,,,,,,,,,,,,,,,,,
19.000,,,,,,,,,*7,*10,*G - Gnd (7),*1,*0.0,,*U 0.70,* 0.0,*268,,,,*44.3,*51.2,*0,*332,,*18.3,,,,*111,*475,*0.000,*0.000,*0.0,*18.8,*0.3,*59.5,*-2.8,*-2.8,,,*Gear down - ground (3),*Gnd (1),,,*Normal (0),*Normal (0),*Not Out (0),*Not Out (0),* 0.0,* 0.0,* 0.0,* 0.0,* 0.0,* 0.0,
19.250,,,,,,,,,,,,,,,*U 0.70,,,,,,,,,,,,,,,,,,,,,,,,,,,,,,,,,,,,,,,,,
19.500,,,,,,,,,,,,,,,*U 0.70,* 0.0,,,,,,,,,,,,,,,,,,,,,,,,,,,,,,,,*Not Out (0),*Not Out (0),,,,,,,
19.750,,,,,,,,,,,,,,,*U 0.70,,,,,,,,,,,,,,,,,,,,,,,,,,,,,,,,,,,,,,,,,
20.000,,*A319 (5),,*EFHK,*FIN63G  ,*16,,*14,,,*G - Gnd (7),*1,*0.0,*0.00,*U 0.35,* 0.0,*268,,*N60 05.02,,*35.2,*42.2,*0,*337,,,,*1.4,*63,*111,*479,*0.000,*0.000,*0.0,*19.0,*0.0,*59.9,*-2.8,*-2.8,*F/CLSD (0),*F/CLSD (0),*Gear down - ground (3),*Gnd (1),*0.0,*0.0,*Normal (0),*Normal (0),*Not Out (0),*Not Out (0),* 0.0,* 0.0,* 0.0,* 0.0,* 0.0,* 0.0,*NOTCMD (0)
20.250,,,,,,,,,,,,,,,*U 0.35,,,,,,,,,,,,,,,,,,,,,,,,,,,,,,,,,,,,,,,,,
20.500,,,,,,,,,,,,,,,*U 0.70,* 0.0,,,,,,,,,,,,,,,,,,,,,,,,,,,,,,,,*Not Out (0),*Not Out (0),,,,,,,
20.750,,,,,,,,,,,,,,,*U 0.70,,,,,,,,,,,,,,,,,,,,,,,,,,,,,,,,,,,,,,,,,
21.000,*.OH-LVL,,*EDDT,,,,*6,,,,*G - Gnd (7),*1,*0.0,,*U 0.70,* 0.0,*268,*1009,,,*38.7,*45.6,*0,*327,,*18.3,,,,*111,*477,*0.000,*0.000,*0.0,*18.9,*0.0,*59.6,*-2.8,*-2.8,,,*Gear down - ground (3),*Gnd (1),,,*Normal (0),*Normal (0),*Not Out (0),*Not Out (0),* 0.0,* 0.0,* 0.0,* 0.0,* 0.0,* 0.0,
21.250,,,,,,,,,,,,,,,*U 0.70,,,,,,,,,,,,,,,,,,,,,,,,,,,,,,,,,,,,,,,,,
21.500,,,,,,,,,,,,,,,*U 0.70,* 0.0,,,,,,,,,,,,,,,,,,,,,,,,,,,,,,,,*Not Out (0),*Not Out (0),,,,,,,
21.750,,,,,,,,,,,,,,,*U 0.70,,,,,,,,,,,,,,,,,,,,,,,,,,,,,,,,,,,,,,,,,
22.000,,,,,,,,,,,*G - Gnd (7),*1,*0.0,,*U 0.70,* 0.0,*268,,,*E024 57.82,*41.8,*48.7,*0,*327,*56544,,*0.00,,,*111,*475,*0.000,*0.000,*0.0,*18.8,*0.0,*59.5,*-2.8,*-2.8,*F/CLSD (0),*F/CLSD (0),*Gear down - ground (3),*Gnd (1),*0.0,*0.0,*Normal (0),*Normal (0),*Not Out (0),*Not Out (0),* 0.0,* 0.0,* 0.0,* 0.0,* 0.0,* 0.0,
22.250,,,,,,,,,,,,,,,*U 0.70,,,,,,,,,,,,,,,,,,,,,,,,,,,,,,,,,,,,,,,,,
22.500,,,,,,,,,,,,,,,*U 0.70,* 0.0,,,,,,,,,,,,,,,,,,,,,,,,,,,,,,,,*Not Out (0),*Not Out (0),,,,,,,
22.750,,,,,,,,,,,,,,,*U 0.70,,,,,,,,,,,,,,,,,,,,,,,,,,,,,,,,,,,,,,,,,
23.000,,,,,,,,,*7,*10,*G - Gnd (7),*1,*0.0,,*U 0.70,* 0.0,*268,,,,*44.3,*51.2,*0,*332,,*18.3,,,,*111,*475,*0.000,*0.000,*0.0,*18.8,*0.3,*59.5,*-2.8,*-2.8,,,*Gear down - ground (3),*Gnd (1),,,*Normal (0),*Normal (0),*Not Out (0),*Not Out (0),* 0.0,* 0.0,* 0.0,* 0.0,* 0.0,* 0.0,
23.250,,,,,,,,,,,,,,,*U 0.70,,,,,,,,,,,,,,,,,,,,,,,,,,,,,,,,,,,,,,,,,
23.500,,,,,,,,,,,,,,,*U 0.70,* 0.0,,,,,,,,,,,,,,,,,,,,,,,,,,,,,,,,*Not Out (0),*Not Out (0),,,,,,,
23.750,,,,,,,,,,,,,,,*U 0.70,,,,,,,,,,,,,,,,,,,,,,,,,,,,,,,,,,,,,,,,,
24.000,,*A319 (5),,*EFHK,*FIN63G  ,*16,,*14,,,*G - Gnd (7),*1,*0.0,*0.00,*U 0.35,* 0.0,*268,,*N60 05.02,,*35.2,*42.2,*0,*337,,,,*1.4,*63,*111,*479,*0.000,*0.000,*0.0,*19.0,*0.0,*59.9,*-2.8,*-2.8,*F/CLSD (0),*F/CLSD (0),*Gear down - ground (3),*Gnd (1),*0.0,*0.0,*Normal (0),*Normal (0),*Not Out (0),*Not Out (0),* 0.0,* 0.0,* 0.0,* 0.0,* 0.0,* 0.0,*NOTCMD (0)
24.250,,,,,,,,,,,,,,,*U 0.35,,,,,,,,,,,,,,,,,,,,,,,,,,,,,,,,,,,,,,,,,
24.500,,,,,,,,,,,,,,,*U 0.70,* 0.0,,,,,,,,,,,,,,,,,,,,,,,,,,,,,,,,*Not Out (0),*Not Out (0),,,,,,,
24.750,,,,,,,,,,,,,,,*U 0.70,,,,,,,,,,,,,,,,,,,,,,,,,,,,,,,,,,,,,,,,,
25.000,*.OH-LVL,,*EDDT,,,,*6,,,,*G - Gnd (7),*1,*0.0,,*U 0.70,* 0.0,*268,*1009,,,*38.7,*45.6,*0,*327,,*18.3,,,,*111,*477,*0.000,*0.000,*0.0,*18.9,*0.0,*59.6,*-2.8,*-2.8,,,*Gear down - ground (3),*Gnd (1),,,*Normal (0),*Normal (0),*Not Out (0),*Not Out (0),* 0.0,* 0.0,* 0.0,* 0.0,* 0.0,* 0.0,
25.250,,,,,,,,,,,,,,,*U 0.70,,,,,,,,,,,,,,,,,,,,,,,,,,,,,,,,,,,,,,,,,
25.500,,,,,,,,,,,,,,,*U 0.70,* 0.0,,,,,,,,,,,,,,,,,,,,,,,,,,,,,,,,*Not Out (0),*Not Out (0),,,,,,,
25.750,,,,,,,,,,,,,,,*U 0.70,,,,,,,,,,,,,,,,,,,,,,,,,,,,,,,,,,,,,,,,,
26.000,,,,,,,,,,,*G - Gnd (7),*1,*0.0,,*U 0.70,* 0.0,*268,,,*E024 57.82,*41.8,*48.7,*0,*327,*56544,,*0.00,,,*111,*475,*0.000,*0.000,*0.0,*18.8,*0.0,*59.5,*-2.8,*-2.8,*F/CLSD (0),*F/CLSD (0),*Gear down - ground (3),*Gnd (1),*0.0,*0.0,*Normal (0),*Normal (0),*Not Out (0),*Not Out (0),* 0.0,* 0.0,* 0.0,* 0.0,* 0.0,* 0.0,
26.250,,,,,,,,,,,,,,,*U 0.70,,,,,,,,,,,,,,,,,,,,,,,,,,,,,,,,,,,,,,,,,
26.500,,,,,,,,,,,,,,,*U 0.70,* 0.0,,,,,,,,,,,,,,,,,,,,,,,,,,,,,,,,*Not Out (0),*Not Out (0),,,,,,,
26.750,,,,,,,,,,,,,,,*U 0.70,,,,,,,,,,,,,,,,,,,,,,,,,,,,,,,,,,,,,,,,,
27.000,,,,,,,,,*7,*10,*G - Gnd (7),*1,*0.0,,*U 0.70,* 0.0,*268,,,,*44.3,*51.2,*0,*332,,*18.3,,,,*111,*475,*0.000,*0.000,*0.0,*18.8,*0.3,*59.5,*-2.8,*-2.8,,,*Gear down - ground (3),*Gnd (1),,,*Normal (0),*Normal (0),*Not Out (0),*Not Out (0),* 0.0,* 0.0,* 0.0,* 0.0,* 0.0,* 0.0,
27.250,,,,,,,,,,,,,,,*U 0.70,,,,,,,,,,,,,,,,,,,,,,,,,,,,,,,,,,,,,,,,,
27.500,,,,,,,,,,,,,,,*U 0.70,* 0.0,,,,,,,,,,,,,,,,,,,,,,,,,,,,,,,,*Not Out (0),*Not Out (0),,,,,,,
27.750,,,,,,,,,,,,,,,*U 0.70,,,,,,,,,,,,,,,,,,,,,,,,,,,,,,,,,,,,,,,,,
28.000,,*A319 (5),,*EFHK,*FIN63G  ,*16,,*14,,,*G - Gnd (7),*1,*0.0,*0.00,*U 0.35,* 0.0,*268,,*N60 05.02,,*35.2,*42.2,*0,*337,,,,*1.4,*63,*111,*479,*0.000,*0.000,*0.0,*19.0,*0.0,*59.9,*-2.8,*-2.8,*F/CLSD (0),*F/CLSD (0),*Gear down - ground (3),*Gnd (1),*0.0,*0.0,*Normal (0),*Normal (0),*Not Out (0),*Not Out (0),* 0.0,* 0.0,* 0.0,* 0.0,* 0.0,* 0.0,*NOTCMD (0)
28.250,,,,,,,,,,,,,,,*U 0.35,,,,,,,,,,,,,,,,,,,,,,,,,,,,,,,,,,,,,,,,,
28.500,,,,,,,,,,,,,,,*U 0.70,* 0.0,,,,,,,,,,,,,,,,,,,,,,,,,,,,,,,,*Not Out (0),*Not Out (0),,,,,,,
28.750,,,,,,,,,,,,,,,*U 0.70,,,,,,,,,,,,,,,,,,,,,,,,,,,,,,,,,,,,,,,,,
29.000,*.OH-LVL,,*EDDT,,,,*6,,,,*G - Gnd (7),*1,*0.0,,*U 0.70,* 0.0,*268,*1009,,,*38.7,*45.6,*0,*327,,*18.3,,,,*111,*477,*0.000,*0.000,*0.0,*18.9,*0.0,*59.6,*-2.8,*-2.8,,,*Gear down - ground (3),*Gnd (1),,,*Normal (0),*Normal (0),*Not Out (0),*Not Out (0),* 0.0,* 0.0,* 0.0,* 0.0,* 0.0,* 0.0,
29.250,,,,,,,,,,,,,,,*U 0.70,,,,,,,,,,,,,,,,,,,,,,,,,,,,,,,,,,,,,,,,,
29.500,,,,,,,,,,,,,,,*U 0.70,* 0.0,,,,,,,,,,,,,,,,,,,,,,,,,,,,,,,,*Not Out (0),*Not Out (0),,,,,,,
29.750,,,,,,,,,,,,,,,*U 0.70,,,,,,,,,,,,,,,,,,,,,,,,,,,,,,,,,,,,,,,,,
30.000,,,,,,,,,,,*G - Gnd (7),*1,*0.0,,*U 0.70,* 0.0,*268,,,*E024 57.82,*41.8,*48.7,*0,*327,*56544,,*0.00,,,*111,*475,*0.000,*0.000,*0.0,*18.8,*0.0,*59.5,*-2.8,*-2.8,*F/CLSD (0),*F/CLSD (0),*Gear down - ground (3),*Gnd (1),*0.0,*0.0,*Normal (0),*Normal (0),*Not Out (0),*Not Out (0),* 0.0,* 0.0,* 0.0,* 0.0,* 0.0,* 0.0,
30.250,,,,,,,,,,,,,,,*U 0.70,,,,,,,,,,,,,,,,,,,,,,,,,,,,,,,,,,,,,,,,,
30.500,,,,,,,,,,,,,,,*U 0.70,* 0.0,,,,,,,,,,,,,,,,,,,,,,,,,,,,,,,,*Not Out (0),*Not Out (0),,,,,,,
30.750,,,,,,,,,,,,,,,*U 0.70,,,,,,,,,,,,,,,,,,,,,,,,,,,,,,,,,,,,,,,,,
31.000,,,,,,,,,*7,*10,*G - Gnd (7),*1,*0.0,,*U 0.70,* 0.0,*268,,,,*44.3,*51.2,*0,*332,,*18.3,,,,*111,*475,*0.000,*0.000,*0.0,*18.8,*0.3,*59.5,*-2.8,*-2.8,,,*Gear down - ground (3),*Gnd (1),,,*Normal (0),*Normal (0),*Not Out (0),*Not Out (0),* 0.0,* 0.0,* 0.0,* 0.0,* 0.0,* 0.0,
31.250,,,,,,,,,,,,,,,*U 0.70,,,,,,,,,,,,,,,,,,,,,,,,,,,,,,,,,,,,,,,,,
31.500,,,,,,,,,,,,,,,*U 0.70,* 0.0,,,,,,,,,,,,,,,,,,,,,,,,,,,,,,,,*Not Out (0),*Not Out (0),,,,,,,
31.750,,,,,,,,,,,,,,,*U 0.70,,,,,,,,,,,,,,,,,,,,,,,,,,,,,,,,,,,,,,,,,
32.000,,*A319 (5),,*EFHK,*FIN63G  ,*16,,*14,,,*G - Gnd (7),*1,*0.0,*0.00,*U 0.35,* 0.0,*268,,*N60 05.02,,*35.2,*42.2,*0,*337,,,,*1.4,*63,*111,*479,*0.000,*0.000,*0.0,*19.0,*0.0,*59.9,*-2.8,*-2.8,*F/CLSD (0),*F/CLSD (0),*Gear down - ground (3),*Gnd (1),*0.0,*0.0,*Normal (0),*Normal (0),*Not Out (0),*Not Out (0),* 0.0,* 0.0,* 0.0,* 0.0,* 0.0,* 0.0,*NOTCMD (0)
32.250,,,,,,,,,,,,,,,*U 0.35,,,,,,,,,,,,,,,,,,,,,,,,,,,,,,,,,,,,,,,,,
32.500,,,,,,,,,,,,,,,*U 0.70,* 0.0,,,,,,,,,,,,,,,,,,,,,,,,,,,,,,,,*Not Out (0),*Not Out (0),,,,,,,
32.750,,,,,,,,,,,,,,,*U 0.70,,,,,,,,,,,,,,,,,,,,,,,,,,,,,,,,,,,,,,,,,
33.000,*.OH-LVL,,*EDDT,,,,*6,,,,*G - Gnd (7),*1,*0.0,,*U 0.70,* 0.0,*268,*1009,,,*38.7,*45.6,*0,*327,,*18.3,,,,*111,*477,*0.000,*0.000,*0.0,*18.9,*0.0,*59.6,*-2.8,*-2.8,,,*Gear down - ground (3),*Gnd (1),,,*Normal (0),*Normal (0),*Not Out (0),*Not Out (0),* 0.0,* 0.0,* 0.0,* 0.0,* 0.0,* 0.0,
33.250,,,,,,,,,,,,,,,*U 0.70,,,,,,,,,,,,,,,,,,,,,,,,,,,,,,,,,,,,,,,,,
33.500,,,,,,,,,,,,,,,*U 0.70,* 0.0,,,,,,,,,,,,,,,,,,,,,,,,,,,,,,,,*Not Out (0),*Not Out (0),,,,,,,
33.750,,,,,,,,,,,,,,,*U 0.70,,,,,,,,,,,,,,,,,,,,,,,,,,,,,,,,,,,,,,,,,
34.000,,,,,,,,,,,*G - Gnd (7),*1,*0.0,,*U 0.70,* 0.0,*268,,,*E024 57.82,*41.8,*48.7,*0,*327,*56544,,*0.00,,,*111,*475,*0.000,*0.000,*0.0,*18.8,*0.0,*59.5,*-2.8,*-2.8,*F/CLSD (0),*F/CLSD (0),*Gear down - ground (3),*Gnd (1),*0.0,*0.0,*Normal (0),*Normal (0),*Not Out (0),*Not Out (0),* 0.0,* 0.0,* 0.0,* 0.0,* 0.0,* 0.0,
34.250,,,,,,,,,,,,,,,*U 0.70,,,,,,,,,,,,,,,,,,,,,,,,,,,,,,,,,,,,,,,,,
34.500,,,,,,,,,,,,,,,*U 0.70,* 0.0,,,,,,,,,,,,,,,,,,,,,,,,,,,,,,,,*Not Out (0),*Not Out (0),,,,,,,
34.750,,,,,,,,,,,,,,,*U 0.70,,,,,,,,,,,,,,,,,,,,,,,,,,,,,,,,,,,,,,,,,
35.000,,,,,,,,,*7,*10,*G - Gnd (7),*1,*0.0,,*U 0.70,* 0.0,*268,,,,*44.3,*51.2,*0,*332,,*18.3,,,,*111,*475,*0.000,*0.000,*0.0,*18.8,*0.3,*59.5,*-2.8,*-2.8,,,*Gear down - ground (3),*Gnd (1),,,*Normal (0),*Normal (0),*Not Out (0),*Not Out (0),* 0.0,* 0.0,* 0.0,* 0.0,* 0.0,* 0.0,
35.250,,,,,,,,,,,,,,,*U 0.70,,,,,,,,,,,,,,,,,,,,,,,,,,,,,,,,,,,,,,,,,
35.500,,,,,,,,,,,,,,,*U 0.70,* 0.0,,,,,,,,,,,,,,,,,,,,,,,,,,,,,,,,*Not Out (0),*Not Out (0),,,,,,,
35.750,,,,,,,,,,,,,,,*U 0.70,,,,,,,,,,,,,,,,,,,,,,,,,,,,,,,,,,,,,,,,,
36.000,,A319 (5),,EFHK,FIN63G  ,16,,14,,,G - Gnd (7),1,0.0,0.00,U 0.35, 0.0,268,,N60 05.02,,35.2,42.2,0,337,,,,1.4,63,111,479,0.000,0.000,0.0,19.0,0.0,59.9,-2.8,-2.8,F/CLSD (0),F/CLSD (0),Gear down - ground (3),Gnd (1),0.0,0.0,Normal (0),Normal (0),Not Out (0),Not Out (0), 0.0, 0.0, 0.0, 0.0, 0.0, 0.0,NOTCMD (0)
36.250,,,,,,,,,,,,,,,U 0.35,,,,,,,,,,,,,,,,,,,,,,,,,,,,,,,,,,,,,,,,,
36.500,,,,,,,,,,,,,,,U 0.70, 0.0,,,,,,,,,,,,,,,,,,,,,,,,,,,,,,,,Not Out (0),Not Out (0),,,,,,,
36.750,,,,,,,,,,,,,,,U 0.70,,,,,,,,,,,,,,,,,,,,,,,,,,,,,,,,,,,,,,,,,
37.000,.OH-LVL,,EDDT,,,,6,,,,G - Gnd (7),1,0.0,,U 0.70, 0.0,268,1009,,,38.7,45.6,0,327,,18.3,,,,111,477,0.000,0.000,0.0,18.9,0.0,59.6,-2.8,-2.8,,,Gear down - ground (3),Gnd (1),,,Normal (0),Normal (0),Not Out (0),Not Out (0), 0.0, 0.0, 0.0, 0.0, 0.0, 0.0,
37.250,,,,,,,,,,,,,,,U 0.70,,,,,,,,,,,,,,,,,,,,,,,,,,,,,,,,,,,,,,,,,
37.500,,,,,,,,,,,,,,,U 0.70, 0.0,,,,,,,,,,,,,,,,,,,,,,,,,,,,,,,,Not Out (0),Not Out (0),,,,,,,
37.750,,,,,,,,,,,,,,,U 0.70,,,,,,,,,,,,,,,,,,,,,,,,,,,,,,,,,,,,,,,,,
38.000,,,,,,,,,,,G - Gnd (7),1,0.0,,U 0.70, 0.0,268,,,E024 57.82,41.8,48.7,0,327,56544,,0.00,,,111,475,0.000,0.000,0.0,18.8,0.0,59.5,-2.8,-2.8,F/CLSD (0),F/CLSD (0),Gear down - ground (3),Gnd (1),0.0,0.0,Normal (0),Normal (0),Not Out (0),Not Out (0), 0.0, 0.0, 0.0, 0.0, 0.0, 0.0,
38.250,,,,,,,,,,,,,,,U 0.70,,,,,,,,,,,,,,,,,,,,,,,,,,,,,,,,,,,,,,,,,
38.500,,,,,,,,,,,,,,,U 0.70, 0.0,,,,,,,,,,,,,,,,,,,,,,,,,,,,,,,,Not Out (0),Not Out (0),,,,,,,
38.750,,,,,,,,,,,,,,,U 0.70,,,,,,,,,,,,,,,,,,,,,,,,,,,,,,,,,,,,,,,,,
39.000,,,,,,,,,7,10,G - Gnd (7),1,0.0,,U 0.70, 0.0,268,,,,44.3,51.2,0,332,,18.3,,,,111,475,0.000,0.000,0.0,18.8,0.3,59.5,-2.8,-2.8,,,Gear down - ground (3),Gnd (1),,,Normal (0),Normal (0),Not Out (0),Not Out (0), 0.0, 0.0, 0.0, 0.0, 0.0, 0.0,
39.250,,,,,,,,,,,,,,,U 0.70,,,,,,,,,,,,,,,,,,,,,,,,,,,,,,,,,,,,,,,,,
39.500,,,,,,,,,,,,,,,U 0.70, 0.0,,,,,,,,,,,,,,,,,,,,,,,,,,,,,,,,Not Out (0),Not Out (0),,,,,,,
39.750,,,,,,,,,,,,,,,U 0.70,,,,,,,,,,,,,,,,,,,,,,,,,,,,,,,,,,,,,,,,,
40.000,,A319 (5),,EFHK,FIN63G  ,16,,14,,,G - Gnd (7),1,0.0,0.00,U 0.70, 0.0,268,,N60 04.99,,46.8,53.6,0,334,,,,1.4,63,111,476,0.000,0.000,0.0,18.6,1.8,59.5,-2.8,-2.8,F/CLSD (0),F/CLSD (0),Gear down - ground (3),Gnd (1),0.0,0.0,Normal (0),Normal (0),Not Out (0),Not Out (0), 0.0, 0.0, 0.0, 0.0, 0.0, 0.0,NOTCMD (0)
40.250,,,,,,,,,,,,,,,U 0.70,,,,,,,,,,,,,,,,,,,,,,,,,,,,,,,,,,,,,,,,,
40.500,,,,,,,,,,,,,,,U 0.70, 0.0,,,,,,,,,,,,,,,,,,,,,,,,,,,,,,,,Not Out (0),Not Out (0),,,,,,,
40.750,,,,,,,,,,,,,,,U 0.70,,,,,,,,,,,,,,,,,,,,,,,,,,,,,,,,,,,,,,,,,
41.000,.OH-LVL,,EDDT,,,,6,,,,G - Gnd (7),1,0.0,,U 0.70, 0.0,268,1009,,,48.5,55.5,0,341,,18.3,,,,111,477,0.000,0.000,0.0,18.6,3.6,59.5,-2.8,-2.8,,,Gear down - ground (3),Gnd (1),,,Normal (0),Normal (0),Not Out (0),Not Out (0), 0.0, 0.0, 0.0, 0.0, 0.0, 0.0,
41.250,,,,,,,,,,,,,,,U 0.70,,,,,,,,,,,,,,,,,,,,,,,,,,,,,,,,,,,,,,,,,
41.500,,,,,,,,,,,,,,,U 0.70, 0.0,,,,,,,,,,,,,,,,,,,,,,,,,,,,,,,,Not Out (0),Not Out (0),,,,,,,
41.750,,,,,,,,,,,,,,,U 0.70,,,,,,,,,,,,,,,,,,,,,,,,,,,,,,,,,,,,,,,,,
42.000,,,,,,,,,,,G - Gnd (7),1,0.0,,U 0.70, 0.0,268,,,E024 57.82,49.9,57.0,0,345,56490,,0.00,,,112,479,0.000,0.000,0.0,18.8,6.0,59.5,-2.8,-2.8,F/CLSD (0),F/CLSD (0),Gear down - ground (3),Gnd (1),0.0,0.0,Normal (0),Normal (0),Not Out (0),Not Out (0), 0.0, 0.0, 0.0, 0.0, 0.0, 0.0,
42.250,,,,,,,,,,,,,,,U 0.70,,,,,,,,,,,,,,,,,,,,,,,,,,,,,,,,,,,,,,,,,
42.500,,,,,,,,,,,,,,,U 0.70, 0.0,,,,,,,,,,,,,,,,,,,,,,,,,,,,,,,,Not Out (0),Not Out (0),,,,,,,
42.750,,,,,,,,,,,,,,,U 0.70,,,,,,,,,,,,,,,,,,,,,,,,,,,,,,,,,,,,,,,,,
43.000,,,,,,,,,7,14,G - Gnd (7),0,0.0,,U 0.70, 0.0,268,,,,51.0,58.1,0,341,,18.3,,,,112,480,0.000,0.000,0.0,18.8,8.4,59.5,-2.8,-2.8,,,Gear down - ground (3),Gnd (1),,,Normal (0),Normal (0),Not Out (0),Not Out (0), 0.0, 0.0, 0.0, 0.0, 0.0, 0.0,
43.250,,,,,,,,,,,,,,,U 0.70,,,,,,,,,,,,,,,,,,,,,,,,,,,,,,,,,,,,,,,,,
43.500,,,,,,,,,,,,,,,U 0.70, 0.0,,,,,,,,,,,,,,,,,,,,,,,,,,,,,,,,Not Out (0),Not Out (0),,,,,,,
43.750,,,,,,,,,,,,,,,U 0.70,,,,,,,,,,,,,,,,,,,,,,,,,,,,,,,,,,,,,,,,,
44.000,,A319 (5),,EFHK,FIN63G  ,16,,14,,,G - Gnd (7),0,0.0,0.00,U 0.70, 0.0,268,,N60 04.99,,51.7,58.7,0,337,,,,1.4,63,112,481,0.000,0.000,0.0,18.8,10.6,59.6,-2.8,-2.8,F/CLSD (0),F/CLSD (0),Gear down - ground (3),Gnd (1),0.0,0.0,Normal (0),Normal (0),Not Out (0),Not Out (0), 0.0, 0.0, 0.0, 0.0, 0.0, 0.0,NOTCMD (0)
44.250,,,,,,,,,,,,,,,U 0.70,,,,,,,,,,,,,,,,,,,,,,,,,,,,,,,,,,,,,,,,,
44.500,,,,,,,,,,,,,,,U 0.70, 0.0,,,,,,,,,,,,,,,,,,,,,,,,,,,,,,,,Not Out (0),Not Out (0),,,,,,,
44.750,,,,,,,,,,,,,,,U 0.70,,,,,,,,,,,,,,,,,,,,,,,,,,,,,,,,,,,,,,,,,
45.000,.OH-LVL,,EDDT,,,,6,,,,G - Gnd (7),0,0.0,,U 0.70, 0.0,268,1009,,,52.0,59.1,0,339,,18.3,,,,112,481,0.000,0.000,0.0,18.6,12.9,59.6,-2.8,-2.8,,,Gear down - ground (3),Gnd (1),,,Normal (0),Normal (0),Not Out (0),Not Out (0), 0.0, 0.0, 0.0, 0.0, 0.0, 0.0,
45.250,,,,,,,,,,,,,,,U 0.70,,,,,,,,,,,,,,,,,,,,,,,,,,,,,,,,,,,,,,,,,
45.500,,,,,,,,,,,,,,,U 0.70, 0.0,,,,,,,,,,,,,,,,,,,,,,,,,,,,,,,,Not Out (0),Not Out (0),,,,,,,
45.750,,,,,,,,,,,,,,,U 0.70,,,,,,,,,,,,,,,,,,,,,,,,,,,,,,,,,,,,,,,,,
46.000,,,,,,,,,,,G - Gnd (7),0,0.0,,U 0.70, 0.0,268,,,E024 57.82,52.0,59.0,0,337,59694,,0.00,,,113,482,0.000,0.000,0.0,18.6,14.9,59.5,-2.8,-2.8,F/CLSD (0),F/CLSD (0),Gear down - ground (3),Gnd (1),0.0,0.0,Normal (0),Normal (0),Not Out (0),Not Out (0), 0.0, 0.0, 0.0, 0.0, 0.0, 0.0,
46.250,,,,,,,,,,,,,,,U 0.70,,,,,,,,,,,,,,,,,,,,,,,,,,,,,,,,,,,,,,,,,
46.500,,,,,,,,,,,,,,,U 0.70, 0.0,,,,,,,,,,,,,,,,,,,,,,,,,,,,,,,,Not Out (0),Not Out (0),,,,,,,
46.750,,,,,,,,,,,,,,,U 0.70,,,,,,,,,,,,,,,,,,,,,,,,,,,,,,,,,,,,,,,,,
47.000,,,,,,,,,7,18,G - Gnd (7),0,0.0,,U 0.70, 0.0,268,,,,52.0,58.9,0,337,,18.3,,,,113,482,0.000,0.000,0.0,18.6,16.8,59.6,-2.8,-2.8,,,Gear down - ground (3),Gnd (1),,,Normal (0),Normal (0),Not Out (0),Not Out (0), 0.0, 0.0, 0.0, 0.0, 0.0, 0.0,
47.250,,,,,,,,,,,,,,,U 0.70,,,,,,,,,,,,,,,,,,,,,,,,,,,,,,,,,,,,,,,,,
47.500,,,,,,,,,,,,,,,U 0.70, 0.0,,,,,,,,,,,,,,,,,,,,,,,,,,,,,,,,Not Out (0),Not Out (0),,,,,,,
47.750,,,,,,,,,,,,,,,U 0.70,,,,,,,,,,,,,,,,,,,,,,,,,,,,,,,,,,,,,,,,,
48.000,,A319 (5),,EFHK,FIN63G  ,16,,14,,,G - Gnd (7),0,0.0,0.00,U 0.70, 0.0,268,,N60 04.99,,51.7,58.7,0,337,,,,1.4,63,114,482,0.000,0.000,0.0,18.6,18.5,59.5,-2.8,-2.8,F/CLSD (0),F/CLSD (0),Gear down - ground (3),Gnd (1),0.0,0.0,Normal (0),Normal (0),Not Out (0),Not Out (0), 0.0, 0.0, 0.0, 0.0, 0.0, 0.0,NOTCMD (0)
48.250,,,,,,,,,,,,,,,U 0.70,,,,,,,,,,,,,,,,,,,,,,,,,,,,,,,,,,,,,,,,,
48.500,,,,,,,,,,,,,,,U 0.70, 0.0,,,,,,,,,,,,,,,,,,,,,,,,,,,,,,,,Not Out (0),Not Out (0),,,,,,,
48.750,,,,,,,,,,,,,,,U 0.70,,,,,,,,,,,,,,,,,,,,,,,,,,,,,,,,,,,,,,,,,
49.000,.OH-LVL,,EDDT,,,,6,,,,G - Gnd (7),0,0.0,,U 0.70, 0.0,268,1009,,,51.7,58.6,0,337,,18.3,,,,114,483,0.000,0.000,0.0,18.6,20.1,59.5,-2.8,-2.8,,,Gear down - ground (3),Gnd (1),,,Normal (0),Normal (0),Not Out (0),Not Out (0), 0.0, 0.0, 0.0, 0.0, 0.0, 0.0,
49.250,,,,,,,,,,,,,,,U 0.70,,,,,,,,,,,,,,,,,,,,,,,,,,,,,,,,,,,,,,,,,
49.500,,,,,,,,,,,,,,,U 0.70, 0.0,,,,,,,,,,,,,,,,,,,,,,,,,,,,,,,,Not Out (0),Not Out (0),,,,,,,
49.750,,,,,,,,,,,,,,,U 0.70,,,,,,,,,,,,,,,,,,,,,,,,,,,,,,,,,,,,,,,,,
50.000,,,,,,,,,,,G - Gnd (7),0,0.0,,U 0.70, 0.0,268,,,E024 57.82,51.7,58.6,0,339,59694,,0.00,,,114,484,0.000,0.000,0.9,18.6,21.5,59.5,-2.8,-2.8,F/CLSD (0),F/CLSD (0),Gear down - ground (3),Gnd (1),0.0,0.0,Normal (0),Normal (0),Not Out (0),Not Out (0), 0.0, 0.0, 0.0, 0.0, 0.0, 0.0,
50.250,,,,,,,,,,,,,,,U 0.70,,,,,,,,,,,,,,,,,,,,,,,,,,,,,,,,,,,,,,,,,
50.500,,,,,,,,,,,,,,,U 0.70, 0.0,,,,,,,,,,,,,,,,,,,,,,,,,,,,,,,,Not Out (0),Not Out (0),,,,,,,
50.750,,,,,,,,,,,,,,,U 0.70,,,,,,,,,,,,,,,,,,,,,,,,,,,,,,,,,,,,,,,,,
51.000,,,,,,,,,7,22,G - Gnd (7),0,0.0,,U 0.70, 0.0,268,,,,51.7,58.6,151,341,,18.3,,,,114,485,0.000,0.000,1.1,18.8,22.8,59.5,-2.8,-2.8,,,Gear down - ground (3),Gnd (1),,,Normal (0),Normal (0),Not Out (0),Not Out (0), 0.0, 0.0, 0.0, 0.0, 0.0, 0.0,
51.250,,,,,,,,,,,,,,,U 0.70,,,,,,,,,,,,,,,,,,,,,,,,,,,,,,,,,,,,,,,,,
51.500,,,,,,,,,,,,,,,U 0.70, 0.0,,,,,,,,,,,,,,,,,,,,,,,,,,,,,,,,Not Out (0),Not Out (0),,,,,,,
51.750,,,,,,,,,,,,,,,U 0.70,,,,,,,,,,,,,,,,,,,,,,,,,,,,,,,,,,,,,,,,,
52.000,,A319 (5),,EFHK,FIN63G  ,16,,14,,,G - Gnd (7),0,0.0,0.00,U 0.70, 0.0,268,,N60 04.99,,51.7,58.6,161,339,,,,1.4,63,115,486,0.000,0.000,1.4,18.8,24.0,59.6,-2.8,-2.8,F/CLSD (0),F/CLSD (0),Gear down - ground (3),Gnd (1),0.0,0.0,Normal (0),Normal (0),Not Out (0),Not Out (0), 0.0, 0.0, 0.0, 0.0, 0.0, 0.0,NOTCMD (0)
52.250,,,,,,,,,,,,,,,U 0.70,,,,,,,,,,,,,,,,,,,,,,,,,,,,,,,,,,,,,,,,,
52.500,,,,,,,,,,,,,,,U 0.70, 0.0,,,,,,,,,,,,,,,,,,,,,,,,,,,,,,,,Not Out (0),Not Out (0),,,,,,,
52.750,,,,,,,,,,,,,,,U 0.70,,,,,,,,,,,,,,,,,,,,,,,,,,,,,,,,,,,,,,,,,
53.000,.OH-LVL,,EDDT,,,,6,,,,G - Gnd (7),0,0.0,,U 0.70, 0.0,268,1009,,,51.7,58.6,174,341,,18.3,,,,115,486,0.000,0.000,1.6,18.9,25.4,59.6,-2.8,-2.8,,,Gear down - ground (3),Gnd (1),,,Normal (0),Normal (0),Not Out (0),Not Out (0), 0.0, 0.0, 0.0, 0.0, 0.0, 0.0,
53.250,,,,,,,,,,,,,,,U 0.70,,,,,,,,,,,,,,,,,,,,,,,,,,,,,,,,,,,,,,,,,
53.500,,,,,,,,,,,,,,,U 0.70, 0.0,,,,,,,,,,,,,,,,,,,,,,,,,,,,,,,,Not Out (0),Not Out (0),,,,,,,
53.750,,,,,,,,,,,,,,,U 0.70,,,,,,,,,,,,,,,,,,,,,,,,,,,,,,,,,,,,,,,,,
54.000,,,,,,,,,,,G - Gnd (7),0,0.0,,U 0.70, 0.0,268,,,E024 57.78,51.7,58.6,190,339,59676,,0.00,,,121,487,0.000,0.000,2.1,18.9,27.1,59.6,-2.8,-2.8,F/CLSD (0),F/CLSD (0),Gear down - ground (3),Gnd (1),0.0,0.0,Normal (0),Normal (0),Not Out (0),Not Out (0), 0.0, 0.0, 0.0, 0.0, 0.0, 0.0,
54.250,,,,,,,,,,,,,,,U 0.70,,,,,,,,,,,,,,,,,,,,,,,,,,,,,,,,,,,,,,,,,
54.500,,,,,,,,,,,,,,,U 0.70, 0.0,,,,,,,,,,,,,,,,,,,,,,,,,,,,,,,,Not Out (0),Not Out (0),,,,,,,
54.750,,,,,,,,,,,,,,,U 0.70,,,,,,,,,,,,,,,,,,,,,,,,,,,,,,,,,,,,,,,,,
55.000,,,,,,,,,7,26,G - Gnd (7),0,0.0,,U 0.70, 0.0,268,,,,51.7,58.6,256,339,,18.3,,,,139,488,0.000,0.000,2.6,18.9,29.0,59.5,-2.8,-2.8,,,Gear down - ground (3),Gnd (1),,,Normal (0),Normal (0),Not Out (0),Not Out (0), 0.0, 0.0, 0.0, 0.0, 0.0, 0.0,
55.250,,,,,,,,,,,,,,,U 0.70,,,,,,,,,,,,,,,,,,,,,,,,,,,,,,,,,,,,,,,,,
55.500,,,,,,,,,,,,,,,U 0.70, 0.0,,,,,,,,,,,,,,,,,,,,,,,,,,,,,,,,Not Out (0),Not Out (0),,,,,,,
55.750,,,,,,,,,,,,,,,U 0.70,,,,,,,,,,,,,,,,,,,,,,,,,,,,,,,,,,,,,,,,,
56.000,,A319 (5),,EFHK,FIN63G  ,16,,14,,,G - Gnd (7),0,0.0,0.00,U 0.70, 0.0,268,,N60 04.99,,51.7,58.6,249,339,,,,1.4,63,157,488,0.000,0.000,3.3,18.9,30.5,59.5,-2.8,-2.8,F/CLSD (0),F/CLSD (0),Gear down - ground (3),Gnd (1),0.0,0.0,Normal (0),Normal (0),Not Out (0),Not Out (0), 0.0, 0.0, 0.0, 0.0, 0.0, 0.0,NOTCMD (0)
56.250,,,,,,,,,,,,,,,U 0.70,,,,,,,,,,,,,,,,,,,,,,,,,,,,,,,,,,,,,,,,,
56.500,,,,,,,,,,,,,,,U 0.70, 0.0,,,,,,,,,,,,,,,,,,,,,,,,,,,,,,,,Not Out (0),Not Out (0),,,,,,,
56.750,,,,,,,,,,,,,,,U 0.35,,,,,,,,,,,,,,,,,,,,,,,,,,,,,,,,,,,,,,,,,
57.000,.OH-LVL,,EDDT,,,,6,,,,G - Gnd (7),0,0.0,,U 0.35, 0.0,268,1009,,,51.7,58.6,234,339,,18.3,,,,176,489,0.000,0.000,4.0,18.9,32.3,59.6,-2.8,-2.8,,,Gear down - ground (3),Gnd (1),,,Normal (0),Normal (0),Not Out (0),Not Out (0), 0.0, 0.0, 0.0, 0.0, 0.0, 0.0,
57.250,,,,,,,,,,,,,,,U 0.35,,,,,,,,,,,,,,,,,,,,,,,,,,,,,,,,,,,,,,,,,
57.500,,,,,,,,,,,,,,,U 0.35, 0.0,,,,,,,,,,,,,,,,,,,,,,,,,,,,,,,,Not Out (0),Not Out (0),,,,,,,
57.750,,,,,,,,,,,,,,,U 0.35,,,,,,,,,,,,,,,,,,,,,,,,,,,,,,,,,,,,,,,,,
58.000,,,,,,,,,,,G - Gnd (7),0,0.0,,U 0.35, 0.0,268,,,E024 57.78,51.7,58.6,232,336,59676,,0.00,,,199,490,0.000,0.000,4.8,18.9,33.8,59.6,-2.8,-2.8,F/CLSD (0),F/CLSD (0),Gear down - ground (3),Gnd (1),0.0,0.0,Normal (0),Normal (0),Not Out (0),Not Out (0), 0.0, 0.0, 0.0, 0.0, 0.0, 0.0,
58.250,,,,,,,,,,,,,,, 0.00,,,,,,,,,,,,,,,,,,,,,,,,,,,,,,,,,,,,,,,,,
58.500,,,,,,,,,,,,,,, 0.00, 0.0,,,,,,,,,,,,,,,,,,,,,,,,,,,,,,,,Not Out (0),Not Out (0),,,,,,,
58.750,,,,,,,,,,,,,,, 0.00,,,,,,,,,,,,,,,,,,,,,,,,,,,,,,,,,,,,,,,,,
59.000,,,,,,,,,7,30,G - Gnd (7),0,0.0,, 0.00, 0.0,268,,,,51.7,58.6,238,337,,18.0,,,,218,491,0.000,0.000,5.5,18.9,35.0,59.6,-2.8,-2.8,,,Gear down - ground (3),Gnd (1),,,Normal (0),Normal (0),Not Out (0),Not Out (0), 0.0, 0.0, 0.0, 0.0, 0.0, 0.0,
59.250,,,,,,,,,,,,,,, 0.00,,,,,,,,,,,,,,,,,,,,,,,,,,,,,,,,,,,,,,,,,
59.500,,,,,,,,,,,,,,, 0.00, 0.0,,,,,,,,,,,,,,,,,,,,,,,,,,,,,,,,Not Out (0),Not Out (0),,,,,,,
59.750,,,,,,,,,,,,,,, 0.00,,,,,,,,,,,,,,,,,,,,,,,,,,,,,,,,,,,,,,,,,
60.000,,A319 (5),,EFHK,FIN63G  ,16,,14,,,G - Gnd (7),0,0.0,0.00,D 0.35, 0.0,268,,N60 04.99,,51.7,58.6,241,337,,,,1.4,63,238,492,0.000,0.000,6.3,18.9,36.3,59.6,-2.8,-2.8,F/CLSD (0),F/CLSD (0),Gear down - ground (3),Gnd (1),0.0,0.0,Normal (0),Normal (0),Not Out (0),Not Out (0), 0.0, 0.0, 0.0, 0.0, 0.0, 0.0,NOTCMD (0)
60.250,,,,,,,,,,,,,,,D 0.35,,,,,,,,,,,,,,,,,,,,,,,,,,,,,,,,,,,,,,,,,
60.500,,,,,,,,,,,,,,,D 0.35, 0.0,,,,,,,,,,,,,,,,,,,,,,,,,,,,,,,,Not Out (0),Not Out (0),,,,,,,
60.750,,,,,,,,,,,,,,,D 0.35,,,,,,,,,,,,,,,,,,,,,,,,,,,,,,,,,,,,,,,,,
61.000,.OH-LVL,,EDDT,,,,6,,,,G - Gnd (7),0,0.0,,D 0.35, 0.0,268,1009,,,51.7,58.6,243,341,,18.0,,,,258,493,0.000,0.000,7.0,18.9,37.4,59.6,-2.8,-2.8,,,Gear down - ground (3),Gnd (1),,,Normal (0),Normal (0),Not Out (0),Not Out (0), 0.0, 0.0, 0.0, 0.0, 0.0, 0.0,
61.250,,,,,,,,,,,,,,,D 0.35,,,,,,,,,,,,,,,,,,,,,,,,,,,,,,,,,,,,,,,,,
61.500,,,,,,,,,,,,,,,D 0.35, 0.0,,,,,,,,,,,,,,,,,,,,,,,,,,,,,,,,Not Out (0),Not Out (0),,,,,,,
61.750,,,,,,,,,,,,,,,D 0.35,,,,,,,,,,,,,,,,,,,,,,,,,,,,,,,,,,,,,,,,,
62.000,,,,,,,,,,,G - Gnd (7),0,0.0,,D 0.35, 0.0,268,,,E024 57.78,51.7,58.6,247,343,59676,,0.00,,,276,494,0.000,0.000,7.8,18.9,38.5,59.6,-2.8,-2.8,F/CLSD (0),F/CLSD (0),Gear down - ground (3),Gnd (1),0.0,0.0,Normal (0),Normal (0),Not Out (0),Not Out (0), 0.0, 0.0, 0.0, 0.0, 0.0, 0.0,
62.250,,,,,,,,,,,,,,,D 0.35,,,,,,,,,,,,,,,,,,,,,,,,,,,,,,,,,,,,,,,,,
62.500,,,,,,,,,,,,,,,D 0.35, 0.0,,,,,,,,,,,,,,,,,,,,,,,,,,,,,,,,Not Out (0),Not Out (0),,,,,,,
62.750,,,,,,,,,,,,,,,D 0.35,,,,,,,,,,,,,,,,,,,,,,,,,,,,,,,,,,,,,,,,,
63.000,,,,,,,,,7,34,G - Gnd (7),0,0.0,,D 0.35, 0.0,268,,,,51.7,58.6,268,339,,18.3,,,,294,495,0.000,0.000,8.4,18.9,39.9,59.6,-2.8,-2.8,,,Gear down - ground (3),Gnd (1),,,Normal (0),Normal (0),Not Out (0),Not Out (0), 0.0, 0.0, 0.0, 0.0, 0.0, 0.0,
63.250,,,,,,,,,,,,,,,D 0.35,,,,,,,,,,,,,,,,,,,,,,,,,,,,,,,,,,,,,,,,,
63.500,,,,,,,,,,,,,,,D 0.35, 0.0,,,,,,,,,,,,,,,,,,,,,,,,,,,,,,,,Not Out (0),Not Out (0),,,,,,,
63.750,,,,,,,,,,,,,,,D 0.35,,,,,,,,,,,,,,,,,,,,,,,,,,,,,,,,,,,,,,,,,
64.000,,A319 (5),,EFHK,FIN63G  ,16,,14,,,G - Gnd (7),0,0.0,0.00,D 0.35, 0.0,268,,N60 04.99,,51.7,58.6,268,339,,,,1.4,63,305,495,0.000,0.000,9.0,18.9,41.4,59.6,-2.8,-2.8,F/CLSD (0),F/CLSD (0),Gear down - ground (3),Gnd (1),0.0,0.0,Normal (0),Normal (0),Not Out (0),Not Out (0), 0.0, 0.0, 0.0, 0.0, 0.0, 0.0,NOTCMD (0)
64.250,,,,,,,,,,,,,,,D 0.35,,,,,,,,,,,,,,,,,,,,,,,,,,,,,,,,,,,,,,,,,
64.500,,,,,,,,,,,,,,,D 0.35, 0.0,,,,,,,,,,,,,,,,,,,,,,,,,,,,,,,,Not Out (0),Not Out (0),,,,,,,
64.750,,,,,,,,,,,,,,,D 0.35,,,,,,,,,,,,,,,,,,,,,,,,,,,,,,,,,,,,,,,,,
65.000,.OH-LVL,,EDDT,,,,6,,,,G - Gnd (7),0,0.0,,D 0.35, 0.0,268,1009,,,51.7,58.6,272,339,,18.3,,,,312,496,0.000,0.000,9.5,18.9,42.6,59.6,-2.8,-2.8,,,Gear down - ground (3),Gnd (1),,,Normal (0),Normal (0),Not Out (0),Not Out (0), 0.0, 0.0, 0.0, 0.0, 0.0, 0.0,
65.250,,,,,,,,,,,,,,,D 0.35,,,,,,,,,,,,,,,,,,,,,,,,,,,,,,,,,,,,,,,,,
65.500,,,,,,,,,,,,,,,D 0.35, 0.0,,,,,,,,,,,,,,,,,,,,,,,,,,,,,,,,Not Out (0),Not Out (0),,,,,,,
65.750,,,,,,,,,,,,,,,D 0.35,,,,,,,,,,,,,,,,,,,,,,,,,,,,,,,,,,,,,,,,,
66.000,,,,,,,,,,,G - Gnd (7),0,0.0,,D 0.35, 0.0,268,,,E024 57.78,51.7,58.6,279,339,59676,,0.00,,,320,497,0.000,0.000,10.0,18.9,43.9,59.6,-2.8,-2.8,F/CLSD (0),F/CLSD (0),Gear down - ground (3),Gnd (1),0.0,0.0,Normal (0),Normal (0),Not Out (0),Not Out (0), 0.0, 0.0, 0.0, 0.0, 0.0, 0.0,
66.250,,,,,,,,,,,,,,,D 0.35,,,,,,,,,,,,,,,,,,,,,,,,,,,,,,,,,,,,,,,,,
66.500,,,,,,,,,,,,,,,D 0.35, 0.0,,,,,,,,,,,,,,,,,,,,,,,,,,,,,,,,Not Out (0),Not Out (0),,,,,,,
66.750,,,,,,,,,,,,,,,D 0.35,,,,,,,,,,,,,,,,,,,,,,,,,,,,,,,,,,,,,,,,,
67.000,,,,,,,,,7,38,G - Gnd (7),0,0.0,,D 0.35, 0.0,268,,,,51.7,58.6,288,341,,18.0,,,,329,497,0.000,0.000,10.6,18.9,45.3,59.6,-2.8,-2.8,,,Gear down - ground (3),Gnd (1),,,Normal (0),Normal (0),Not Out (0),Not Out (0), 0.0, 0.0, 0.0, 0.0, 0.0, 0.0,
67.250,,,,,,,,,,,,,,,D 0.35,,,,,,,,,,,,,,,,,,,,,,,,,,,,,,,,,,,,,,,,,
67.500,,,,,,,,,,,,,,,D 0.35, 0.0,,,,,,,,,,,,,,,,,,,,,,,,,,,,,,,,Not Out (0),Not Out (0),,,,,,,
67.750,,,,,,,,,,,,,,,D 0.35,,,,,,,,,,,,,,,,,,,,,,,,,,,,,,,,,,,,,,,,,
68.000,,A319 (5),,EFHK,FIN63G  ,16,,14,,,G - Gnd (7),0,0.0,0.00,D 0.35, 0.0,268,,N60 04.99,,51.7,58.6,297,337,,,,1.4,63,337,498,0.000,0.000,11.1,18.9,46.5,59.6,-2.8,-2.8,F/CLSD (0),F/CLSD (0),Gear down - ground (3),Gnd (1),0.0,0.0,Normal (0),Normal (0),Not Out (0),Not Out (0), 0.0, 0.0, 0.0, 0.0, 0.0, 0.0,NOTCMD (0)
68.250,,,,,,,,,,,,,,,D 0.35,,,,,,,,,,,,,,,,,,,,,,,,,,,,,,,,,,,,,,,,,
68.500,,,,,,,,,,,,,,,D 0.35, 0.0,,,,,,,,,,,,,,,,,,,,,,,,,,,,,,,,Not Out (0),Not Out (0),,,,,,,
68.750,,,,,,,,,,,,,,,D 0.35,,,,,,,,,,,,,,,,,,,,,,,,,,,,,,,,,,,,,,,,,
69.000,.OH-LVL,,EDDT,,,,6,,,,G - Gnd (7),0,0.0,,D 0.35, 0.0,268,1009,,,51.7,58.6,307,339,,18.0,,,,345,499,0.000,0.000,11.8,19.0,47.8,59.6,-2.8,-2.8,,,Gear down - ground (3),Gnd (1),,,Normal (0),Normal (0),Not Out (0),Not Out (0), 0.0, 0.0, 0.0, 0.0, 0.0, 0.0,
69.250,,,,,,,,,,,,,,,D 0.35,,,,,,,,,,,,,,,,,,,,,,,,,,,,,,,,,,,,,,,,,
69.500,,,,,,,,,,,,,,,D 0.35, 0.0,,,,,,,,,,,,,,,,,,,,,,,,,,,,,,,,Not Out (0),Not Out (0),,,,,,,
69.750,,,,,,,,,,,,,,,D 0.35,,,,,,,,,,,,,,,,,,,,,,,,,,,,,,,,,,,,,,,,,
70.000,,,,,,,,,,,G - Gnd (7),0,0.0,,D 0.35, 0.0,268,,,E024 57.78,51.7,58.6,319,341,59676,,0.00,,,354,499,0.000,0.000,12.4,19.0,49.1,59.6,-2.8,-2.8,F/CLSD (0),F/CLSD (0),Gear down - ground (3),Gnd (1),0.0,0.0,Normal (0),Normal (0),Not Out (0),Not Out (0), 0.0, 0.0, 0.0, 0.0, 0.0, 0.0,
70.250,,,,,,,,,,,,,,,D 0.35,,,,,,,,,,,,,,,,,,,,,,,,,,,,,,,,,,,,,,,,,
70.500,,,,,,,,,,,,,,,D 0.35, 0.0,,,,,,,,,,,,,,,,,,,,,,,,,,,,,,,,Not Out (0),Not Out (0),,,,,,,
70.750,,,,,,,,,,,,,,,D 0.35,,,,,,,,,,,,,,,,,,,,,,,,,,,,,,,,,,,,,,,,,
71.000,,,,,,,,,7,42,G - Gnd (7),0,0.0,,D 0.35, 0.0,268,,,,51.7,58.6,325,336,,18.3,,,,362,499,0.000,0.000,12.9,18.9,50.3,59.6,-2.8,-2.8,,,Gear down - ground (3),Gnd (1),,,Normal (0),Normal (0),Not Out (0),Not Out (0), 0.0, 0.0, 0.0, 0.0, 0.0, 0.0,
71.250,,,,,,,,,,,,,,,D 0.35,,,,,,,,,,,,,,,,,,,,,,,,,,,,,,,,,,,,,,,,,
71.500,,,,,,,,,,,,,,,D 0.35, 0.0,,,,,,,,,,,,,,,,,,,,,,,,,,,,,,,,Not Out (0),Not Out (0),,,,,,,
71.750,,,,,,,,,,,,,,,D 0.35,,,,,,,,,,,,,,,,,,,,,,,,,,,,,,,,,,,,,,,,,
72.000,,A319 (5),,EFHK,FIN63G  ,16,,14,,,G - Gnd (7),0,0.0,0.00,D 0.35, 0.0,268,,N60 04.99,,51.7,58.6,332,337,,,,1.4,63,369,500,0.000,0.000,13.5,19.0,51.1,59.6,-2.8,-2.8,F/CLSD (0),F/CLSD (0),Gear down - ground (3),Gnd (1),0.0,0.0,Normal (0),Normal (0),Not Out (0),Not Out (0), 0.0, 0.0, 0.0, 0.0, 0.0, 0.0,NOTCMD (0)
72.250,,,,,,,,,,,,,,,D 0.35,,,,,,,,,,,,,,,,,,,,,,,,,,,,,,,,,,,,,,,,,
72.500,,,,,,,,,,,,,,,D 0.35, 0.0,,,,,,,,,,,,,,,,,,,,,,,,,,,,,,,,Not Out (0),Not Out (0),,,,,,,
72.750,,,,,,,,,,,,,,,D 0.35,,,,,,,,,,,,,,,,,,,,,,,,,,,,,,,,,,,,,,,,,
73.000,.OH-LVL,,EDDT,,,,6,,,,G - Gnd (7),0,0.0,,D 0.35, 0.0,268,1009,,,51.7,58.6,334,339,,18.0,,,,375,501,0.000,0.000,14.0,18.9,51.5,59.6,-2.8,-2.8,,,Gear down - ground (3),Gnd (1),,,Normal (0),Normal (0),Not Out (0),Not Out (0), 0.0, 0.0, 0.0, 0.0, 0.0, 0.0,
73.250,,,,,,,,,,,,,,,D 0.35,,,,,,,,,,,,,,,,,,,,,,,,,,,,,,,,,,,,,,,,,
73.500,,,,,,,,,,,,,,,D 0.35, 0.0,,,,,,,,,,,,,,,,,,,,,,,,,,,,,,,,Not Out (0),Not Out (0),,,,,,,
73.750,,,,,,,,,,,,,,,D 0.35,,,,,,,,,,,,,,,,,,,,,,,,,,,,,,,,,,,,,,,,,
74.000,,,,,,,,,,,G - Gnd (7),0,0.0,,D 0.35, 0.0,268,,,E024 57.78,51.7,58.6,374,339,59676,,0.00,,,381,502,0.000,0.000,14.5,19.0,52.3,59.6,-2.8,-2.8,F/CLSD (0),F/CLSD (0),Gear down - ground (3),Gnd (1),0.0,0.0,Normal (0),Normal (0),Not Out (0),Not Out (0), 0.0, 0.0, 0.0, 0.0, 0.0, 0.0,
74.250,,,,,,,,,,,,,,,D 0.35,,,,,,,,,,,,,,,,,,,,,,,,,,,,,,,,,,,,,,,,,
74.500,,,,,,,,,,,,,,,D 0.35, 0.0,,,,,,,,,,,,,,,,,,,,,,,,,,,,,,,,Not Out (0),Not Out (0),,,,,,,
74.750,,,,,,,,,,,,,,,D 0.35,,,,,,,,,,,,,,,,,,,,,,,,,,,,,,,,,,,,,,,,,
75.000,,,,,,,,,7,46,G - Gnd (7),0,0.0,,D 0.35, 0.0,268,,,,51.7,58.6,352,339,,18.0,,,,391,502,0.000,0.000,15.0,19.0,52.8,59.6,-2.8,-2.8,,,Gear down - ground (3),Gnd (1),,,Normal (0),Normal (0),Not Out (0),Not Out (0), 0.0, 0.0, 0.0, 0.0, 0.0, 0.0,
75.250,,,,,,,,,,,,,,,D 0.35,,,,,,,,,,,,,,,,,,,,,,,,,,,,,,,,,,,,,,,,,
75.500,,,,,,,,,,,,,,,D 0.35, 0.0,,,,,,,,,,,,,,,,,,,,,,,,,,,,,,,,Not Out (0),Not Out (0),,,,,,,
75.750,,,,,,,,,,,,,,,D 0.35,,,,,,,,,,,,,,,,,,,,,,,,,,,,,,,,,,,,,,,,,
76.000,,A319 (5),,EFHK,FIN63G  ,16,,14,,,G - Gnd (7),0,0.0,0.00,D 0.35, 0.0,268,,N60 04.99,,51.7,58.6,359,339,,,,1.4,63,396,503,0.000,0.000,15.3,18.9,53.3,59.6,-2.8,-2.8,F/CLSD (0),F/CLSD (0),Gear down - ground (3),Gnd (1),0.0,0.0,Normal (0),Normal (0),Not Out (0),Not Out (0), 0.0, 0.0, 0.0, 0.0, 0.0, 0.0,NOTCMD (0)
76.250,,,,,,,,,,,,,,,D 0.35,,,,,,,,,,,,,,,,,,,,,,,,,,,,,,,,,,,,,,,,,
76.500,,,,,,,,,,,,,,,D 0.35, 0.0,,,,,,,,,,,,,,,,,,,,,,,,,,,,,,,,Not Out (0),Not Out (0),,,,,,,
76.750,,,,,,,,,,,,,,,D 0.35,,,,,,,,,,,,,,,,,,,,,,,,,,,,,,,,,,,,,,,,,
77.000,.OH-LVL,,EDDT,,,,6,,,,G - Gnd (7),0,0.0,,D 0.35, 0.0,268,1009,,,51.7,58.6,366,339,,18.0,,,,402,503,0.000,0.000,15.6,19.0,53.9,59.6,-2.8,-2.8,,,Gear down - ground (3),Gnd (1),,,Normal (0),Normal (0),Not Out (0),Not Out (0), 0.0, 0.0, 0.0, 0.0, 0.0, 0.0,
77.250,,,,,,,,,,,,,,,D 0.35,,,,,,,,,,,,,,,,,,,,,,,,,,,,,,,,,,,,,,,,,
77.500,,,,,,,,,,,,,,,D 0.35, 0.0,,,,,,,,,,,,,,,,,,,,,,,,,,,,,,,,Not Out (0),Not Out (0),,,,,,,
77.750,,,,,,,,,,,,,,,D 0.35,,,,,,,,,,,,,,,,,,,,,,,,,,,,,,,,,,,,,,,,,
78.000,,,,,,,,,,,G - Gnd (7),0,0.0,,D 0.35, 0.0,268,,,E024 57.78,51.7,58.6,372,339,59676,,0.00,,,407,504,0.000,0.000,15.9,19.0,54.6,59.6,-2.8,-2.8,F/CLSD (0),F/CLSD (0),Gear down - ground (3),Gnd (1),0.0,0.0,Normal (0),Normal (0),Not Out (0),Not Out (0), 0.0, 0.0, 0.0, 0.0, 0.0, 0.0,
78.250,,,,,,,,,,,,,,,D 0.35,,,,,,,,,,,,,,,,,,,,,,,,,,,,,,,,,,,,,,,,,
78.500,,,,,,,,,,,,,,,D 0.35, 0.0,,,,,,,,,,,,,,,,,,,,,,,,,,,,,,,,Not Out (0),Not Out (0),,,,,,,
78.750,,,,,,,,,,,,,,,D 0.35,,,,,,,,,,,,,,,,,,,,,,,,,,,,,,,,,,,,,,,,,
79.000,,,,,,,,,7,50,G - Gnd (7),0,0.0,,D 0.35, 0.0,268,,,,51.7,58.6,379,337,,18.0,,,,412,504,0.000,0.000,16.3,19.0,55.4,59.6,-2.8,-2.8,,,Gear down - ground (3),Gnd (1),,,Normal (0),Normal (0),Not Out (0),Not Out (0), 0.0, 0.0, 0.0, 0.0, 0.0, 0.0,
79.250,,,,,,,,,,,,,,,D 0.35,,,,,,,,,,,,,,,,,,,,,,,,,,,,,,,,,,,,,,,,,
79.500,,,,,,,,,,,,,,,D 0.35, 0.0,,,,,,,,,,,,,,,,,,,,,,,,,,,,,,,,Not Out (0),Not Out (0),,,,,,,
79.750,,,,,,,,,,,,,,,D 0.35,,,,,,,,,,,,,,,,,,,,,,,,,,,,,,,,,,,,,,,,,
80.000,,A319 (5),,EFHK,FIN63G  ,16,,14,,,G - Gnd (7),0,0.0,0.00,D 0.35, 0.0,268,,N60 04.99,,51.7,58.6,386,337,,,,1.4,63,416,505,0.000,0.000,16.6,18.9,56.1,59.6,-2.8,-2.8,F/CLSD (0),F/CLSD (0),Gear down - ground (3),Gnd (1),0.0,0.0,Normal (0),Normal (0),Not Out (0),Not Out (0), 0.0, 0.0, 0.0, 0.0, 0.0, 0.0,NOTCMD (0)
80.250,,,,,,,,,,,,,,,D 0.35,,,,,,,,,,,,,,,,,,,,,,,,,,,,,,,,,,,,,,,,,
80.500,,,,,,,,,,,,,,,D 0.35, 0.0,,,,,,,,,,,,,,,,,,,,,,,,,,,,,,,,Not Out (0),Not Out (0),,,,,,,
80.750,,,,,,,,,,,,,,,D 0.35,,,,,,,,,,,,,,,,,,,,,,,,,,,,,,,,,,,,,,,,,
81.000,.OH-LVL,,EDDT,,,,6,,,,G - Gnd (7),0,0.0,,D 0.35, 0.0,268,1009,,,51.7,58.6,392,337,,18.0,,,,421,505,0.000,0.000,17.0,19.0,57.0,59.5,-2.8,-2.8,,,Gear down - ground (3),Gnd (1),,,Normal (0),Normal (0),Not Out (0),Not Out (0), 0.0, 0.0, 0.0, 0.0, 0.0, 0.0,
81.250,,,,,,,,,,,,,,,D 0.35,,,,,,,,,,,,,,,,,,,,,,,,,,,,,,,,,,,,,,,,,
81.500,,,,,,,,,,,,,,,D 0.35, 0.0,,,,,,,,,,,,,,,,,,,,,,,,,,,,,,,,Not Out (0),Not Out (0),,,,,,,
81.750,,,,,,,,,,,,,,,D 0.35,,,,,,,,,,,,,,,,,,,,,,,,,,,,,,,,,,,,,,,,,
82.000,,,,,,,,,,,G - Gnd (7),0,0.0,,D 0.35, 0.0,268,,,E024 57.78,51.7,58.6,405,337,59676,,0.00,,,426,506,0.000,0.000,17.4,19.0,57.9,59.5,-2.8,-2.8,F/CLSD (0),F/CLSD (0),Gear down - ground (3),Gnd (1),0.0,0.0,Normal (0),Normal (0),Not Out (0),Not Out (0), 0.0, 0.0, 0.0, 0.0, 0.0, 0.0,
82.250,,,,,,,,,,,,,,,D 0.35,,,,,,,,,,,,,,,,,,,,,,,,,,,,,,,,,,,,,,,,,
82.500,,,,,,,,,,,,,,,D 0.35, 0.0,,,,,,,,,,,,,,,,,,,,,,,,,,,,,,,,Not Out (0),Not Out (0),,,,,,,
82.750,,,,,,,,,,,,,,,D 0.35,,,,,,,,,,,,,,,,,,,,,,,,,,,,,,,,,,,,,,,,,
83.000,,,,,,,,,7,54,G - Gnd (7),0,0.0,,D 0.35, 0.0,268,,,,51.7,58.6,414,339,,18.0,,,,430,506,0.000,0.000,17.9,19.0,58.9,59.5,-2.8,-2.8,,,Gear down - ground (3),Gnd (1),,,Normal (0),Normal (0),Not Out (0),Not Out (0), 0.0, 0.0, 0.0, 0.0, 0.0, 0.0,
83.250,,,,,,,,,,,,,,,D 0.35,,,,,,,,,,,,,,,,,,,,,,,,,,,,,,,,,,,,,,,,,
83.500,,,,,,,,,,,,,,,D 0.35, 0.0,,,,,,,,,,,,,,,,,,,,,,,,,,,,,,,,Not Out (0),Not Out (0),,,,,,,
83.750,,,,,,,,,,,,,,,D 0.35,,,,,,,,,,,,,,,,,,,,,,,,,,,,,,,,,,,,,,,,,
84.000,,A319 (5),,EFHK,FIN63G  ,16,,14,,,G - Gnd (7),0,0.0,0.00,D 0.35, 0.0,268,,N60 04.99,,51.7,58.6,423,339,,,,1.4,63,434,507,0.000,0.000,18.4,19.0,59.8,59.5,-2.8,-2.8,F/CLSD (0),F/CLSD (0),Gear down - ground (3),Gnd (1),0.0,0.0,Normal (0),Normal (0),Not Out (0),Not Out (0), 0.0, 0.0, 0.0, 0.0, 0.0, 0.0,NOTCMD (0)
84.250,,,,,,,,,,,,,,,D 0.35,,,,,,,,,,,,,,,,,,,,,,,,,,,,,,,,,,,,,,,,,
84.500,,,,,,,,,,,,,,,D 0.35, 0.0,,,,,,,,,,,,,,,,,,,,,,,,,,,,,,,,Not Out (0),Not Out (0),,,,,,,
84.750,,,,,,,,,,,,,,,D 0.35,,,,,,,,,,,,,,,,,,,,,,,,,,,,,,,,,,,,,,,,,
85.000,.OH-LVL,,EDDT,,,,6,,,,G - Gnd (7),0,0.0,,D 0.35, 0.0,268,1009,,,51.7,58.6,374,339,,18.0,,,,439,507,0.000,0.000,18.9,19.0,60.0,59.5,-2.8,-2.8,,,Gear down - ground (3),Gnd (1),,,Normal (0),Normal (0),Not Out (0),Not Out (0), 0.0, 0.0, 0.0, 0.0, 0.0, 0.0,
85.250,,,,,,,,,,,,,,,D 0.35,,,,,,,,,,,,,,,,,,,,,,,,,,,,,,,,,,,,,,,,,
85.500,,,,,,,,,,,,,,,D 0.35, 0.0,,,,,,,,,,,,,,,,,,,,,,,,,,,,,,,,Not Out (0),Not Out (0),,,,,,,
85.750,,,,,,,,,,,,,,,D 0.35,,,,,,,,,,,,,,,,,,,,,,,,,,,,,,,,,,,,,,,,,
86.000,,,,,,,,,,,G - Gnd (7),0,0.0,,D 0.35, 0.0,268,,,E024 57.78,51.7,58.6,337,337,59676,,0.00,,,445,507,0.000,0.000,19.0,19.0,60.0,59.5,-2.8,-2.8,F/CLSD (0),F/CLSD (0),Gear down - ground (3),Gnd (1),0.0,0.0,Normal (0),Normal (0),Not Out (0),Not Out (0), 0.0, 0.0, 0.0, 0.0, 0.0, 0.0,
86.250,,,,,,,,,,,,,,,D 0.35,,,,,,,,,,,,,,,,,,,,,,,,,,,,,,,,,,,,,,,,,
86.500,,,,,,,,,,,,,,,D 0.35, 0.0,,,,,,,,,,,,,,,,,,,,,,,,,,,,,,,,Not Out (0),Not Out (0),,,,,,,
86.750,,,,,,,,,,,,,,,D 0.35,,,,,,,,,,,,,,,,,,,,,,,,,,,,,,,,,,,,,,,,,
87.000,,,,,,,,,7,58,G - Gnd (7),0,0.0,,D 0.35, 0.0,268,,,,51.7,58.6,312,339,,18.0,,,,445,508,0.000,0.000,19.0,19.0,59.9,59.5,-2.8,-2.8,,,Gear down - ground (3),Gnd (1),,,Normal (0),Normal (0),Not Out (0),Not Out (0), 0.0, 0.0, 0.0, 0.0, 0.0, 0.0,
87.250,,,,,,,,,,,,,,,D 0.35,,,,,,,,,,,,,,,,,,,,,,,,,,,,,,,,,,,,,,,,,
87.500,,,,,,,,,,,,,,,D 0.35, 0.0,,,,,,,,,,,,,,,,,,,,,,,,,,,,,,,,Not Out (0),Not Out (0),,,,,,,
87.750,,,,,,,,,,,,,,,D 0.35,,,,,,,,,,,,,,,,,,,,,,,,,,,,,,,,,,,,,,,,,
88.000,,A319 (5),,EFHK,FIN63G  ,16,,14,,,G - Gnd (7),0,0.0,0.00,D 0.35, 0.0,268,,N60 04.99,,51.7,58.6,314,337,,,,1.4,63,444,509,0.000,0.000,19.0,18.9,59.6,59.5,-2.8,-2.8,F/CLSD (0),F/CLSD (0),Gear down - ground (3),Gnd (1),0.0,0.0,Normal (0),Normal (0),Not Out (0),Not Out (0), 0.0, 0.0, 0.0, 0.0, 0.0, 0.0,NOTCMD (0)
88.250,,,,,,,,,,,,,,,D 0.35,,,,,,,,,,,,,,,,,,,,,,,,,,,,,,,,,,,,,,,,,
88.500,,,,,,,,,,,,,,,D 0.35, 0.0,,,,,,,,,,,,,,,,,,,,,,,,,,,,,,,,Not Out (0),Not Out (0),,,,,,,
88.750,,,,,,,,,,,,,,,D 0.35,,,,,,,,,,,,,,,,,,,,,,,,,,,,,,,,,,,,,,,,,
89.000,.OH-LVL,,EDDT,,,,6,,,,G - Gnd (7),0,0.0,,D 0.35, 0.0,268,1009,,,51.7,58.6,314,337,,18.0,,,,444,509,0.000,0.000,18.9,19.0,59.5,59.5,-2.8,-2.8,,,Gear down - ground (3),Gnd (1),,,Normal (0),Normal (0),Not Out (0),Not Out (0), 0.0, 0.0, 0.0, 0.0, 0.0, 0.0,
89.250,,,,,,,,,,,,,,,D 0.35,,,,,,,,,,,,,,,,,,,,,,,,,,,,,,,,,,,,,,,,,
89.500,,,,,,,,,,,,,,,D 0.35, 0.0,,,,,,,,,,,,,,,,,,,,,,,,,,,,,,,,Not Out (0),Not Out (0),,,,,,,
89.750,,,,,,,,,,,,,,,D 0.35,,,,,,,,,,,,,,,,,,,,,,,,,,,,,,,,,,,,,,,,,
90.000,,,,,,,,,,,G - Gnd (7),0,0.0,,D 0.35, 0.0,268,,,E024 57.78,51.7,58.6,319,337,59676,,0.00,,,444,509,0.000,0.000,18.8,19.0,59.5,59.5,-2.8,-2.8,F/CLSD (0),F/CLSD (0),Gear down - ground (3),Gnd (1),0.0,0.0,Normal (0),Normal (0),Not Out (0),Not Out (0), 0.0, 0.0, 0.0, 0.0, 0.0, 0.0,
90.250,,,,,,,,,,,,,,,D 0.35,,,,,,,,,,,,,,,,,,,,,,,,,,,,,,,,,,,,,,,,,
90.500,,,,,,,,,,,,,,,D 0.35, 0.0,,,,,,,,,,,,,,,,,,,,,,,,,,,,,,,,Not Out (0),Not Out (0),,,,,,,
90.750,,,,,,,,,,,,,,,D 0.35,,,,,,,,,,,,,,,,,,,,,,,,,,,,,,,,,,,,,,,,,
91.000,,,,,,,,,8,2,G - Gnd (7),0,0.0,,D 0.35, 0.0,268,,,,51.7,58.6,327,339,,18.0,,,,446,510,0.000,0.000,18.8,18.9,59.5,59.5,-2.8,-2.8,,,Gear down - ground (3),Gnd (1),,,Normal (0),Normal (0),Not Out (0),Not Out (0), 0.0, 0.0, 0.0, 0.0, 0.0, 0.0,
91.250,,,,,,,,,,,,,,,D 0.35,,,,,,,,,,,,,,,,,,,,,,,,,,,,,,,,,,,,,,,,,
91.500,,,,,,,,,,,,,,,D 0.35, 0.0,,,,,,,,,,,,,,,,,,,,,,,,,,,,,,,,Not Out (0),Not Out (0),,,,,,,
91.750,,,,,,,,,,,,,,,D 0.35,,,,,,,,,,,,,,,,,,,,,,,,,,,,,,,,,,,,,,,,,
92.000,,A319 (5),,EFHK,FIN63G  ,16,,14,,,G - Gnd (7),0,0.0,0.00,D 0.35, 0.0,268,,N60 04.99,,51.7,58.6,330,337,,,,1.4,63,448,510,0.000,0.000,18.8,18.9,59.5,59.5,-2.8,-2.8,F/CLSD (0),F/CLSD (0),Gear down - ground (3),Gnd (1),0.0,0.0,Normal (0),Normal (0),Not Out (0),Not Out (0), 0.0, 0.0, 0.0, 0.0, 0.0, 0.0,NOTCMD (0)
92.250,,,,,,,,,,,,,,,D 0.35,,,,,,,,,,,,,,,,,,,,,,,,,,,,,,,,,,,,,,,,,
92.500,,,,,,,,,,,,,,,D 0.35, 0.0,,,,,,,,,,,,,,,,,,,,,,,,,,,,,,,,Not Out (0),Not Out (0),,,,,,,
92.750,,,,,,,,,,,,,,,D 0.35,,,,,,,,,,,,,,,,,,,,,,,,,,,,,,,,,,,,,,,,,
93.000,.OH-LVL,,EDDT,,,,6,,,,G - Gnd (7),0,0.0,,D 0.35, 0.0,268,1009,,,51.7,58.6,336,339,,18.0,,,,450,511,0.000,0.000,18.8,18.8,59.4,59.5,-2.8,-2.8,,,Gear down - ground (3),Gnd (1),,,Normal (0),Normal (0),Not Out (0),Not Out (0), 0.0, 0.0, 0.0, 0.0, 0.0, 0.0,
93.250,,,,,,,,,,,,,,,D 0.35,,,,,,,,,,,,,,,,,,,,,,,,,,,,,,,,,,,,,,,,,
93.500,,,,,,,,,,,,,,,D 0.35, 0.0,,,,,,,,,,,,,,,,,,,,,,,,,,,,,,,,Not Out (0),Not Out (0),,,,,,,
93.750,,,,,,,,,,,,,,,D 0.35,,,,,,,,,,,,,,,,,,,,,,,,,,,,,,,,,,,,,,,,,
94.000,,,,,,,,,,,G - Gnd (7),0,0.0,,D 0.35, 0.0,268,,,E024 57.78,51.7,58.6,350,363,59676,,0.00,,,452,515,0.000,0.000,18.8,18.8,59.3,59.5,-2.8,-2.8,F/CLSD (0),N/CLSD (1),Gear down - ground (3),Gnd (1),0.0,0.8,Normal (0),Normal (0),Not Out (0),Not Out (0), 0.0, 0.0, 0.0, 0.0, 0.0, 0.0,
94.250,,,,,,,,,,,,,,,D 0.35,,,,,,,,,,,,,,,,,,,,,,,,,,,,,,,,,,,,,,,,,
94.500,,,,,,,,,,,,,,,D 0.35, 0.0,,,,,,,,,,,,,,,,,,,,,,,,,,,,,,,,Not Out (0),Not Out (0),,,,,,,
94.750,,,,,,,,,,,,,,,D 0.35,,,,,,,,,,,,,,,,,,,,,,,,,,,,,,,,,,,,,,,,,
95.000,,,,,,,,,8,6,G - Gnd (7),0,0.0,,D 0.35, 0.0,268,,,,51.7,58.6,354,392,,18.0,,,,456,522,0.000,0.000,18.9,18.9,59.3,59.6,-2.8,-2.8,,,Gear down - ground (3),Gnd (1),,,Normal (0),Normal (0),Not Out (0),Not Out (0), 0.0, 0.0, 0.0, 0.0, 0.0, 0.0,
95.250,,,,,,,,,,,,,,,D 0.35,,,,,,,,,,,,,,,,,,,,,,,,,,,,,,,,,,,,,,,,,
95.500,,,,,,,,,,,,,,,D 0.35, 0.0,,,,,,,,,,,,,,,,,,,,,,,,,,,,,,,,Not Out (0),Not Out (0),,,,,,,
95.750,,,,,,,,,,,,,,,D 0.35,,,,,,,,,,,,,,,,,,,,,,,,,,,,,,,,,,,,,,,,,
96.000,,A319 (5),,EFHK,FIN63G  ,16,,14,,,G - Gnd (7),0,0.0,0.00,D 0.35, 0.0,268,,N60 04.99,,51.7,58.6,352,405,,,,1.4,63,460,529,0.000,0.000,18.9,19.0,59.4,59.9,-2.8,-2.8,F/CLSD (0),N/CLSD (1),Gear down - ground (3),Gnd (1),0.0,4.1,Normal (0),Normal (0),Not Out (0),Not Out (0), 0.0, 0.0, 0.0, 0.0, 0.0, 0.0,NOTCMD (0)
96.250,,,,,,,,,,,,,,,D 0.35,,,,,,,,,,,,,,,,,,,,,,,,,,,,,,,,,,,,,,,,,
96.500,,,,,,,,,,,,,,,D 0.35, 0.0,,,,,,,,,,,,,,,,,,,,,,,,,,,,,,,,Not Out (0),Not Out (0),,,,,,,
96.750,,,,,,,,,,,,,,,D 0.35,,,,,,,,,,,,,,,,,,,,,,,,,,,,,,,,,,,,,,,,,
97.000,.OH-LVL,,EDDT,,,,6,,,,G - Gnd (7),0,0.0,,D 0.35, 0.0,268,1009,,,51.7,58.6,357,410,,18.0,,,,463,536,0.000,0.000,18.9,19.1,59.4,60.1,-2.8,-2.8,,,Gear down - ground (3),Gnd (1),,,Normal (0),Normal (0),Not Out (0),Not Out (0), 0.0, 0.0, 0.0, 0.0, 0.0, 0.0,
97.250,,,,,,,,,,,,,,,D 0.35,,,,,,,,,,,,,,,,,,,,,,,,,,,,,,,,,,,,,,,,,
97.500,,,,,,,,,,,,,,,D 0.35, 0.0,,,,,,,,,,,,,,,,,,,,,,,,,,,,,,,,Not Out (0),Not Out (0),,,,,,,
97.750,,,,,,,,,,,,,,,D 0.35,,,,,,,,,,,,,,,,,,,,,,,,,,,,,,,,,,,,,,,,,
98.000,,,,,,,,,,,G - Gnd (7),0,0.0,,D 0.35, 0.0,268,,,E024 57.78,51.7,58.6,356,406,59676,,0.00,,,466,541,0.000,0.000,18.9,19.1,59.4,60.3,-2.8,-2.8,F/CLSD (0),N/CLSD (1),Gear down - ground (3),Gnd (1),1.0,7.5,Normal (0),Normal (0),Not Out (0),Not Out (0), 0.0, 0.0, 0.0, 0.0, 0.0, 0.0,
98.250,,,,,,,,,,,,,,,D 0.35,,,,,,,,,,,,,,,,,,,,,,,,,,,,,,,,,,,,,,,,,
98.500,,,,,,,,,,,,,,,D 0.35, 0.0,,,,,,,,,,,,,,,,,,,,,,,,,,,,,,,,Not Out (0),Not Out (0),,,,,,,
98.750,,,,,,,,,,,,,,,D 0.35,,,,,,,,,,,,,,,,,,,,,,,,,,,,,,,,,,,,,,,,,
99.000,,,,,,,,,8,10,G - Gnd (7),0,0.0,,D 0.35, 0.0,268,,,,51.7,58.6,354,394,,18.0,,,,468,544,0.000,0.000,18.9,19.3,59.4,60.3,-2.8,-2.8,,,Gear down - ground (3),Gnd (1),,,Normal (0),Normal (0),Not Out (0),Not Out (0), 0.0, 0.0, 0.0, 0.0, 0.0, 0.0,
99.250,,,,,,,,,,,,,,,D 0.35,,,,,,,,,,,,,,,,,,,,,,,,,,,,,,,,,,,,,,,,,
99.500,,,,,,,,,,,,,,,D 0.35, 0.0,,,,,,,,,,,,,,,,,,,,,,,,,,,,,,,,Not Out (0),Not Out (0),,,,,,,
99.750,,,,,,,,,,,,,,,D 0.35,,,,,,,,,,,,,,,,,,,,,,,,,,,,,,,,,,,,,,,,,
100.000,,A319 (5),,EFHK,FIN63G  ,16,,14,,,G - Gnd (7),0,0.0,0.00,D 0.35, 0.0,268,,N60 04.99,,51.7,58.6,350,388,,,,1.4,63,471,547,0.000,0.000,18.9,19.3,59.5,60.4,-2.8,-2.8,F/CLSD (0),N/CLSD (1),Gear down - ground (3),Gnd (1),1.0,9.8,Normal (0),Normal (0),Not Out (0),Not Out (0), 0.0, 0.0, 0.0, 0.0, 0.0, 0.0,NOTCMD (0)
100.250,,,,,,,,,,,,,,,D 0.35,,,,,,,,,,,,,,,,,,,,,,,,,,,,,,,,,,,,,,,,,
100.500,,,,,,,,,,,,,,,D 0.35, 0.0,,,,,,,,,,,,,,,,,,,,,,,,,,,,,,,,Not Out (0),Not Out (0),,,,,,,
100.750,,,,,,,,,,,,,,,D 0.35,,,,,,,,,,,,,,,,,,,,,,,,,,,,,,,,,,,,,,,,,
101.000,.OH-LVL,,EDDT,,,,6,,,,G - Gnd (7),0,0.0,,D 0.35, 0.0,268,1009,,,51.7,58.6,343,385,,18.0,,,,472,549,0.000,0.000,18.9,19.1,59.5,60.4,-2.8,-2.8,,,Gear down - ground (3),Gnd (1),,,Normal (0),Normal (0),Not Out (0),Not Out (0), 0.0, 0.0, 0.0, 0.0, 0.0, 0.0,
101.250,,,,,,,,,,,,,,,D 0.35,,,,,,,,,,,,,,,,,,,,,,,,,,,,,,,,,,,,,,,,,
101.500,,,,,,,,,,,,,,,D 0.35, 0.0,,,,,,,,,,,,,,,,,,,,,,,,,,,,,,,,Not Out (0),Not Out (0),,,,,,,
101.750,,,,,,,,,,,,,,,D 0.35,,,,,,,,,,,,,,,,,,,,,,,,,,,,,,,,,,,,,,,,,
102.000,,,,,,,,,,,G - Gnd (7),0,0.0,,D 0.35, 0.0,268,,,E024 57.78,51.7,58.6,350,379,59676,,0.00,,,474,551,0.000,0.000,18.9,19.1,59.5,60.4,-2.8,-2.8,F/CLSD (0),N/CLSD (1),Gear down - ground (3),Gnd (1),1.5,10.0,Normal (0),Normal (0),Not Out (0),Not Out (0), 0.0, 0.0, 0.0, 0.0, 0.0, 0.0,
102.250,,,,,,,,,,,,,,,D 0.35,,,,,,,,,,,,,,,,,,,,,,,,,,,,,,,,,,,,,,,,,
102.500,,,,,,,,,,,,,,,D 0.35, 0.0,,,,,,,,,,,,,,,,,,,,,,,,,,,,,,,,Not Out (0),Not Out (0),,,,,,,
102.750,,,,,,,,,,,,,,,D 0.35,,,,,,,,,,,,,,,,,,,,,,,,,,,,,,,,,,,,,,,,,
103.000,,,,,,,,,8,14,G - Gnd (7),0,0.0,,D 0.35, 0.0,268,,,,51.7,58.6,343,379,,18.0,,,,476,552,0.000,0.000,19.0,19.1,59.5,60.4,-2.8,-2.8,,,Gear down - ground (3),Gnd (1),,,Normal (0),Normal (0),Not Out (0),Not Out (0), 0.0, 0.0, 0.0, 0.0, 0.0, 0.0,
103.250,,,,,,,,,,,,,,,D 0.35,,,,,,,,,,,,,,,,,,,,,,,,,,,,,,,,,,,,,,,,,
103.500,,,,,,,,,,,,,,,D 0.35, 0.0,,,,,,,,,,,,,,,,,,,,,,,,,,,,,,,,Not Out (0),Not Out (0),,,,,,,
103.750,,,,,,,,,,,,,,,D 0.35,,,,,,,,,,,,,,,,,,,,,,,,,,,,,,,,,,,,,,,,,
104.000,,A319 (5),,EFHK,FIN63G  ,16,,14,,,G - Gnd (7),0,0.0,0.00,D 0.35, 0.0,268,,N60 04.99,,51.7,58.6,361,377,,,,1.4,63,476,553,0.000,0.000,18.9,19.1,59.5,60.4,-2.8,-2.8,N/CLSD (1),N/CLSD (1),Gear down - ground (3),Gnd (1),1.5,10.0,Normal (0),Normal (0),Not Out (0),Not Out (0), 0.0, 0.0, 0.0, 0.0, 0.0, 0.0,NOTCMD (0)
104.250,,,,,,,,,,,,,,,D 0.35,,,,,,,,,,,,,,,,,,,,,,,,,,,,,,,,,,,,,,,,,
104.500,,,,,,,,,,,,,,,D 0.35, 0.0,,,,,,,,,,,,,,,,,,,,,,,,,,,,,,,,Not Out (0),Not Out (0),,,,,,,
104.750,,,,,,,,,,,,,,,D 0.35,,,,,,,,,,,,,,,,,,,,,,,,,,,,,,,,,,,,,,,,,
105.000,.OH-LVL,,EDDT,,,,6,,,,G - Gnd (7),0,0.0,,D 0.35, 0.0,268,1009,,,51.7,58.6,392,377,,18.0,,,,482,555,0.000,0.000,18.9,19.1,59.8,60.4,-2.8,-2.8,,,Gear down - ground (3),Gnd (1),,,Normal (0),Normal (0),Not Out (0),Not Out (0), 0.0, 0.0, 0.0, 0.0, 0.0, 0.0,
105.250,,,,,,,,,,,,,,,D 0.35,,,,,,,,,,,,,,,,,,,,,,,,,,,,,,,,,,,,,,,,,
105.500,,,,,,,,,,,,,,,D 0.35, 0.0,,,,,,,,,,,,,,,,,,,,,,,,,,,,,,,,Not Out (0),Not Out (0),,,,,,,
105.750,,,,,,,,,,,,,,,D 0.35,,,,,,,,,,,,,,,,,,,,,,,,,,,,,,,,,,,,,,,,,
106.000,,,,,,,,,,,G - Gnd (7),0,0.0,,D 0.35, 0.0,268,,,E024 57.78,51.7,58.6,399,381,59676,,0.00,,,488,556,0.000,0.000,18.9,19.3,60.0,60.4,-2.8,-2.8,N/CLSD (1),N/CLSD (1),Gear down - ground (3),Gnd (1),1.5,10.0,Normal (0),Normal (0),Not Out (0),Not Out (0), 0.0, 0.0, 0.0, 0.0, 0.0, 0.0,
106.250,,,,,,,,,,,,,,,D 0.35,,,,,,,,,,,,,,,,,,,,,,,,,,,,,,,,,,,,,,,,,
106.500,,,,,,,,,,,,,,,D 0.35, 0.0,,,,,,,,,,,,,,,,,,,,,,,,,,,,,,,,Not Out (0),Not Out (0),,,,,,,
106.750,,,,,,,,,,,,,,,D 0.35,,,,,,,,,,,,,,,,,,,,,,,,,,,,,,,,,,,,,,,,,
107.000,,,,,,,,,8,18,G - Gnd (7),0,0.0,,D 0.35, 0.0,268,,,,51.7,58.6,397,377,,18.0,,,,494,557,0.000,0.000,19.0,19.3,60.3,60.4,-2.8,-2.8,,,Gear down - ground (3),Gnd (1),,,Normal (0),Normal (0),Not Out (0),Not Out (0), 0.0, 0.0, 0.0, 0.0, 0.0, 0.0,
107.250,,,,,,,,,,,,,,,D 0.35,,,,,,,,,,,,,,,,,,,,,,,,,,,,,,,,,,,,,,,,,
107.500,,,,,,,,,,,,,,,D 0.35, 0.0,,,,,,,,,,,,,,,,,,,,,,,,,,,,,,,,Not Out (0),Not Out (0),,,,,,,
107.750,,,,,,,,,,,,,,,D 0.35,,,,,,,,,,,,,,,,,,,,,,,,,,,,,,,,,,,,,,,,,
108.000,,A319 (5),,EFHK,FIN63G  ,16,,14,,,G - Gnd (7),0,0.0,0.00,D 0.35, 0.0,268,,N60 04.99,,51.7,58.6,390,377,,,,1.4,63,499,558,0.000,0.000,19.0,19.1,60.4,60.4,-2.8,-2.8,N/CLSD (1),N/CLSD (1),Gear down - ground (3),Gnd (1),1.5,10.0,Normal (0),Normal (0),Not Out (0),Not Out (0), 0.0, 0.0, 0.0, 0.0, 0.0, 0.0,NOTCMD (0)
108.250,,,,,,,,,,,,,,,D 0.35,,,,,,,,,,,,,,,,,,,,,,,,,,,,,,,,,,,,,,,,,
108.500,,,,,,,,,,,,,,,D 0.35, 0.0,,,,,,,,,,,,,,,,,,,,,,,,,,,,,,,,Not Out (0),Not Out (0),,,,,,,
108.750,,,,,,,,,,,,,,,D 0.35,,,,,,,,,,,,,,,,,,,,,,,,,,,,,,,,,,,,,,,,,
109.000,.OH-LVL,,EDDT,,,,6,,,,G - Gnd (7),0,0.0,,D 0.35, 0.0,268,1009,,,51.7,58.6,379,379,,18.0,,,,502,560,0.000,0.000,19.0,19.1,60.4,60.4,-2.8,-2.8,,,Gear down - ground (3),Gnd (1),,,Normal (0),Normal (0),Not Out (0),Not Out (0), 0.0, 0.0, 0.0, 0.0, 0.0, 0.0,
109.250,,,,,,,,,,,,,,,D 0.35,,,,,,,,,,,,,,,,,,,,,,,,,,,,,,,,,,,,,,,,,
109.500,,,,,,,,,,,,,,,D 0.35, 0.0,,,,,,,,,,,,,,,,,,,,,,,,,,,,,,,,Not Out (0),Not Out (0),,,,,,,
109.750,,,,,,,,,,,,,,,D 0.35,,,,,,,,,,,,,,,,,,,,,,,,,,,,,,,,,,,,,,,,,
110.000,,,,,,,,,,,G - Gnd (7),0,0.0,,D 0.35, 0.0,268,,,E024 57.78,51.7,58.6,377,379,59676,,0.00,,,505,561,0.000,0.000,19.0,19.3,60.5,60.4,-2.8,-2.8,N/CLSD (1),N/CLSD (1),Gear down - ground (3),Gnd (1),1.5,10.0,Normal (0),Normal (0),Not Out (0),Not Out (0), 0.0, 0.0, 0.0, 0.0, 0.0, 0.0,
110.250,,,,,,,,,,,,,,,D 0.35,,,,,,,,,,,,,,,,,,,,,,,,,,,,,,,,,,,,,,,,,
110.500,,,,,,,,,,,,,,,D 0.35, 0.0,,,,,,,,,,,,,,,,,,,,,,,,,,,,,,,,Not Out (0),Not Out (0),,,,,,,
110.750,,,,,,,,,,,,,,,D 0.35,,,,,,,,,,,,,,,,,,,,,,,,,,,,,,,,,,,,,,,,,
111.000,,,,,,,,,8,22,G - Gnd (7),0,0.0,,D 0.35, 0.0,268,,,,51.7,58.6,372,383,,18.0,,,,507,563,0.000,0.000,19.0,19.3,60.4,60.4,-2.8,-2.8,,,Gear down - ground (3),Gnd (1),,,Normal (0),Normal (0),Not Out (0),Not Out (0), 0.0, 0.0, 0.0, 0.0, 0.0, 0.0,
111.250,,,,,,,,,,,,,,,D 0.35,,,,,,,,,,,,,,,,,,,,,,,,,,,,,,,,,,,,,,,,,
111.500,,,,,,,,,,,,,,,D 0.35, 0.0,,,,,,,,,,,,,,,,,,,,,,,,,,,,,,,,Not Out (0),Not Out (0),,,,,,,
111.750,,,,,,,,,,,,,,,D 0.35,,,,,,,,,,,,,,,,,,,,,,,,,,,,,,,,,,,,,,,,,
