Time (secs),A/C Tail Number,A/C Type,City Pair - To,City Pair - From,Flight Number,Date - Day,Date - Month,UTC - Hour,UTC - Minute,UTC - Second,Air / Gnd,Ground Speed,Computed Airspeed,Mach (derived),Pitch Angle,Roll Angle,Altitude (1013.25mB),Selected Baro Setting Capt,Present Pos - Latitude,Present Pos - Longitude,Magnetic Heading,True Heading,Fuel Flow Eng 1,Fuel Flow Eng 2,Actual Gross Weight,Total Air Temp,Drift Angle,Wind Direction True,Wind Speed,EGT Eng 1,EGT Eng 2,_EPR Actual Eng 1,_EPR Actual Eng 2,N1 Actual Eng 1,N1 Actual Eng 2,N2 Actual Eng 1,N2 Actual Eng 2,Throttle Angle Eng 1,Throttle Angle Eng 2,Pack 1 Flow Ctl Valve,Pack 2 Flow Ctl Valve,Gear (left),Land Gear Squat Switch - Nose,Flap Handle (derived),Flap Angle,Reverser Deployed Eng 1,Reverser Deployed Eng 2,Left Spoiler 1 Out,Right Spoiler 1 Out,Spoiler Pos LH 2,Spoiler Pos LH 4,Spoiler Pos LH 5,Spoiler Pos RH 2,Spoiler Pos RH 3,Spoiler Pos RH 5,Speed Brake Command
0.000,,*A319 (5),,*EKCH,*FIN83H  ,*16,,*5,,,*G - Gnd (7),*0,*0.0,*0.00,*D 1.05,*L 0.4,*188,,*N55 24.18,,*113.2,*115.0,*0,*437,,,,*0.0,*0,*22,*439,*0.098,*0.229,*0.0,*18.1,*0.0,*56.0,*-2.8,*-2.8,*F/CLSD (0),*F/CLSD (0),*Gear down - ground (3),*Gnd (1),*0.0,*0.0,*Normal (0),*Normal (0),*Not Out (0),*Not Out (0),* 0.0,* 0.0,* 0.0,* 0.0,* 0.0,* 0.0,*NOTCMD (0)
0.250,,,,,,,,,,,,,,,*D 1.05,,,,,,,,,,,,,,,,,,,,,,,,,,,,,,,,,,,,,,,,,
0.500,,,,,,,,,,,,,,,*D 1.05,*L 0.4,,,,,,,,,,,,,,,,,,,,,,,,,,,,,,,,*Not Out (0),*Not Out (0),,,,,,,
0.750,,,,,,,,,,,,,,,*D 1.05,,,,,,,,,,,,,,,,,,,,,,,,,,,,,,,,,,,,,,,,,
1.000,*.OH-LVI,,*EFHK,,,,*6,,,,*G - Gnd (7),*0,*0.0,,*D 1.05,*L 0.4,*188,*1007,,,*113.2,*115.0,*0,*452,,*15.8,,,,*22,*446,*0.098,*0.234,*0.0,*18.6,*0.5,*56.8,*-2.8,*-2.8,,,*Gear down - ground (3),*Gnd (1),,,*Normal (0),*Normal (0),*Not Out (0),*Not Out (0),*U 0.1,* 0.0,* 0.0,* 0.0,* 0.0,* 0.0,
1.250,,,,,,,,,,,,,,,*D 1.05,,,,,,,,,,,,,,,,,,,,,,,,,,,,,,,,,,,,,,,,,
1.500,,,,,,,,,,,,,,,*D 1.05,*L 0.4,,,,,,,,,,,,,,,,,,,,,,,,,,,,,,,,*Not Out (0),*Not Out (0),,,,,,,
1.750,,,,,,,,,,,,,,,*D 1.05,,,,,,,,,,,,,,,,,,,,,,,,,,,,,,,,,,,,,,,,,
2.000,,,,,,,,,,,*G - Gnd (7),*0,*0.0,,*D 1.05,*L 0.4,*188,,,*E012 39.38,*113.2,*115.0,*0,*463,*0,,*0.00,,,*22,*453,*0.078,*0.242,*0.0,*19.1,*2.3,*57.6,*-2.8,*-2.8,*F/CLSD (0),*F/CLSD (0),*Gear down - ground (3),*Gnd (1),*0.0,*0.0,*Normal (0),*Normal (0),*Not Out (0),*Not Out (0),*U 0.1,* 0.0,* 0.0,* 0.0,* 0.0,* 0.0,
2.250,,,,,,,,,,,,,,,*D 1.05,,,,,,,,,,,,,,,,,,,,,,,,,,,,,,,,,,,,,,,,,
2.500,,,,,,,,,,,,,,,*D 1.05,*L 0.4,,,,,,,,,,,,,,,,,,,,,,,,,,,,,,,,*Not Out (0),*Not Out (0),,,,,,,
2.750,,,,,,,,,,,,,,,*D 1.05,,,,,,,,,,,,,,,,,,,,,,,,,,,,,,,,,,,,,,,,,
3.000,,,,,,,,,*16,*37,*G - Gnd (7),*0,*0.0,,*D 1.05,*L 0.4,*188,,,,*113.2,*115.0,*0,*477,,*15.8,,,,*22,*459,*1.963,*0.250,*0.0,*19.6,*4.3,*58.6,*-2.8,*-2.8,,,*Gear down - ground (3),*Gnd (1),,,*Normal (0),*Normal (0),*Not Out (0),*Not Out (0),*U 0.1,* 0.0,* 0.0,* 0.0,* 0.0,* 0.0,
3.250,,,,,,,,,,,,,,,*D 1.05,,,,,,,,,,,,,,,,,,,,,,,,,,,,,,,,,,,,,,,,,
3.500,,,,,,,,,,,,,,,*D 1.05,*L 0.4,,,,,,,,,,,,,,,,,,,,,,,,,,,,,,,,*Not Out (0),*Not Out (0),,,,,,,
3.750,,,,,,,,,,,,,,,*D 1.05,,,,,,,,,,,,,,,,,,,,,,,,,,,,,,,,,,,,,,,,,
4.000,,*A319 (5),,*EKCH,*FIN83H  ,*16,,*5,,,*G - Gnd (7),*0,*0.0,*0.00,*D 1.05,*L 0.4,*188,,*N55 24.18,,*113.2,*115.0,*0,*437,,,,*0.0,*0,*22,*439,*0.098,*0.229,*0.0,*18.1,*0.0,*56.0,*-2.8,*-2.8,*F/CLSD (0),*F/CLSD (0),*Gear down - ground (3),*Gnd (1),*0.0,*0.0,*Normal (0),*Normal (0),*Not Out (0),*Not Out (0),* 0.0,* 0.0,* 0.0,* 0.0,* 0.0,* 0.0,*NOTCMD (0)
4.250,,,,,,,,,,,,,,,*D 1.05,,,,,,,,,,,,,,,,,,,,,,,,,,,,,,,,,,,,,,,,,
4.500,,,,,,,,,,,,,,,*D 1.05,*L 0.4,,,,,,,,,,,,,,,,,,,,,,,,,,,,,,,,*Not Out (0),*Not Out (0),,,,,,,
4.750,,,,,,,,,,,,,,,*D 1.05,,,,,,,,,,,,,,,,,,,,,,,,,,,,,,,,,,,,,,,,,
5.000,*.OH-LVI,,*EFHK,,,,*6,,,,*G - Gnd (7),*0,*0.0,,*D 1.05,*L 0.4,*188,*1007,,,*113.2,*115.0,*0,*452,,*15.8,,,,*22,*446,*0.098,*0.234,*0.0,*18.6,*0.5,*56.8,*-2.8,*-2.8,,,*Gear down - ground (3),*Gnd (1),,,*Normal (0),*Normal (0),*Not Out (0),*Not Out (0),*U 0.1,* 0.0,* 0.0,* 0.0,* 0.0,* 0.0,
5.250,,,,,,,,,,,,,,,*D 1.05,,,,,,,,,,,,,,,,,,,,,,,,,,,,,,,,,,,,,,,,,
5.500,,,,,,,,,,,,,,,*D 1.05,*L 0.4,,,,,,,,,,,,,,,,,,,,,,,,,,,,,,,,*Not Out (0),*Not Out (0),,,,,,,
5.750,,,,,,,,,,,,,,,*D 1.05,,,,,,,,,,,,,,,,,,,,,,,,,,,,,,,,,,,,,,,,,
6.000,,,,,,,,,,,*G - Gnd (7),*0,*0.0,,*D 1.05,*L 0.4,*188,,,*E012 39.38,*113.2,*115.0,*0,*463,*0,,*0.00,,,*22,*453,*0.078,*0.242,*0.0,*19.1,*2.3,*57.6,*-2.8,*-2.8,*F/CLSD (0),*F/CLSD (0),*Gear down - ground (3),*Gnd (1),*0.0,*0.0,*Normal (0),*Normal (0),*Not Out (0),*Not Out (0),*U 0.1,* 0.0,* 0.0,* 0.0,* 0.0,* 0.0,
6.250,,,,,,,,,,,,,,,*D 1.05,,,,,,,,,,,,,,,,,,,,,,,,,,,,,,,,,,,,,,,,,
6.500,,,,,,,,,,,,,,,*D 1.05,*L 0.4,,,,,,,,,,,,,,,,,,,,,,,,,,,,,,,,*Not Out (0),*Not Out (0),,,,,,,
6.750,,,,,,,,,,,,,,,*D 1.05,,,,,,,,,,,,,,,,,,,,,,,,,,,,,,,,,,,,,,,,,
7.000,,,,,,,,,*16,*37,*G - Gnd (7),*0,*0.0,,*D 1.05,*L 0.4,*188,,,,*113.2,*115.0,*0,*477,,*15.8,,,,*22,*459,*1.963,*0.250,*0.0,*19.6,*4.3,*58.6,*-2.8,*-2.8,,,*Gear down - ground (3),*Gnd (1),,,*Normal (0),*Normal (0),*Not Out (0),*Not Out (0),*U 0.1,* 0.0,* 0.0,* 0.0,* 0.0,* 0.0,
7.250,,,,,,,,,,,,,,,*D 1.05,,,,,,,,,,,,,,,,,,,,,,,,,,,,,,,,,,,,,,,,,
7.500,,,,,,,,,,,,,,,*D 1.05,*L 0.4,,,,,,,,,,,,,,,,,,,,,,,,,,,,,,,,*Not Out (0),*Not Out (0),,,,,,,
7.750,,,,,,,,,,,,,,,*D 1.05,,,,,,,,,,,,,,,,,,,,,,,,,,,,,,,,,,,,,,,,,
8.000,,*A319 (5),,*EKCH,*FIN83H  ,*16,,*5,,,*G - Gnd (7),*0,*0.0,*0.00,*D 1.05,*L 0.4,*188,,*N55 24.18,,*113.2,*115.0,*0,*437,,,,*0.0,*0,*22,*439,*0.098,*0.229,*0.0,*18.1,*0.0,*56.0,*-2.8,*-2.8,*F/CLSD (0),*F/CLSD (0),*Gear down - ground (3),*Gnd (1),*0.0,*0.0,*Normal (0),*Normal (0),*Not Out (0),*Not Out (0),* 0.0,* 0.0,* 0.0,* 0.0,* 0.0,* 0.0,*NOTCMD (0)
8.250,,,,,,,,,,,,,,,*D 1.05,,,,,,,,,,,,,,,,,,,,,,,,,,,,,,,,,,,,,,,,,
8.500,,,,,,,,,,,,,,,*D 1.05,*L 0.4,,,,,,,,,,,,,,,,,,,,,,,,,,,,,,,,*Not Out (0),*Not Out (0),,,,,,,
8.750,,,,,,,,,,,,,,,*D 1.05,,,,,,,,,,,,,,,,,,,,,,,,,,,,,,,,,,,,,,,,,
9.000,*.OH-LVI,,*EFHK,,,,*6,,,,*G - Gnd (7),*0,*0.0,,*D 1.05,*L 0.4,*188,*1007,,,*113.2,*115.0,*0,*452,,*15.8,,,,*22,*446,*0.098,*0.234,*0.0,*18.6,*0.5,*56.8,*-2.8,*-2.8,,,*Gear down - ground (3),*Gnd (1),,,*Normal (0),*Normal (0),*Not Out (0),*Not Out (0),*U 0.1,* 0.0,* 0.0,* 0.0,* 0.0,* 0.0,
9.250,,,,,,,,,,,,,,,*D 1.05,,,,,,,,,,,,,,,,,,,,,,,,,,,,,,,,,,,,,,,,,
9.500,,,,,,,,,,,,,,,*D 1.05,*L 0.4,,,,,,,,,,,,,,,,,,,,,,,,,,,,,,,,*Not Out (0),*Not Out (0),,,,,,,
9.750,,,,,,,,,,,,,,,*D 1.05,,,,,,,,,,,,,,,,,,,,,,,,,,,,,,,,,,,,,,,,,
10.000,,,,,,,,,,,*G - Gnd (7),*0,*0.0,,*D 1.05,*L 0.4,*188,,,*E012 39.38,*113.2,*115.0,*0,*463,*0,,*0.00,,,*22,*453,*0.078,*0.242,*0.0,*19.1,*2.3,*57.6,*-2.8,*-2.8,*F/CLSD (0),*F/CLSD (0),*Gear down - ground (3),*Gnd (1),*0.0,*0.0,*Normal (0),*Normal (0),*Not Out (0),*Not Out (0),*U 0.1,* 0.0,* 0.0,* 0.0,* 0.0,* 0.0,
10.250,,,,,,,,,,,,,,,*D 1.05,,,,,,,,,,,,,,,,,,,,,,,,,,,,,,,,,,,,,,,,,
10.500,,,,,,,,,,,,,,,*D 1.05,*L 0.4,,,,,,,,,,,,,,,,,,,,,,,,,,,,,,,,*Not Out (0),*Not Out (0),,,,,,,
10.750,,,,,,,,,,,,,,,*D 1.05,,,,,,,,,,,,,,,,,,,,,,,,,,,,,,,,,,,,,,,,,
11.000,,,,,,,,,*16,*37,*G - Gnd (7),*0,*0.0,,*D 1.05,*L 0.4,*188,,,,*113.2,*115.0,*0,*477,,*15.8,,,,*22,*459,*1.963,*0.250,*0.0,*19.6,*4.3,*58.6,*-2.8,*-2.8,,,*Gear down - ground (3),*Gnd (1),,,*Normal (0),*Normal (0),*Not Out (0),*Not Out (0),*U 0.1,* 0.0,* 0.0,* 0.0,* 0.0,* 0.0,
11.250,,,,,,,,,,,,,,,*D 1.05,,,,,,,,,,,,,,,,,,,,,,,,,,,,,,,,,,,,,,,,,
11.500,,,,,,,,,,,,,,,*D 1.05,*L 0.4,,,,,,,,,,,,,,,,,,,,,,,,,,,,,,,,*Not Out (0),*Not Out (0),,,,,,,
11.750,,,,,,,,,,,,,,,*D 1.05,,,,,,,,,,,,,,,,,,,,,,,,,,,,,,,,,,,,,,,,,
12.000,,*A319 (5),,*EKCH,*FIN83H  ,*16,,*5,,,*G - Gnd (7),*0,*0.0,*0.00,*D 1.05,*L 0.4,*188,,*N55 24.18,,*113.2,*115.0,*0,*437,,,,*0.0,*0,*22,*439,*0.098,*0.229,*0.0,*18.1,*0.0,*56.0,*-2.8,*-2.8,*F/CLSD (0),*F/CLSD (0),*Gear down - ground (3),*Gnd (1),*0.0,*0.0,*Normal (0),*Normal (0),*Not Out (0),*Not Out (0),* 0.0,* 0.0,* 0.0,* 0.0,* 0.0,* 0.0,*NOTCMD (0)
12.250,,,,,,,,,,,,,,,*D 1.05,,,,,,,,,,,,,,,,,,,,,,,,,,,,,,,,,,,,,,,,,
12.500,,,,,,,,,,,,,,,*D 1.05,*L 0.4,,,,,,,,,,,,,,,,,,,,,,,,,,,,,,,,*Not Out (0),*Not Out (0),,,,,,,
12.750,,,,,,,,,,,,,,,*D 1.05,,,,,,,,,,,,,,,,,,,,,,,,,,,,,,,,,,,,,,,,,
13.000,*.OH-LVI,,*EFHK,,,,*6,,,,*G - Gnd (7),*0,*0.0,,*D 1.05,*L 0.4,*188,*1007,,,*113.2,*115.0,*0,*452,,*15.8,,,,*22,*446,*0.098,*0.234,*0.0,*18.6,*0.5,*56.8,*-2.8,*-2.8,,,*Gear down - ground (3),*Gnd (1),,,*Normal (0),*Normal (0),*Not Out (0),*Not Out (0),*U 0.1,* 0.0,* 0.0,* 0.0,* 0.0,* 0.0,
13.250,,,,,,,,,,,,,,,*D 1.05,,,,,,,,,,,,,,,,,,,,,,,,,,,,,,,,,,,,,,,,,
13.500,,,,,,,,,,,,,,,*D 1.05,*L 0.4,,,,,,,,,,,,,,,,,,,,,,,,,,,,,,,,*Not Out (0),*Not Out (0),,,,,,,
13.750,,,,,,,,,,,,,,,*D 1.05,,,,,,,,,,,,,,,,,,,,,,,,,,,,,,,,,,,,,,,,,
14.000,,,,,,,,,,,*G - Gnd (7),*0,*0.0,,*D 1.05,*L 0.4,*188,,,*E012 39.38,*113.2,*115.0,*0,*463,*0,,*0.00,,,*22,*453,*0.078,*0.242,*0.0,*19.1,*2.3,*57.6,*-2.8,*-2.8,*F/CLSD (0),*F/CLSD (0),*Gear down - ground (3),*Gnd (1),*0.0,*0.0,*Normal (0),*Normal (0),*Not Out (0),*Not Out (0),*U 0.1,* 0.0,* 0.0,* 0.0,* 0.0,* 0.0,
14.250,,,,,,,,,,,,,,,*D 1.05,,,,,,,,,,,,,,,,,,,,,,,,,,,,,,,,,,,,,,,,,
14.500,,,,,,,,,,,,,,,*D 1.05,*L 0.4,,,,,,,,,,,,,,,,,,,,,,,,,,,,,,,,*Not Out (0),*Not Out (0),,,,,,,
14.750,,,,,,,,,,,,,,,*D 1.05,,,,,,,,,,,,,,,,,,,,,,,,,,,,,,,,,,,,,,,,,
15.000,,,,,,,,,*16,*37,*G - Gnd (7),*0,*0.0,,*D 1.05,*L 0.4,*188,,,,*113.2,*115.0,*0,*477,,*15.8,,,,*22,*459,*1.963,*0.250,*0.0,*19.6,*4.3,*58.6,*-2.8,*-2.8,,,*Gear down - ground (3),*Gnd (1),,,*Normal (0),*Normal (0),*Not Out (0),*Not Out (0),*U 0.1,* 0.0,* 0.0,* 0.0,* 0.0,* 0.0,
15.250,,,,,,,,,,,,,,,*D 1.05,,,,,,,,,,,,,,,,,,,,,,,,,,,,,,,,,,,,,,,,,
15.500,,,,,,,,,,,,,,,*D 1.05,*L 0.4,,,,,,,,,,,,,,,,,,,,,,,,,,,,,,,,*Not Out (0),*Not Out (0),,,,,,,
15.750,,,,,,,,,,,,,,,*D 1.05,,,,,,,,,,,,,,,,,,,,,,,,,,,,,,,,,,,,,,,,,
16.000,,*A319 (5),,*EKCH,*FIN83H  ,*16,,*5,,,*G - Gnd (7),*0,*0.0,*0.00,*D 1.05,*L 0.4,*188,,*N55 24.18,,*113.2,*115.0,*0,*437,,,,*0.0,*0,*22,*439,*0.098,*0.229,*0.0,*18.1,*0.0,*56.0,*-2.8,*-2.8,*F/CLSD (0),*F/CLSD (0),*Gear down - ground (3),*Gnd (1),*0.0,*0.0,*Normal (0),*Normal (0),*Not Out (0),*Not Out (0),* 0.0,* 0.0,* 0.0,* 0.0,* 0.0,* 0.0,*NOTCMD (0)
16.250,,,,,,,,,,,,,,,*D 1.05,,,,,,,,,,,,,,,,,,,,,,,,,,,,,,,,,,,,,,,,,
16.500,,,,,,,,,,,,,,,*D 1.05,*L 0.4,,,,,,,,,,,,,,,,,,,,,,,,,,,,,,,,*Not Out (0),*Not Out (0),,,,,,,
16.750,,,,,,,,,,,,,,,*D 1.05,,,,,,,,,,,,,,,,,,,,,,,,,,,,,,,,,,,,,,,,,
17.000,*.OH-LVI,,*EFHK,,,,*6,,,,*G - Gnd (7),*0,*0.0,,*D 1.05,*L 0.4,*188,*1007,,,*113.2,*115.0,*0,*452,,*15.8,,,,*22,*446,*0.098,*0.234,*0.0,*18.6,*0.5,*56.8,*-2.8,*-2.8,,,*Gear down - ground (3),*Gnd (1),,,*Normal (0),*Normal (0),*Not Out (0),*Not Out (0),*U 0.1,* 0.0,* 0.0,* 0.0,* 0.0,* 0.0,
17.250,,,,,,,,,,,,,,,*D 1.05,,,,,,,,,,,,,,,,,,,,,,,,,,,,,,,,,,,,,,,,,
17.500,,,,,,,,,,,,,,,*D 1.05,*L 0.4,,,,,,,,,,,,,,,,,,,,,,,,,,,,,,,,*Not Out (0),*Not Out (0),,,,,,,
17.750,,,,,,,,,,,,,,,*D 1.05,,,,,,,,,,,,,,,,,,,,,,,,,,,,,,,,,,,,,,,,,
18.000,,,,,,,,,,,*G - Gnd (7),*0,*0.0,,*D 1.05,*L 0.4,*188,,,*E012 39.38,*113.2,*115.0,*0,*463,*0,,*0.00,,,*22,*453,*0.078,*0.242,*0.0,*19.1,*2.3,*57.6,*-2.8,*-2.8,*F/CLSD (0),*F/CLSD (0),*Gear down - ground (3),*Gnd (1),*0.0,*0.0,*Normal (0),*Normal (0),*Not Out (0),*Not Out (0),*U 0.1,* 0.0,* 0.0,* 0.0,* 0.0,* 0.0,
18.250,,,,,,,,,,,,,,,*D 1.05,,,,,,,,,,,,,,,,,,,,,,,,,,,,,,,,,,,,,,,,,
18.500,,,,,,,,,,,,,,,*D 1.05,*L 0.4,,,,,,,,,,,,,,,,,,,,,,,,,,,,,,,,*Not Out (0),*Not Out (0),,,,,,,
18.750,,,,,,,,,,,,,,,*D 1.05,,,,,,,,,,,,,,,,,,,,,,,,,,,,,,,,,,,,,,,,,
19.000,,,,,,,,,*16,*37,*G - Gnd (7),*0,*0.0,,*D 1.05,*L 0.4,*188,,,,*113.2,*115.0,*0,*477,,*15.8,,,,*22,*459,*1.963,*0.250,*0.0,*19.6,*4.3,*58.6,*-2.8,*-2.8,,,*Gear down - ground (3),*Gnd (1),,,*Normal (0),*Normal (0),*Not Out (0),*Not Out (0),*U 0.1,* 0.0,* 0.0,* 0.0,* 0.0,* 0.0,
19.250,,,,,,,,,,,,,,,*D 1.05,,,,,,,,,,,,,,,,,,,,,,,,,,,,,,,,,,,,,,,,,
19.500,,,,,,,,,,,,,,,*D 1.05,*L 0.4,,,,,,,,,,,,,,,,,,,,,,,,,,,,,,,,*Not Out (0),*Not Out (0),,,,,,,
19.750,,,,,,,,,,,,,,,*D 1.05,,,,,,,,,,,,,,,,,,,,,,,,,,,,,,,,,,,,,,,,,
20.000,,*A319 (5),,*EKCH,*FIN83H  ,*16,,*5,,,*G - Gnd (7),*0,*0.0,*0.00,*D 1.05,*L 0.4,*188,,*N55 24.18,,*113.2,*115.0,*0,*437,,,,*0.0,*0,*22,*439,*0.098,*0.229,*0.0,*18.1,*0.0,*56.0,*-2.8,*-2.8,*F/CLSD (0),*F/CLSD (0),*Gear down - ground (3),*Gnd (1),*0.0,*0.0,*Normal (0),*Normal (0),*Not Out (0),*Not Out (0),* 0.0,* 0.0,* 0.0,* 0.0,* 0.0,* 0.0,*NOTCMD (0)
20.250,,,,,,,,,,,,,,,*D 1.05,,,,,,,,,,,,,,,,,,,,,,,,,,,,,,,,,,,,,,,,,
20.500,,,,,,,,,,,,,,,*D 1.05,*L 0.4,,,,,,,,,,,,,,,,,,,,,,,,,,,,,,,,*Not Out (0),*Not Out (0),,,,,,,
20.750,,,,,,,,,,,,,,,*D 1.05,,,,,,,,,,,,,,,,,,,,,,,,,,,,,,,,,,,,,,,,,
21.000,*.OH-LVI,,*EFHK,,,,*6,,,,*G - Gnd (7),*0,*0.0,,*D 1.05,*L 0.4,*188,*1007,,,*113.2,*115.0,*0,*452,,*15.8,,,,*22,*446,*0.098,*0.234,*0.0,*18.6,*0.5,*56.8,*-2.8,*-2.8,,,*Gear down - ground (3),*Gnd (1),,,*Normal (0),*Normal (0),*Not Out (0),*Not Out (0),*U 0.1,* 0.0,* 0.0,* 0.0,* 0.0,* 0.0,
21.250,,,,,,,,,,,,,,,*D 1.05,,,,,,,,,,,,,,,,,,,,,,,,,,,,,,,,,,,,,,,,,
21.500,,,,,,,,,,,,,,,*D 1.05,*L 0.4,,,,,,,,,,,,,,,,,,,,,,,,,,,,,,,,*Not Out (0),*Not Out (0),,,,,,,
21.750,,,,,,,,,,,,,,,*D 1.05,,,,,,,,,,,,,,,,,,,,,,,,,,,,,,,,,,,,,,,,,
22.000,,,,,,,,,,,*G - Gnd (7),*0,*0.0,,*D 1.05,*L 0.4,*188,,,*E012 39.38,*113.2,*115.0,*0,*463,*0,,*0.00,,,*22,*453,*0.078,*0.242,*0.0,*19.1,*2.3,*57.6,*-2.8,*-2.8,*F/CLSD (0),*F/CLSD (0),*Gear down - ground (3),*Gnd (1),*0.0,*0.0,*Normal (0),*Normal (0),*Not Out (0),*Not Out (0),*U 0.1,* 0.0,* 0.0,* 0.0,* 0.0,* 0.0,
22.250,,,,,,,,,,,,,,,*D 1.05,,,,,,,,,,,,,,,,,,,,,,,,,,,,,,,,,,,,,,,,,
22.500,,,,,,,,,,,,,,,*D 1.05,*L 0.4,,,,,,,,,,,,,,,,,,,,,,,,,,,,,,,,*Not Out (0),*Not Out (0),,,,,,,
22.750,,,,,,,,,,,,,,,*D 1.05,,,,,,,,,,,,,,,,,,,,,,,,,,,,,,,,,,,,,,,,,
23.000,,,,,,,,,*16,*37,*G - Gnd (7),*0,*0.0,,*D 1.05,*L 0.4,*188,,,,*113.2,*115.0,*0,*477,,*15.8,,,,*22,*459,*1.963,*0.250,*0.0,*19.6,*4.3,*58.6,*-2.8,*-2.8,,,*Gear down - ground (3),*Gnd (1),,,*Normal (0),*Normal (0),*Not Out (0),*Not Out (0),*U 0.1,* 0.0,* 0.0,* 0.0,* 0.0,* 0.0,
23.250,,,,,,,,,,,,,,,*D 1.05,,,,,,,,,,,,,,,,,,,,,,,,,,,,,,,,,,,,,,,,,
23.500,,,,,,,,,,,,,,,*D 1.05,*L 0.4,,,,,,,,,,,,,,,,,,,,,,,,,,,,,,,,*Not Out (0),*Not Out (0),,,,,,,
23.750,,,,,,,,,,,,,,,*D 1.05,,,,,,,,,,,,,,,,,,,,,,,,,,,,,,,,,,,,,,,,,
24.000,,*A319 (5),,*EKCH,*FIN83H  ,*16,,*5,,,*G - Gnd (7),*0,*0.0,*0.00,*D 1.05,*L 0.4,*188,,*N55 24.18,,*113.2,*115.0,*0,*437,,,,*0.0,*0,*22,*439,*0.098,*0.229,*0.0,*18.1,*0.0,*56.0,*-2.8,*-2.8,*F/CLSD (0),*F/CLSD (0),*Gear down - ground (3),*Gnd (1),*0.0,*0.0,*Normal (0),*Normal (0),*Not Out (0),*Not Out (0),* 0.0,* 0.0,* 0.0,* 0.0,* 0.0,* 0.0,*NOTCMD (0)
24.250,,,,,,,,,,,,,,,*D 1.05,,,,,,,,,,,,,,,,,,,,,,,,,,,,,,,,,,,,,,,,,
24.500,,,,,,,,,,,,,,,*D 1.05,*L 0.4,,,,,,,,,,,,,,,,,,,,,,,,,,,,,,,,*Not Out (0),*Not Out (0),,,,,,,
24.750,,,,,,,,,,,,,,,*D 1.05,,,,,,,,,,,,,,,,,,,,,,,,,,,,,,,,,,,,,,,,,
25.000,*.OH-LVI,,*EFHK,,,,*6,,,,*G - Gnd (7),*0,*0.0,,*D 1.05,*L 0.4,*188,*1007,,,*113.2,*115.0,*0,*452,,*15.8,,,,*22,*446,*0.098,*0.234,*0.0,*18.6,*0.5,*56.8,*-2.8,*-2.8,,,*Gear down - ground (3),*Gnd (1),,,*Normal (0),*Normal (0),*Not Out (0),*Not Out (0),*U 0.1,* 0.0,* 0.0,* 0.0,* 0.0,* 0.0,
25.250,,,,,,,,,,,,,,,*D 1.05,,,,,,,,,,,,,,,,,,,,,,,,,,,,,,,,,,,,,,,,,
25.500,,,,,,,,,,,,,,,*D 1.05,*L 0.4,,,,,,,,,,,,,,,,,,,,,,,,,,,,,,,,*Not Out (0),*Not Out (0),,,,,,,
25.750,,,,,,,,,,,,,,,*D 1.05,,,,,,,,,,,,,,,,,,,,,,,,,,,,,,,,,,,,,,,,,
26.000,,,,,,,,,,,*G - Gnd (7),*0,*0.0,,*D 1.05,*L 0.4,*188,,,*E012 39.38,*113.2,*115.0,*0,*463,*0,,*0.00,,,*22,*453,*0.078,*0.242,*0.0,*19.1,*2.3,*57.6,*-2.8,*-2.8,*F/CLSD (0),*F/CLSD (0),*Gear down - ground (3),*Gnd (1),*0.0,*0.0,*Normal (0),*Normal (0),*Not Out (0),*Not Out (0),*U 0.1,* 0.0,* 0.0,* 0.0,* 0.0,* 0.0,
26.250,,,,,,,,,,,,,,,*D 1.05,,,,,,,,,,,,,,,,,,,,,,,,,,,,,,,,,,,,,,,,,
26.500,,,,,,,,,,,,,,,*D 1.05,*L 0.4,,,,,,,,,,,,,,,,,,,,,,,,,,,,,,,,*Not Out (0),*Not Out (0),,,,,,,
26.750,,,,,,,,,,,,,,,*D 1.05,,,,,,,,,,,,,,,,,,,,,,,,,,,,,,,,,,,,,,,,,
27.000,,,,,,,,,*16,*37,*G - Gnd (7),*0,*0.0,,*D 1.05,*L 0.4,*188,,,,*113.2,*115.0,*0,*477,,*15.8,,,,*22,*459,*1.963,*0.250,*0.0,*19.6,*4.3,*58.6,*-2.8,*-2.8,,,*Gear down - ground (3),*Gnd (1),,,*Normal (0),*Normal (0),*Not Out (0),*Not Out (0),*U 0.1,* 0.0,* 0.0,* 0.0,* 0.0,* 0.0,
27.250,,,,,,,,,,,,,,,*D 1.05,,,,,,,,,,,,,,,,,,,,,,,,,,,,,,,,,,,,,,,,,
27.500,,,,,,,,,,,,,,,*D 1.05,*L 0.4,,,,,,,,,,,,,,,,,,,,,,,,,,,,,,,,*Not Out (0),*Not Out (0),,,,,,,
27.750,,,,,,,,,,,,,,,*D 1.05,,,,,,,,,,,,,,,,,,,,,,,,,,,,,,,,,,,,,,,,,
28.000,,*A319 (5),,*EKCH,*FIN83H  ,*16,,*5,,,*G - Gnd (7),*0,*0.0,*0.00,*D 1.05,*L 0.4,*188,,*N55 24.18,,*113.2,*115.0,*0,*437,,,,*0.0,*0,*22,*439,*0.098,*0.229,*0.0,*18.1,*0.0,*56.0,*-2.8,*-2.8,*F/CLSD (0),*F/CLSD (0),*Gear down - ground (3),*Gnd (1),*0.0,*0.0,*Normal (0),*Normal (0),*Not Out (0),*Not Out (0),* 0.0,* 0.0,* 0.0,* 0.0,* 0.0,* 0.0,*NOTCMD (0)
28.250,,,,,,,,,,,,,,,*D 1.05,,,,,,,,,,,,,,,,,,,,,,,,,,,,,,,,,,,,,,,,,
28.500,,,,,,,,,,,,,,,*D 1.05,*L 0.4,,,,,,,,,,,,,,,,,,,,,,,,,,,,,,,,*Not Out (0),*Not Out (0),,,,,,,
28.750,,,,,,,,,,,,,,,*D 1.05,,,,,,,,,,,,,,,,,,,,,,,,,,,,,,,,,,,,,,,,,
29.000,*.OH-LVI,,*EFHK,,,,*6,,,,*G - Gnd (7),*0,*0.0,,*D 1.05,*L 0.4,*188,*1007,,,*113.2,*115.0,*0,*452,,*15.8,,,,*22,*446,*0.098,*0.234,*0.0,*18.6,*0.5,*56.8,*-2.8,*-2.8,,,*Gear down - ground (3),*Gnd (1),,,*Normal (0),*Normal (0),*Not Out (0),*Not Out (0),*U 0.1,* 0.0,* 0.0,* 0.0,* 0.0,* 0.0,
29.250,,,,,,,,,,,,,,,*D 1.05,,,,,,,,,,,,,,,,,,,,,,,,,,,,,,,,,,,,,,,,,
29.500,,,,,,,,,,,,,,,*D 1.05,*L 0.4,,,,,,,,,,,,,,,,,,,,,,,,,,,,,,,,*Not Out (0),*Not Out (0),,,,,,,
29.750,,,,,,,,,,,,,,,*D 1.05,,,,,,,,,,,,,,,,,,,,,,,,,,,,,,,,,,,,,,,,,
30.000,,,,,,,,,,,*G - Gnd (7),*0,*0.0,,*D 1.05,*L 0.4,*188,,,*E012 39.38,*113.2,*115.0,*0,*463,*0,,*0.00,,,*22,*453,*0.078,*0.242,*0.0,*19.1,*2.3,*57.6,*-2.8,*-2.8,*F/CLSD (0),*F/CLSD (0),*Gear down - ground (3),*Gnd (1),*0.0,*0.0,*Normal (0),*Normal (0),*Not Out (0),*Not Out (0),*U 0.1,* 0.0,* 0.0,* 0.0,* 0.0,* 0.0,
30.250,,,,,,,,,,,,,,,*D 1.05,,,,,,,,,,,,,,,,,,,,,,,,,,,,,,,,,,,,,,,,,
30.500,,,,,,,,,,,,,,,*D 1.05,*L 0.4,,,,,,,,,,,,,,,,,,,,,,,,,,,,,,,,*Not Out (0),*Not Out (0),,,,,,,
30.750,,,,,,,,,,,,,,,*D 1.05,,,,,,,,,,,,,,,,,,,,,,,,,,,,,,,,,,,,,,,,,
31.000,,,,,,,,,*16,*37,*G - Gnd (7),*0,*0.0,,*D 1.05,*L 0.4,*188,,,,*113.2,*115.0,*0,*477,,*15.8,,,,*22,*459,*1.963,*0.250,*0.0,*19.6,*4.3,*58.6,*-2.8,*-2.8,,,*Gear down - ground (3),*Gnd (1),,,*Normal (0),*Normal (0),*Not Out (0),*Not Out (0),*U 0.1,* 0.0,* 0.0,* 0.0,* 0.0,* 0.0,
31.250,,,,,,,,,,,,,,,*D 1.05,,,,,,,,,,,,,,,,,,,,,,,,,,,,,,,,,,,,,,,,,
31.500,,,,,,,,,,,,,,,*D 1.05,*L 0.4,,,,,,,,,,,,,,,,,,,,,,,,,,,,,,,,*Not Out (0),*Not Out (0),,,,,,,
31.750,,,,,,,,,,,,,,,*D 1.05,,,,,,,,,,,,,,,,,,,,,,,,,,,,,,,,,,,,,,,,,
32.000,,*A319 (5),,*EKCH,*FIN83H  ,*16,,*5,,,*G - Gnd (7),*0,*0.0,*0.00,*D 1.05,*L 0.4,*188,,*N55 24.18,,*113.2,*115.0,*0,*437,,,,*0.0,*0,*22,*439,*0.098,*0.229,*0.0,*18.1,*0.0,*56.0,*-2.8,*-2.8,*F/CLSD (0),*F/CLSD (0),*Gear down - ground (3),*Gnd (1),*0.0,*0.0,*Normal (0),*Normal (0),*Not Out (0),*Not Out (0),* 0.0,* 0.0,* 0.0,* 0.0,* 0.0,* 0.0,*NOTCMD (0)
32.250,,,,,,,,,,,,,,,*D 1.05,,,,,,,,,,,,,,,,,,,,,,,,,,,,,,,,,,,,,,,,,
32.500,,,,,,,,,,,,,,,*D 1.05,*L 0.4,,,,,,,,,,,,,,,,,,,,,,,,,,,,,,,,*Not Out (0),*Not Out (0),,,,,,,
32.750,,,,,,,,,,,,,,,*D 1.05,,,,,,,,,,,,,,,,,,,,,,,,,,,,,,,,,,,,,,,,,
33.000,*.OH-LVI,,*EFHK,,,,*6,,,,*G - Gnd (7),*0,*0.0,,*D 1.05,*L 0.4,*188,*1007,,,*113.2,*115.0,*0,*452,,*15.8,,,,*22,*446,*0.098,*0.234,*0.0,*18.6,*0.5,*56.8,*-2.8,*-2.8,,,*Gear down - ground (3),*Gnd (1),,,*Normal (0),*Normal (0),*Not Out (0),*Not Out (0),*U 0.1,* 0.0,* 0.0,* 0.0,* 0.0,* 0.0,
33.250,,,,,,,,,,,,,,,*D 1.05,,,,,,,,,,,,,,,,,,,,,,,,,,,,,,,,,,,,,,,,,
33.500,,,,,,,,,,,,,,,*D 1.05,*L 0.4,,,,,,,,,,,,,,,,,,,,,,,,,,,,,,,,*Not Out (0),*Not Out (0),,,,,,,
33.750,,,,,,,,,,,,,,,*D 1.05,,,,,,,,,,,,,,,,,,,,,,,,,,,,,,,,,,,,,,,,,
34.000,,,,,,,,,,,*G - Gnd (7),*0,*0.0,,*D 1.05,*L 0.4,*188,,,*E012 39.38,*113.2,*115.0,*0,*463,*0,,*0.00,,,*22,*453,*0.078,*0.242,*0.0,*19.1,*2.3,*57.6,*-2.8,*-2.8,*F/CLSD (0),*F/CLSD (0),*Gear down - ground (3),*Gnd (1),*0.0,*0.0,*Normal (0),*Normal (0),*Not Out (0),*Not Out (0),*U 0.1,* 0.0,* 0.0,* 0.0,* 0.0,* 0.0,
34.250,,,,,,,,,,,,,,,*D 1.05,,,,,,,,,,,,,,,,,,,,,,,,,,,,,,,,,,,,,,,,,
34.500,,,,,,,,,,,,,,,*D 1.05,*L 0.4,,,,,,,,,,,,,,,,,,,,,,,,,,,,,,,,*Not Out (0),*Not Out (0),,,,,,,
34.750,,,,,,,,,,,,,,,*D 1.05,,,,,,,,,,,,,,,,,,,,,,,,,,,,,,,,,,,,,,,,,
35.000,,,,,,,,,*16,*37,*G - Gnd (7),*0,*0.0,,*D 1.05,*L 0.4,*188,,,,*113.2,*115.0,*0,*477,,*15.8,,,,*22,*459,*1.963,*0.250,*0.0,*19.6,*4.3,*58.6,*-2.8,*-2.8,,,*Gear down - ground (3),*Gnd (1),,,*Normal (0),*Normal (0),*Not Out (0),*Not Out (0),*U 0.1,* 0.0,* 0.0,* 0.0,* 0.0,* 0.0,
35.250,,,,,,,,,,,,,,,*D 1.05,,,,,,,,,,,,,,,,,,,,,,,,,,,,,,,,,,,,,,,,,
35.500,,,,,,,,,,,,,,,*D 1.05,*L 0.4,,,,,,,,,,,,,,,,,,,,,,,,,,,,,,,,*Not Out (0),*Not Out (0),,,,,,,
35.750,,,,,,,,,,,,,,,*D 1.05,,,,,,,,,,,,,,,,,,,,,,,,,,,,,,,,,,,,,,,,,
36.000,,A319 (5),,EKCH,FIN83H  ,16,,5,,,G - Gnd (7),0,0.0,0.00,D 1.05,L 0.4,188,,N55 24.18,,113.2,115.0,0,437,,,,0.0,0,22,439,0.098,0.229,0.0,18.1,0.0,56.0,-2.8,-2.8,F/CLSD (0),F/CLSD (0),Gear down - ground (3),Gnd (1),0.0,0.0,Normal (0),Normal (0),Not Out (0),Not Out (0), 0.0, 0.0, 0.0, 0.0, 0.0, 0.0,NOTCMD (0)
36.250,,,,,,,,,,,,,,,D 1.05,,,,,,,,,,,,,,,,,,,,,,,,,,,,,,,,,,,,,,,,,
36.500,,,,,,,,,,,,,,,D 1.05,L 0.4,,,,,,,,,,,,,,,,,,,,,,,,,,,,,,,,Not Out (0),Not Out (0),,,,,,,
36.750,,,,,,,,,,,,,,,D 1.05,,,,,,,,,,,,,,,,,,,,,,,,,,,,,,,,,,,,,,,,,
37.000,.OH-LVI,,EFHK,,,,6,,,,G - Gnd (7),0,0.0,,D 1.05,L 0.4,188,1007,,,113.2,115.0,0,452,,15.8,,,,22,446,0.098,0.234,0.0,18.6,0.5,56.8,-2.8,-2.8,,,Gear down - ground (3),Gnd (1),,,Normal (0),Normal (0),Not Out (0),Not Out (0),U 0.1, 0.0, 0.0, 0.0, 0.0, 0.0,
37.250,,,,,,,,,,,,,,,D 1.05,,,,,,,,,,,,,,,,,,,,,,,,,,,,,,,,,,,,,,,,,
37.500,,,,,,,,,,,,,,,D 1.05,L 0.4,,,,,,,,,,,,,,,,,,,,,,,,,,,,,,,,Not Out (0),Not Out (0),,,,,,,
37.750,,,,,,,,,,,,,,,D 1.05,,,,,,,,,,,,,,,,,,,,,,,,,,,,,,,,,,,,,,,,,
38.000,,,,,,,,,,,G - Gnd (7),0,0.0,,D 1.05,L 0.4,188,,,E012 39.38,113.2,115.0,0,463,0,,0.00,,,22,453,0.078,0.242,0.0,19.1,2.3,57.6,-2.8,-2.8,F/CLSD (0),F/CLSD (0),Gear down - ground (3),Gnd (1),0.0,0.0,Normal (0),Normal (0),Not Out (0),Not Out (0),U 0.1, 0.0, 0.0, 0.0, 0.0, 0.0,
38.250,,,,,,,,,,,,,,,D 1.05,,,,,,,,,,,,,,,,,,,,,,,,,,,,,,,,,,,,,,,,,
38.500,,,,,,,,,,,,,,,D 1.05,L 0.4,,,,,,,,,,,,,,,,,,,,,,,,,,,,,,,,Not Out (0),Not Out (0),,,,,,,
38.750,,,,,,,,,,,,,,,D 1.05,,,,,,,,,,,,,,,,,,,,,,,,,,,,,,,,,,,,,,,,,
39.000,,,,,,,,,16,37,G - Gnd (7),0,0.0,,D 1.05,L 0.4,188,,,,113.2,115.0,0,477,,15.8,,,,22,459,1.963,0.250,0.0,19.6,4.3,58.6,-2.8,-2.8,,,Gear down - ground (3),Gnd (1),,,Normal (0),Normal (0),Not Out (0),Not Out (0),U 0.1, 0.0, 0.0, 0.0, 0.0, 0.0,
39.250,,,,,,,,,,,,,,,D 1.05,,,,,,,,,,,,,,,,,,,,,,,,,,,,,,,,,,,,,,,,,
39.500,,,,,,,,,,,,,,,D 1.05,L 0.4,,,,,,,,,,,,,,,,,,,,,,,,,,,,,,,,Not Out (0),Not Out (0),,,,,,,
39.750,,,,,,,,,,,,,,,D 1.05,,,,,,,,,,,,,,,,,,,,,,,,,,,,,,,,,,,,,,,,,
40.000,,A319 (5),,EKCH,FIN83H  ,16,,5,,,G - Gnd (7),0,0.0,0.00,D 1.05,L 0.4,188,,N55 24.18,,113.2,115.0,0,428,,,,0.0,0,22,463,1.873,0.195,0.0,19.8,6.3,59.3,-2.8,-2.8,F/CLSD (0),F/CLSD (0),Gear down - ground (3),Gnd (1),0.0,0.0,Normal (0),Normal (0),Not Out (0),Not Out (0),U 0.1, 0.0, 0.0, 0.0, 0.0, 0.0,NOTCMD (0)
40.250,,,,,,,,,,,,,,,D 1.05,,,,,,,,,,,,,,,,,,,,,,,,,,,,,,,,,,,,,,,,,
40.500,,,,,,,,,,,,,,,D 1.05,L 0.4,,,,,,,,,,,,,,,,,,,,,,,,,,,,,,,,Not Out (0),Not Out (0),,,,,,,
40.750,,,,,,,,,,,,,,,D 1.05,,,,,,,,,,,,,,,,,,,,,,,,,,,,,,,,,,,,,,,,,
41.000,.OH-LVI,,EFHK,,,,6,,,,G - Gnd (7),0,0.0,,D 1.05,L 0.4,188,1007,,,113.2,115.0,0,363,,15.8,,,,22,464,1.875,0.172,0.0,19.8,8.5,59.4,-2.8,-2.8,,,Gear down - ground (3),Gnd (1),,,Normal (0),Normal (0),Not Out (0),Not Out (0),U 0.1, 0.0, 0.0, 0.0, 0.0, 0.0,
41.250,,,,,,,,,,,,,,,D 1.05,,,,,,,,,,,,,,,,,,,,,,,,,,,,,,,,,,,,,,,,,
41.500,,,,,,,,,,,,,,,D 1.05,L 0.4,,,,,,,,,,,,,,,,,,,,,,,,,,,,,,,,Not Out (0),Not Out (0),,,,,,,
41.750,,,,,,,,,,,,,,,D 1.05,,,,,,,,,,,,,,,,,,,,,,,,,,,,,,,,,,,,,,,,,
42.000,,,,,,,,,,,G - Gnd (7),0,0.0,,D 1.05,L 0.4,188,,,E012 39.38,113.2,115.0,0,346,0,,0.00,,,22,462,1.873,0.176,0.0,19.6,10.8,59.3,-2.8,-2.8,F/CLSD (0),F/CLSD (0),Gear down - ground (3),Gnd (1),0.0,0.0,Normal (0),Normal (0),Not Out (0),Not Out (0),U 0.1, 0.0, 0.0, 0.0, 0.0, 0.0,
42.250,,,,,,,,,,,,,,,D 1.05,,,,,,,,,,,,,,,,,,,,,,,,,,,,,,,,,,,,,,,,,
42.500,,,,,,,,,,,,,,,D 1.05,L 0.4,,,,,,,,,,,,,,,,,,,,,,,,,,,,,,,,Not Out (0),Not Out (0),,,,,,,
42.750,,,,,,,,,,,,,,,D 1.05,,,,,,,,,,,,,,,,,,,,,,,,,,,,,,,,,,,,,,,,,
43.000,,,,,,,,,16,41,G - Gnd (7),0,0.0,,D 1.05,L 0.4,188,,,,113.2,115.0,0,357,,15.8,,,,21,460,1.873,0.180,0.0,19.6,12.6,59.1,-2.8,-2.8,,,Gear down - ground (3),Gnd (1),,,Normal (0),Normal (0),Not Out (0),Not Out (0), 0.0, 0.0, 0.0, 0.0, 0.0, 0.0,
43.250,,,,,,,,,,,,,,,D 1.05,,,,,,,,,,,,,,,,,,,,,,,,,,,,,,,,,,,,,,,,,
43.500,,,,,,,,,,,,,,,D 1.05,L 0.4,,,,,,,,,,,,,,,,,,,,,,,,,,,,,,,,Not Out (0),Not Out (0),,,,,,,
43.750,,,,,,,,,,,,,,,D 1.05,,,,,,,,,,,,,,,,,,,,,,,,,,,,,,,,,,,,,,,,,
44.000,,A319 (5),,EKCH,FIN83H  ,16,,5,,,G - Gnd (7),0,0.0,0.00,D 1.05,L 0.4,188,,N55 24.18,,113.2,115.0,0,363,,,,0.0,0,21,460,1.875,0.180,0.0,19.6,14.5,59.1,-2.8,-2.8,F/CLSD (0),F/CLSD (0),Gear down - ground (3),Gnd (1),0.0,0.0,Normal (0),Normal (0),Not Out (0),Not Out (0), 0.0, 0.0, 0.0, 0.0, 0.0, 0.0,NOTCMD (0)
44.250,,,,,,,,,,,,,,,D 1.05,,,,,,,,,,,,,,,,,,,,,,,,,,,,,,,,,,,,,,,,,
44.500,,,,,,,,,,,,,,,D 1.05,L 0.4,,,,,,,,,,,,,,,,,,,,,,,,,,,,,,,,Not Out (0),Not Out (0),,,,,,,
44.750,,,,,,,,,,,,,,,D 1.05,,,,,,,,,,,,,,,,,,,,,,,,,,,,,,,,,,,,,,,,,
45.000,.OH-LVI,,EFHK,,,,6,,,,G - Gnd (7),0,0.0,,D 1.05,L 0.4,188,1007,,,113.2,115.0,0,365,,16.0,,,,22,461,1.873,0.180,0.0,19.6,16.3,59.0,-2.8,-2.8,,,Gear down - ground (3),Gnd (1),,,Normal (0),Normal (0),Not Out (0),Not Out (0),U 0.1, 0.0, 0.0, 0.0, 0.0, 0.0,
45.250,,,,,,,,,,,,,,,D 1.05,,,,,,,,,,,,,,,,,,,,,,,,,,,,,,,,,,,,,,,,,
45.500,,,,,,,,,,,,,,,D 1.05,L 0.4,,,,,,,,,,,,,,,,,,,,,,,,,,,,,,,,Not Out (0),Not Out (0),,,,,,,
45.750,,,,,,,,,,,,,,,D 1.05,,,,,,,,,,,,,,,,,,,,,,,,,,,,,,,,,,,,,,,,,
46.000,,,,,,,,,,,G - Gnd (7),0,0.0,,D 1.05,L 0.4,188,,,E012 39.38,113.2,115.0,0,363,0,,0.00,,,22,461,1.875,0.180,0.0,19.6,17.8,59.0,-2.8,-2.8,F/CLSD (0),F/CLSD (0),Gear down - ground (3),Gnd (1),0.0,0.0,Normal (0),Normal (0),Not Out (0),Not Out (0),U 0.1, 0.0, 0.0, 0.0, 0.0, 0.0,
46.250,,,,,,,,,,,,,,,D 1.05,,,,,,,,,,,,,,,,,,,,,,,,,,,,,,,,,,,,,,,,,
46.500,,,,,,,,,,,,,,,D 1.05,L 0.4,,,,,,,,,,,,,,,,,,,,,,,,,,,,,,,,Not Out (0),Not Out (0),,,,,,,
46.750,,,,,,,,,,,,,,,D 1.05,,,,,,,,,,,,,,,,,,,,,,,,,,,,,,,,,,,,,,,,,
47.000,,,,,,,,,16,45,G - Gnd (7),0,0.0,,D 1.05,L 0.4,188,,,,113.2,115.0,0,361,,16.0,,,,23,461,1.875,0.180,0.0,19.6,19.3,59.0,-2.8,-2.8,,,Gear down - ground (3),Gnd (1),,,Normal (0),Normal (0),Not Out (0),Not Out (0),U 0.1, 0.0, 0.0, 0.0, 0.0, 0.0,
47.250,,,,,,,,,,,,,,,D 1.05,,,,,,,,,,,,,,,,,,,,,,,,,,,,,,,,,,,,,,,,,
47.500,,,,,,,,,,,,,,,D 1.05,L 0.4,,,,,,,,,,,,,,,,,,,,,,,,,,,,,,,,Not Out (0),Not Out (0),,,,,,,
47.750,,,,,,,,,,,,,,,D 1.05,,,,,,,,,,,,,,,,,,,,,,,,,,,,,,,,,,,,,,,,,
48.000,,A319 (5),,EKCH,FIN83H  ,16,,5,,,G - Gnd (7),0,0.0,0.00,D 1.05,L 0.4,188,,N55 24.18,,113.2,115.0,0,368,,,,0.0,0,23,462,1.873,0.180,1.0,19.5,20.6,59.0,-2.8,-2.8,F/CLSD (0),F/CLSD (0),Gear down - ground (3),Gnd (1),0.0,0.0,Normal (0),Normal (0),Not Out (0),Not Out (0),U 0.1, 0.0, 0.0, 0.0, 0.0, 0.0,NOTCMD (0)
48.250,,,,,,,,,,,,,,,D 1.05,,,,,,,,,,,,,,,,,,,,,,,,,,,,,,,,,,,,,,,,,
48.500,,,,,,,,,,,,,,,D 1.05,L 0.4,,,,,,,,,,,,,,,,,,,,,,,,,,,,,,,,Not Out (0),Not Out (0),,,,,,,
48.750,,,,,,,,,,,,,,,D 1.05,,,,,,,,,,,,,,,,,,,,,,,,,,,,,,,,,,,,,,,,,
49.000,.OH-LVI,,EFHK,,,,6,,,,G - Gnd (7),0,0.0,,D 1.05,L 0.4,188,1007,,,113.2,115.0,0,361,,16.0,,,,23,463,1.873,0.180,1.3,19.5,21.8,59.0,-2.8,-2.8,,,Gear down - ground (3),Gnd (1),,,Normal (0),Normal (0),Not Out (0),Not Out (0),U 0.1, 0.0, 0.0, 0.0, 0.0, 0.0,
49.250,,,,,,,,,,,,,,,D 1.05,,,,,,,,,,,,,,,,,,,,,,,,,,,,,,,,,,,,,,,,,
49.500,,,,,,,,,,,,,,,D 1.05,L 0.4,,,,,,,,,,,,,,,,,,,,,,,,,,,,,,,,Not Out (0),Not Out (0),,,,,,,
49.750,,,,,,,,,,,,,,,D 1.05,,,,,,,,,,,,,,,,,,,,,,,,,,,,,,,,,,,,,,,,,
50.000,,,,,,,,,,,G - Gnd (7),0,0.0,,D 1.05,L 0.4,188,,,E012 39.38,113.2,115.0,196,357,91,,0.00,,,23,464,0.047,0.180,1.4,19.4,22.8,59.0,-2.8,-2.8,F/CLSD (0),F/CLSD (0),Gear down - ground (3),Gnd (1),0.0,0.0,Normal (0),Normal (0),Not Out (0),Not Out (0),U 0.1, 0.0, 0.0, 0.0, 0.0, 0.0,
50.250,,,,,,,,,,,,,,,D 1.05,,,,,,,,,,,,,,,,,,,,,,,,,,,,,,,,,,,,,,,,,
50.500,,,,,,,,,,,,,,,D 1.05,L 0.4,,,,,,,,,,,,,,,,,,,,,,,,,,,,,,,,Not Out (0),Not Out (0),,,,,,,
50.750,,,,,,,,,,,,,,,D 1.05,,,,,,,,,,,,,,,,,,,,,,,,,,,,,,,,,,,,,,,,,
51.000,,,,,,,,,16,49,G - Gnd (7),0,0.0,,D 1.05,L 0.4,188,,,,113.2,115.0,201,361,,16.0,,,,23,465,0.061,0.180,1.6,19.4,23.8,59.0,-2.8,-2.8,,,Gear down - ground (3),Gnd (1),,,Normal (0),Normal (0),Not Out (0),Not Out (0),U 0.1, 0.0, 0.0, 0.0, 0.0, 0.0,
51.250,,,,,,,,,,,,,,,D 1.05,,,,,,,,,,,,,,,,,,,,,,,,,,,,,,,,,,,,,,,,,
51.500,,,,,,,,,,,,,,,D 1.05,L 0.4,,,,,,,,,,,,,,,,,,,,,,,,,,,,,,,,Not Out (0),Not Out (0),,,,,,,
51.750,,,,,,,,,,,,,,,D 1.05,,,,,,,,,,,,,,,,,,,,,,,,,,,,,,,,,,,,,,,,,
52.000,,A319 (5),,EKCH,FIN83H  ,16,,5,,,G - Gnd (7),0,0.0,0.00,D 1.05,L 0.4,188,,N55 24.18,,113.2,115.0,203,361,,,,0.0,0,24,466,0.063,0.180,1.9,19.5,24.6,59.0,-2.8,-2.8,F/CLSD (0),F/CLSD (0),Gear down - ground (3),Gnd (1),0.0,0.0,Normal (0),Normal (0),Not Out (0),Not Out (0), 0.0, 0.0, 0.0, 0.0, 0.0, 0.0,NOTCMD (0)
52.250,,,,,,,,,,,,,,,D 1.05,,,,,,,,,,,,,,,,,,,,,,,,,,,,,,,,,,,,,,,,,
52.500,,,,,,,,,,,,,,,D 1.05,L 0.4,,,,,,,,,,,,,,,,,,,,,,,,,,,,,,,,Not Out (0),Not Out (0),,,,,,,
52.750,,,,,,,,,,,,,,,D 1.05,,,,,,,,,,,,,,,,,,,,,,,,,,,,,,,,,,,,,,,,,
53.000,.OH-LVI,,EFHK,,,,6,,,,G - Gnd (7),0,0.0,,D 1.05,L 0.4,188,1007,,,113.2,115.0,216,361,,16.0,,,,28,467,0.072,0.180,2.3,19.4,26.0,59.0,-2.8,-2.8,,,Gear down - ground (3),Gnd (1),,,Normal (0),Normal (0),Not Out (0),Not Out (0), 0.0, 0.0, 0.0, 0.0, 0.0, 0.0,
53.250,,,,,,,,,,,,,,,D 1.05,,,,,,,,,,,,,,,,,,,,,,,,,,,,,,,,,,,,,,,,,
53.500,,,,,,,,,,,,,,,D 1.05,L 0.4,,,,,,,,,,,,,,,,,,,,,,,,,,,,,,,,Not Out (0),Not Out (0),,,,,,,
53.750,,,,,,,,,,,,,,,D 1.05,,,,,,,,,,,,,,,,,,,,,,,,,,,,,,,,,,,,,,,,,
54.000,,,,,,,,,,,G - Gnd (7),0,0.0,,D 1.05,L 0.4,188,,,E012 39.38,113.2,115.0,270,359,54825,,0.00,,,39,469,0.078,0.180,2.8,19.4,27.3,59.0,-2.8,-2.8,F/CLSD (0),F/CLSD (0),Gear down - ground (3),Gnd (1),0.0,0.0,Normal (0),Normal (0),Not Out (0),Not Out (0),U 0.1, 0.0, 0.0, 0.0, 0.0, 0.0,
54.250,,,,,,,,,,,,,,,D 1.05,,,,,,,,,,,,,,,,,,,,,,,,,,,,,,,,,,,,,,,,,
54.500,,,,,,,,,,,,,,,D 1.05,L 0.4,,,,,,,,,,,,,,,,,,,,,,,,,,,,,,,,Not Out (0),Not Out (0),,,,,,,
54.750,,,,,,,,,,,,,,,D 1.05,,,,,,,,,,,,,,,,,,,,,,,,,,,,,,,,,,,,,,,,,
55.000,,,,,,,,,16,53,G - Gnd (7),0,0.0,,D 1.05,L 0.4,188,,,,113.2,115.0,256,359,,16.0,,,,54,470,0.082,0.180,3.3,19.4,28.6,59.0,-2.8,-2.8,,,Gear down - ground (3),Gnd (1),,,Normal (0),Normal (0),Not Out (0),Not Out (0),U 0.1, 0.0, 0.0, 0.0, 0.0, 0.0,
55.250,,,,,,,,,,,,,,,D 1.05,,,,,,,,,,,,,,,,,,,,,,,,,,,,,,,,,,,,,,,,,
55.500,,,,,,,,,,,,,,,D 1.05,L 0.4,,,,,,,,,,,,,,,,,,,,,,,,,,,,,,,,Not Out (0),Not Out (0),,,,,,,
55.750,,,,,,,,,,,,,,,D 1.05,,,,,,,,,,,,,,,,,,,,,,,,,,,,,,,,,,,,,,,,,
56.000,,A319 (5),,EKCH,FIN83H  ,16,,5,,,G - Gnd (7),0,0.0,0.00,D 1.05,L 0.4,188,,N55 24.18,,113.2,115.0,254,357,,,,0.0,0,75,471,0.088,0.180,3.9,19.5,30.0,59.0,-2.8,-2.8,F/CLSD (0),F/CLSD (0),Gear down - ground (3),Gnd (1),0.0,0.0,Normal (0),Normal (0),Not Out (0),Not Out (0),U 0.1, 0.0, 0.0, 0.0, 0.0, 0.0,NOTCMD (0)
56.250,,,,,,,,,,,,,,,D 1.05,,,,,,,,,,,,,,,,,,,,,,,,,,,,,,,,,,,,,,,,,
56.500,,,,,,,,,,,,,,,D 1.05,L 0.4,,,,,,,,,,,,,,,,,,,,,,,,,,,,,,,,Not Out (0),Not Out (0),,,,,,,
56.750,,,,,,,,,,,,,,,D 1.05,,,,,,,,,,,,,,,,,,,,,,,,,,,,,,,,,,,,,,,,,
57.000,.OH-LVI,,EFHK,,,,6,,,,G - Gnd (7),0,0.0,,D 1.05,L 0.4,188,1007,,,113.2,115.0,258,357,,16.0,,,,97,472,0.092,0.180,4.6,19.5,31.3,58.9,-2.8,-2.8,,,Gear down - ground (3),Gnd (1),,,Normal (0),Normal (0),Not Out (0),Not Out (0),U 0.1, 0.0, 0.0, 0.0, 0.0, 0.0,
57.250,,,,,,,,,,,,,,,D 1.05,,,,,,,,,,,,,,,,,,,,,,,,,,,,,,,,,,,,,,,,,
57.500,,,,,,,,,,,,,,,D 1.05,L 0.4,,,,,,,,,,,,,,,,,,,,,,,,,,,,,,,,Not Out (0),Not Out (0),,,,,,,
57.750,,,,,,,,,,,,,,,D 1.05,,,,,,,,,,,,,,,,,,,,,,,,,,,,,,,,,,,,,,,,,
58.000,,,,,,,,,,,G - Gnd (7),0,0.0,,D 1.05,L 0.4,188,,,E012 39.38,113.2,115.0,261,357,54825,,0.00,,,121,473,0.098,0.180,5.3,19.5,32.5,59.0,-2.8,-2.8,F/CLSD (0),F/CLSD (0),Gear down - ground (3),Gnd (1),0.0,0.0,Normal (0),Normal (0),Not Out (0),Not Out (0), 0.0, 0.0, 0.0, 0.0, 0.0, 0.0,
58.250,,,,,,,,,,,,,,,D 1.05,,,,,,,,,,,,,,,,,,,,,,,,,,,,,,,,,,,,,,,,,
58.500,,,,,,,,,,,,,,,D 1.05,L 0.4,,,,,,,,,,,,,,,,,,,,,,,,,,,,,,,,Not Out (0),Not Out (0),,,,,,,
58.750,,,,,,,,,,,,,,,D 1.05,,,,,,,,,,,,,,,,,,,,,,,,,,,,,,,,,,,,,,,,,
59.000,,,,,,,,,16,57,G - Gnd (7),0,0.0,,D 1.05,L 0.4,188,,,,113.2,115.0,268,357,,16.0,,,,147,474,0.102,0.180,5.9,19.3,33.8,59.0,-2.8,-2.8,,,Gear down - ground (3),Gnd (1),,,Normal (0),Normal (0),Not Out (0),Not Out (0), 0.0, 0.0, 0.0, 0.0, 0.0, 0.0,
59.250,,,,,,,,,,,,,,,D 1.05,,,,,,,,,,,,,,,,,,,,,,,,,,,,,,,,,,,,,,,,,
59.500,,,,,,,,,,,,,,,D 1.05,L 0.4,,,,,,,,,,,,,,,,,,,,,,,,,,,,,,,,Not Out (0),Not Out (0),,,,,,,
59.750,,,,,,,,,,,,,,,D 1.05,,,,,,,,,,,,,,,,,,,,,,,,,,,,,,,,,,,,,,,,,
60.000,,A319 (5),,EKCH,FIN83H  ,16,,5,,,G - Gnd (7),0,0.0,0.00,D 1.05,L 0.4,188,,N55 24.18,,113.2,115.0,270,357,,,,0.0,0,171,475,0.105,0.178,6.5,19.1,35.1,58.9,-2.8,-2.8,F/CLSD (0),F/CLSD (0),Gear down - ground (3),Gnd (1),0.0,0.0,Normal (0),Normal (0),Not Out (0),Not Out (0), 0.0, 0.0, 0.0, 0.0, 0.0, 0.0,NOTCMD (0)
60.250,,,,,,,,,,,,,,,D 1.05,,,,,,,,,,,,,,,,,,,,,,,,,,,,,,,,,,,,,,,,,
60.500,,,,,,,,,,,,,,,D 1.05,L 0.4,,,,,,,,,,,,,,,,,,,,,,,,,,,,,,,,Not Out (0),Not Out (0),,,,,,,
60.750,,,,,,,,,,,,,,,D 1.05,,,,,,,,,,,,,,,,,,,,,,,,,,,,,,,,,,,,,,,,,
61.000,.OH-LVI,,EFHK,,,,6,,,,G - Gnd (7),0,0.0,,D 1.05,L 0.4,188,1007,,,113.2,115.0,276,357,,16.0,,,,193,475,0.109,0.178,7.3,19.0,36.3,59.0,-2.8,-2.8,,,Gear down - ground (3),Gnd (1),,,Normal (0),Normal (0),Not Out (0),Not Out (0), 0.0, 0.0, 0.0, 0.0, 0.0, 0.0,
61.250,,,,,,,,,,,,,,,D 1.05,,,,,,,,,,,,,,,,,,,,,,,,,,,,,,,,,,,,,,,,,
61.500,,,,,,,,,,,,,,,D 1.05,L 0.4,,,,,,,,,,,,,,,,,,,,,,,,,,,,,,,,Not Out (0),Not Out (0),,,,,,,
61.750,,,,,,,,,,,,,,,D 1.05,,,,,,,,,,,,,,,,,,,,,,,,,,,,,,,,,,,,,,,,,
62.000,,,,,,,,,,,G - Gnd (7),0,0.0,,D 1.05,L 0.4,188,,,E012 39.38,113.2,115.0,281,356,54825,,0.00,,,215,476,0.113,0.178,7.9,18.9,37.4,59.0,-2.8,-2.8,F/CLSD (0),F/CLSD (0),Gear down - ground (3),Gnd (1),0.0,0.0,Normal (0),Normal (0),Not Out (0),Not Out (0), 0.0, 0.0, 0.0, 0.0, 0.0, 0.0,
62.250,,,,,,,,,,,,,,,D 1.05,,,,,,,,,,,,,,,,,,,,,,,,,,,,,,,,,,,,,,,,,
62.500,,,,,,,,,,,,,,,D 1.05,L 0.4,,,,,,,,,,,,,,,,,,,,,,,,,,,,,,,,Not Out (0),Not Out (0),,,,,,,
62.750,,,,,,,,,,,,,,,D 1.05,,,,,,,,,,,,,,,,,,,,,,,,,,,,,,,,,,,,,,,,,
63.000,,,,,,,,,17,1,G - Gnd (7),0,0.0,,D 1.05,L 0.4,188,,,,113.2,115.0,287,356,,16.0,,,,234,477,0.117,0.178,8.5,19.0,38.5,59.0,-2.8,-2.8,,,Gear down - ground (3),Gnd (1),,,Normal (0),Normal (0),Not Out (0),Not Out (0),U 0.1, 0.0, 0.0, 0.0, 0.0, 0.0,
63.250,,,,,,,,,,,,,,,D 1.05,,,,,,,,,,,,,,,,,,,,,,,,,,,,,,,,,,,,,,,,,
63.500,,,,,,,,,,,,,,,D 1.05,L 0.4,,,,,,,,,,,,,,,,,,,,,,,,,,,,,,,,Not Out (0),Not Out (0),,,,,,,
63.750,,,,,,,,,,,,,,,D 1.05,,,,,,,,,,,,,,,,,,,,,,,,,,,,,,,,,,,,,,,,,
64.000,,A319 (5),,EKCH,FIN83H  ,16,,5,,,G - Gnd (7),0,0.0,0.00,D 1.05,L 0.4,188,,N55 24.18,,113.2,115.0,319,354,,,,0.0,0,249,478,0.143,0.178,9.0,19.0,39.6,59.0,-2.8,-2.8,F/CLSD (0),F/CLSD (0),Gear down - ground (3),Gnd (1),0.0,0.0,Normal (0),Normal (0),Not Out (0),Not Out (0), 0.0, 0.0, 0.0, 0.0, 0.0, 0.0,NOTCMD (0)
64.250,,,,,,,,,,,,,,,D 1.05,,,,,,,,,,,,,,,,,,,,,,,,,,,,,,,,,,,,,,,,,
64.500,,,,,,,,,,,,,,,D 1.05,L 0.4,,,,,,,,,,,,,,,,,,,,,,,,,,,,,,,,Not Out (0),Not Out (0),,,,,,,
64.750,,,,,,,,,,,,,,,D 1.05,,,,,,,,,,,,,,,,,,,,,,,,,,,,,,,,,,,,,,,,,
65.000,.OH-LVI,,EFHK,,,,6,,,,G - Gnd (7),0,0.0,,D 1.05,L 0.4,188,1007,,,113.2,115.0,334,356,,16.0,,,,262,478,0.150,0.178,9.5,19.1,41.0,58.9,-2.8,-2.8,,,Gear down - ground (3),Gnd (1),,,Normal (0),Normal (0),Not Out (0),Not Out (0), 0.0, 0.0, 0.0, 0.0, 0.0, 0.0,
65.250,,,,,,,,,,,,,,,D 1.05,,,,,,,,,,,,,,,,,,,,,,,,,,,,,,,,,,,,,,,,,
65.500,,,,,,,,,,,,,,,D 1.05,L 0.4,,,,,,,,,,,,,,,,,,,,,,,,,,,,,,,,Not Out (0),Not Out (0),,,,,,,
65.750,,,,,,,,,,,,,,,D 1.05,,,,,,,,,,,,,,,,,,,,,,,,,,,,,,,,,,,,,,,,,
66.000,,,,,,,,,,,G - Gnd (7),0,0.0,,D 1.05,L 0.4,188,,,E012 39.38,113.2,115.0,343,357,54825,,0.00,,,274,480,0.154,0.176,10.1,19.3,42.3,58.9,-2.8,-2.8,F/CLSD (0),F/CLSD (0),Gear down - ground (3),Gnd (1),0.0,0.0,Normal (0),Normal (0),Not Out (0),Not Out (0), 0.0, 0.0, 0.0, 0.0, 0.0, 0.0,
66.250,,,,,,,,,,,,,,,D 1.05,,,,,,,,,,,,,,,,,,,,,,,,,,,,,,,,,,,,,,,,,
66.500,,,,,,,,,,,,,,,D 1.05,L 0.4,,,,,,,,,,,,,,,,,,,,,,,,,,,,,,,,Not Out (0),Not Out (0),,,,,,,
66.750,,,,,,,,,,,,,,,D 1.05,,,,,,,,,,,,,,,,,,,,,,,,,,,,,,,,,,,,,,,,,
67.000,,,,,,,,,17,5,G - Gnd (7),0,0.0,,D 1.05,L 0.4,188,,,,113.2,115.0,356,356,,16.0,,,,287,480,0.160,0.178,10.6,19.3,43.5,58.9,-2.8,-2.8,,,Gear down - ground (3),Gnd (1),,,Normal (0),Normal (0),Not Out (0),Not Out (0), 0.0, 0.0, 0.0, 0.0, 0.0, 0.0,
67.250,,,,,,,,,,,,,,,D 1.05,,,,,,,,,,,,,,,,,,,,,,,,,,,,,,,,,,,,,,,,,
67.500,,,,,,,,,,,,,,,D 1.05,L 0.4,,,,,,,,,,,,,,,,,,,,,,,,,,,,,,,,Not Out (0),Not Out (0),,,,,,,
67.750,,,,,,,,,,,,,,,D 1.05,,,,,,,,,,,,,,,,,,,,,,,,,,,,,,,,,,,,,,,,,
68.000,,A319 (5),,EKCH,FIN83H  ,16,,5,,,G - Gnd (7),0,0.0,0.00,D 1.05,L 0.4,188,,N55 24.18,,113.2,115.0,365,356,,,,0.0,0,301,481,0.168,0.178,11.1,19.3,44.8,58.9,-2.8,-2.8,F/CLSD (0),F/CLSD (0),Gear down - ground (3),Gnd (1),0.0,0.0,Normal (0),Normal (0),Not Out (0),Not Out (0), 0.0, 0.0, 0.0, 0.0, 0.0, 0.0,NOTCMD (0)
68.250,,,,,,,,,,,,,,,D 1.05,,,,,,,,,,,,,,,,,,,,,,,,,,,,,,,,,,,,,,,,,
68.500,,,,,,,,,,,,,,,D 1.05,L 0.4,,,,,,,,,,,,,,,,,,,,,,,,,,,,,,,,Not Out (0),Not Out (0),,,,,,,
68.750,,,,,,,,,,,,,,,D 1.05,,,,,,,,,,,,,,,,,,,,,,,,,,,,,,,,,,,,,,,,,
69.000,.OH-LVI,,EFHK,,,,6,,,,G - Gnd (7),0,0.0,,D 1.05,L 0.4,188,1007,,,113.2,115.0,379,356,,16.0,,,,313,481,0.176,0.178,11.8,19.3,46.0,58.9,-2.8,-2.8,,,Gear down - ground (3),Gnd (1),,,Normal (0),Normal (0),Not Out (0),Not Out (0), 0.0, 0.0, 0.0, 0.0, 0.0, 0.0,
69.250,,,,,,,,,,,,,,,D 1.05,,,,,,,,,,,,,,,,,,,,,,,,,,,,,,,,,,,,,,,,,
69.500,,,,,,,,,,,,,,,D 1.05,L 0.4,,,,,,,,,,,,,,,,,,,,,,,,,,,,,,,,Not Out (0),Not Out (0),,,,,,,
69.750,,,,,,,,,,,,,,,D 1.05,,,,,,,,,,,,,,,,,,,,,,,,,,,,,,,,,,,,,,,,,
70.000,,,,,,,,,,,G - Gnd (7),0,0.0,,D 1.05,L 0.4,188,,,E012 39.38,113.2,115.0,390,356,54825,,0.00,,,324,482,0.184,0.178,12.3,19.1,47.4,58.9,-2.8,-2.8,F/CLSD (0),F/CLSD (0),Gear down - ground (3),Gnd (1),0.0,0.0,Normal (0),Normal (0),Not Out (0),Not Out (0), 0.0, 0.0, 0.0, 0.0, 0.0, 0.0,
70.250,,,,,,,,,,,,,,,D 1.05,,,,,,,,,,,,,,,,,,,,,,,,,,,,,,,,,,,,,,,,,
70.500,,,,,,,,,,,,,,,D 1.05,L 0.4,,,,,,,,,,,,,,,,,,,,,,,,,,,,,,,,Not Out (0),Not Out (0),,,,,,,
70.750,,,,,,,,,,,,,,,D 1.05,,,,,,,,,,,,,,,,,,,,,,,,,,,,,,,,,,,,,,,,,
71.000,,,,,,,,,17,9,G - Gnd (7),0,0.0,,D 1.05,L 0.4,188,,,,113.2,115.0,397,352,,16.0,,,,337,483,0.189,0.178,12.9,19.1,48.6,58.9,-2.8,-2.8,,,Gear down - ground (3),Gnd (1),,,Normal (0),Normal (0),Not Out (0),Not Out (0), 0.0, 0.0, 0.0, 0.0, 0.0, 0.0,
71.250,,,,,,,,,,,,,,,D 1.05,,,,,,,,,,,,,,,,,,,,,,,,,,,,,,,,,,,,,,,,,
71.500,,,,,,,,,,,,,,,D 1.05,L 0.4,,,,,,,,,,,,,,,,,,,,,,,,,,,,,,,,Not Out (0),Not Out (0),,,,,,,
71.750,,,,,,,,,,,,,,,D 1.05,,,,,,,,,,,,,,,,,,,,,,,,,,,,,,,,,,,,,,,,,
72.000,,A319 (5),,EKCH,FIN83H  ,16,,5,,,G - Gnd (7),0,0.0,0.00,D 1.05,L 0.4,188,,N55 24.18,,113.2,115.0,408,356,,,,0.0,0,346,484,0.193,0.178,13.5,19.0,50.0,58.9,-2.8,-2.8,F/CLSD (0),F/CLSD (0),Gear down - ground (3),Gnd (1),0.0,0.0,Normal (0),Normal (0),Not Out (0),Not Out (0), 0.0, 0.0, 0.0, 0.0, 0.0, 0.0,NOTCMD (0)
72.250,,,,,,,,,,,,,,,D 1.05,,,,,,,,,,,,,,,,,,,,,,,,,,,,,,,,,,,,,,,,,
72.500,,,,,,,,,,,,,,,D 1.05,L 0.4,,,,,,,,,,,,,,,,,,,,,,,,,,,,,,,,Not Out (0),Not Out (0),,,,,,,
72.750,,,,,,,,,,,,,,,D 1.05,,,,,,,,,,,,,,,,,,,,,,,,,,,,,,,,,,,,,,,,,
73.000,.OH-LVI,,EFHK,,,,6,,,,G - Gnd (7),0,0.0,,D 1.05,L 0.4,188,1007,,,113.2,115.0,421,356,,16.0,,,,355,484,0.201,0.176,14.0,18.9,51.1,59.0,-2.8,-2.8,,,Gear down - ground (3),Gnd (1),,,Normal (0),Normal (0),Not Out (0),Not Out (0),U 0.1, 0.0, 0.0, 0.0, 0.0, 0.0,
73.250,,,,,,,,,,,,,,,D 1.05,,,,,,,,,,,,,,,,,,,,,,,,,,,,,,,,,,,,,,,,,
73.500,,,,,,,,,,,,,,,D 1.05,L 0.4,,,,,,,,,,,,,,,,,,,,,,,,,,,,,,,,Not Out (0),Not Out (0),,,,,,,
73.750,,,,,,,,,,,,,,,D 1.05,,,,,,,,,,,,,,,,,,,,,,,,,,,,,,,,,,,,,,,,,
74.000,,,,,,,,,,,G - Gnd (7),0,0.0,,D 1.05,L 0.4,188,,,E012 39.38,113.2,115.0,426,354,54825,,0.00,,,366,485,0.205,0.176,14.6,18.8,51.6,59.0,-2.8,-2.8,F/CLSD (0),F/CLSD (0),Gear down - ground (3),Gnd (1),0.0,0.0,Normal (0),Normal (0),Not Out (0),Not Out (0),U 0.1, 0.0, 0.0, 0.0, 0.0, 0.0,
74.250,,,,,,,,,,,,,,,D 1.05,,,,,,,,,,,,,,,,,,,,,,,,,,,,,,,,,,,,,,,,,
74.500,,,,,,,,,,,,,,,D 1.05,L 0.4,,,,,,,,,,,,,,,,,,,,,,,,,,,,,,,,Not Out (0),Not Out (0),,,,,,,
74.750,,,,,,,,,,,,,,,D 1.05,,,,,,,,,,,,,,,,,,,,,,,,,,,,,,,,,,,,,,,,,
75.000,,,,,,,,,17,13,G - Gnd (7),0,0.0,,D 1.05,L 0.4,188,,,,113.2,115.0,432,356,,16.0,,,,375,486,0.209,0.176,15.1,18.8,52.4,59.0,-2.8,-2.8,,,Gear down - ground (3),Gnd (1),,,Normal (0),Normal (0),Not Out (0),Not Out (0),U 0.1, 0.0, 0.0, 0.0, 0.0, 0.0,
75.250,,,,,,,,,,,,,,,D 1.05,,,,,,,,,,,,,,,,,,,,,,,,,,,,,,,,,,,,,,,,,
75.500,,,,,,,,,,,,,,,D 1.05,L 0.4,,,,,,,,,,,,,,,,,,,,,,,,,,,,,,,,Not Out (0),Not Out (0),,,,,,,
75.750,,,,,,,,,,,,,,,D 1.05,,,,,,,,,,,,,,,,,,,,,,,,,,,,,,,,,,,,,,,,,
76.000,,A319 (5),,EKCH,FIN83H  ,16,,5,,,G - Gnd (7),0,0.0,0.00,D 1.05,L 0.4,188,,N55 24.18,,113.2,115.0,439,357,,,,0.0,0,385,487,0.211,0.176,15.4,18.8,53.0,59.0,-2.8,-2.8,F/CLSD (0),F/CLSD (0),Gear down - ground (3),Gnd (1),0.0,0.0,Normal (0),Normal (0),Not Out (0),Not Out (0),U 0.1, 0.0, 0.0, 0.0, 0.0, 0.0,NOTCMD (0)
76.250,,,,,,,,,,,,,,,D 1.05,,,,,,,,,,,,,,,,,,,,,,,,,,,,,,,,,,,,,,,,,
76.500,,,,,,,,,,,,,,,D 1.05,L 0.4,,,,,,,,,,,,,,,,,,,,,,,,,,,,,,,,Not Out (0),Not Out (0),,,,,,,
76.750,,,,,,,,,,,,,,,D 1.05,,,,,,,,,,,,,,,,,,,,,,,,,,,,,,,,,,,,,,,,,
77.000,.OH-LVI,,EFHK,,,,6,,,,G - Gnd (7),0,0.0,,D 1.05,L 0.4,188,1007,,,113.2,115.0,444,356,,16.0,,,,394,487,0.215,0.178,15.8,19.0,53.8,59.0,-2.8,-2.8,,,Gear down - ground (3),Gnd (1),,,Normal (0),Normal (0),Not Out (0),Not Out (0),U 0.1, 0.0, 0.0, 0.0, 0.0, 0.0,
77.250,,,,,,,,,,,,,,,D 1.05,,,,,,,,,,,,,,,,,,,,,,,,,,,,,,,,,,,,,,,,,
77.500,,,,,,,,,,,,,,,D 1.05,L 0.4,,,,,,,,,,,,,,,,,,,,,,,,,,,,,,,,Not Out (0),Not Out (0),,,,,,,
77.750,,,,,,,,,,,,,,,D 1.05,,,,,,,,,,,,,,,,,,,,,,,,,,,,,,,,,,,,,,,,,
78.000,,,,,,,,,,,G - Gnd (7),0,0.0,,D 1.05,L 0.4,188,,,E012 39.38,113.2,115.0,448,352,54825,,0.00,,,401,488,0.219,0.176,16.3,19.1,54.6,59.0,-2.8,-2.8,F/CLSD (0),F/CLSD (0),Gear down - ground (3),Gnd (1),0.0,0.0,Normal (0),Normal (0),Not Out (0),Not Out (0), 0.0, 0.0, 0.0, 0.0, 0.0, 0.0,
78.250,,,,,,,,,,,,,,,D 1.05,,,,,,,,,,,,,,,,,,,,,,,,,,,,,,,,,,,,,,,,,
78.500,,,,,,,,,,,,,,,D 1.05,L 0.4,,,,,,,,,,,,,,,,,,,,,,,,,,,,,,,,Not Out (0),Not Out (0),,,,,,,
78.750,,,,,,,,,,,,,,,D 1.05,,,,,,,,,,,,,,,,,,,,,,,,,,,,,,,,,,,,,,,,,
79.000,,,,,,,,,17,17,G - Gnd (7),0,0.0,,D 1.05,L 0.4,188,,,,113.2,115.0,461,357,,16.0,,,,409,489,0.225,0.178,16.9,19.3,55.4,59.0,-2.8,-2.8,,,Gear down - ground (3),Gnd (1),,,Normal (0),Normal (0),Not Out (0),Not Out (0),U 0.1, 0.0, 0.0, 0.0, 0.0, 0.0,
79.250,,,,,,,,,,,,,,,D 1.05,,,,,,,,,,,,,,,,,,,,,,,,,,,,,,,,,,,,,,,,,
79.500,,,,,,,,,,,,,,,D 1.05,L 0.4,,,,,,,,,,,,,,,,,,,,,,,,,,,,,,,,Not Out (0),Not Out (0),,,,,,,
79.750,,,,,,,,,,,,,,,D 1.05,,,,,,,,,,,,,,,,,,,,,,,,,,,,,,,,,,,,,,,,,
80.000,,A319 (5),,EKCH,FIN83H  ,16,,5,,,G - Gnd (7),0,0.0,0.00,D 1.05,L 0.4,188,,N55 24.18,,113.2,115.0,472,356,,,,0.0,0,416,490,0.230,0.176,17.4,19.4,56.1,59.0,-2.8,-2.8,F/CLSD (0),F/CLSD (0),Gear down - ground (3),Gnd (1),0.0,0.0,Normal (0),Normal (0),Not Out (0),Not Out (0),U 0.1, 0.0, 0.0, 0.0, 0.0, 0.0,NOTCMD (0)
80.250,,,,,,,,,,,,,,,D 1.05,,,,,,,,,,,,,,,,,,,,,,,,,,,,,,,,,,,,,,,,,
80.500,,,,,,,,,,,,,,,D 1.05,L 0.4,,,,,,,,,,,,,,,,,,,,,,,,,,,,,,,,Not Out (0),Not Out (0),,,,,,,
80.750,,,,,,,,,,,,,,,D 1.05,,,,,,,,,,,,,,,,,,,,,,,,,,,,,,,,,,,,,,,,,
81.000,.OH-LVI,,EFHK,,,,6,,,,G - Gnd (7),0,0.0,,D 1.05,L 0.4,188,1007,,,113.2,115.0,483,352,,16.0,,,,423,490,0.236,0.178,17.8,19.4,57.1,59.0,-2.8,-2.8,,,Gear down - ground (3),Gnd (1),,,Normal (0),Normal (0),Not Out (0),Not Out (0),U 0.1, 0.0, 0.0, 0.0, 0.0, 0.0,
81.250,,,,,,,,,,,,,,,D 1.05,,,,,,,,,,,,,,,,,,,,,,,,,,,,,,,,,,,,,,,,,
81.500,,,,,,,,,,,,,,,D 1.05,L 0.4,,,,,,,,,,,,,,,,,,,,,,,,,,,,,,,,Not Out (0),Not Out (0),,,,,,,
81.750,,,,,,,,,,,,,,,D 1.05,,,,,,,,,,,,,,,,,,,,,,,,,,,,,,,,,,,,,,,,,
82.000,,,,,,,,,,,G - Gnd (7),0,0.0,,D 1.05,L 0.4,188,,,E012 39.38,113.2,115.0,495,354,54825,,0.00,,,430,491,0.244,0.176,18.0,19.3,58.0,59.0,-2.8,-2.8,F/CLSD (0),F/CLSD (0),Gear down - ground (3),Gnd (1),0.0,0.0,Normal (0),Normal (0),Not Out (0),Not Out (0),U 0.1, 0.0, 0.0, 0.0, 0.0, 0.0,
82.250,,,,,,,,,,,,,,,D 1.05,,,,,,,,,,,,,,,,,,,,,,,,,,,,,,,,,,,,,,,,,
82.500,,,,,,,,,,,,,,,D 1.05,L 0.4,,,,,,,,,,,,,,,,,,,,,,,,,,,,,,,,Not Out (0),Not Out (0),,,,,,,
82.750,,,,,,,,,,,,,,,D 1.05,,,,,,,,,,,,,,,,,,,,,,,,,,,,,,,,,,,,,,,,,
83.000,,,,,,,,,17,21,G - Gnd (7),0,0.0,,D 1.05,L 0.4,188,,,,113.2,115.0,506,354,,16.0,,,,437,491,0.254,0.176,18.6,19.4,59.1,59.0,-2.8,-2.8,,,Gear down - ground (3),Gnd (1),,,Normal (0),Normal (0),Not Out (0),Not Out (0),U 0.1, 0.0, 0.0, 0.0, 0.0, 0.0,
83.250,,,,,,,,,,,,,,,D 1.05,,,,,,,,,,,,,,,,,,,,,,,,,,,,,,,,,,,,,,,,,
83.500,,,,,,,,,,,,,,,D 1.05,L 0.4,,,,,,,,,,,,,,,,,,,,,,,,,,,,,,,,Not Out (0),Not Out (0),,,,,,,
83.750,,,,,,,,,,,,,,,D 1.05,,,,,,,,,,,,,,,,,,,,,,,,,,,,,,,,,,,,,,,,,
84.000,,A319 (5),,EKCH,FIN83H  ,16,,5,,,G - Gnd (7),0,0.0,0.00,D 1.05,L 0.4,188,,N55 24.18,,113.2,115.0,421,352,,,,0.0,0,444,492,0.195,0.178,19.3,19.4,59.5,59.0,-2.8,-2.8,F/CLSD (0),F/CLSD (0),Gear down - ground (3),Gnd (1),0.0,0.0,Normal (0),Normal (0),Not Out (0),Not Out (0),U 0.1, 0.0, 0.0, 0.0, 0.0, 0.0,NOTCMD (0)
84.250,,,,,,,,,,,,,,,D 1.05,,,,,,,,,,,,,,,,,,,,,,,,,,,,,,,,,,,,,,,,,
84.500,,,,,,,,,,,,,,,D 1.05,L 0.4,,,,,,,,,,,,,,,,,,,,,,,,,,,,,,,,Not Out (0),Not Out (0),,,,,,,
84.750,,,,,,,,,,,,,,,D 1.05,,,,,,,,,,,,,,,,,,,,,,,,,,,,,,,,,,,,,,,,,
85.000,.OH-LVI,,EFHK,,,,6,,,,G - Gnd (7),0,0.0,,D 1.05,L 0.4,188,1007,,,113.2,115.0,372,356,,16.0,,,,447,493,0.174,0.176,19.4,19.3,59.4,59.0,-2.8,-2.8,,,Gear down - ground (3),Gnd (1),,,Normal (0),Normal (0),Not Out (0),Not Out (0),U 0.1, 0.0, 0.0, 0.0, 0.0, 0.0,
85.250,,,,,,,,,,,,,,,D 1.05,,,,,,,,,,,,,,,,,,,,,,,,,,,,,,,,,,,,,,,,,
85.500,,,,,,,,,,,,,,,D 1.05,L 0.4,,,,,,,,,,,,,,,,,,,,,,,,,,,,,,,,Not Out (0),Not Out (0),,,,,,,
85.750,,,,,,,,,,,,,,,D 1.05,,,,,,,,,,,,,,,,,,,,,,,,,,,,,,,,,,,,,,,,,
86.000,,,,,,,,,,,G - Gnd (7),0,0.0,,D 1.05,L 0.4,188,,,E012 39.38,113.2,115.0,375,356,54825,,0.00,,,446,493,0.176,0.176,19.5,19.1,59.3,59.0,-2.8,-2.8,F/CLSD (0),F/CLSD (0),Gear down - ground (3),Gnd (1),0.0,0.0,Normal (0),Normal (0),Not Out (0),Not Out (0),U 0.1, 0.0, 0.0, 0.0, 0.0, 0.0,
86.250,,,,,,,,,,,,,,,D 1.05,,,,,,,,,,,,,,,,,,,,,,,,,,,,,,,,,,,,,,,,,
86.500,,,,,,,,,,,,,,,D 1.05,L 0.4,,,,,,,,,,,,,,,,,,,,,,,,,,,,,,,,Not Out (0),Not Out (0),,,,,,,
86.750,,,,,,,,,,,,,,,D 1.05,,,,,,,,,,,,,,,,,,,,,,,,,,,,,,,,,,,,,,,,,
87.000,,,,,,,,,17,25,G - Gnd (7),0,0.0,,D 1.05,L 0.4,188,,,,113.2,115.0,377,352,,16.0,,,,446,494,0.178,0.176,19.6,19.1,59.1,59.0,-2.8,-2.8,,,Gear down - ground (3),Gnd (1),,,Normal (0),Normal (0),Not Out (0),Not Out (0),U 0.1, 0.0, 0.0, 0.0, 0.0, 0.0,
87.250,,,,,,,,,,,,,,,D 1.05,,,,,,,,,,,,,,,,,,,,,,,,,,,,,,,,,,,,,,,,,
87.500,,,,,,,,,,,,,,,D 1.05,L 0.4,,,,,,,,,,,,,,,,,,,,,,,,,,,,,,,,Not Out (0),Not Out (0),,,,,,,
87.750,,,,,,,,,,,,,,,D 1.05,,,,,,,,,,,,,,,,,,,,,,,,,,,,,,,,,,,,,,,,,
88.000,,A319 (5),,EKCH,FIN83H  ,16,,5,,,G - Gnd (7),0,0.0,0.00,D 1.05,L 0.4,188,,N55 24.18,,113.2,115.0,379,354,,,,0.0,0,447,494,0.180,0.176,19.5,18.9,59.1,59.0,-2.8,-2.8,F/CLSD (0),F/CLSD (0),Gear down - ground (3),Gnd (1),0.0,0.0,Normal (0),Normal (0),Not Out (0),Not Out (0),U 0.1, 0.0, 0.0, 0.0, 0.0, 0.0,NOTCMD (0)
88.250,,,,,,,,,,,,,,,D 1.05,,,,,,,,,,,,,,,,,,,,,,,,,,,,,,,,,,,,,,,,,
88.500,,,,,,,,,,,,,,,D 1.05,L 0.4,,,,,,,,,,,,,,,,,,,,,,,,,,,,,,,,Not Out (0),Not Out (0),,,,,,,
88.750,,,,,,,,,,,,,,,D 1.05,,,,,,,,,,,,,,,,,,,,,,,,,,,,,,,,,,,,,,,,,
89.000,.OH-LVI,,EFHK,,,,6,,,,G - Gnd (7),0,0.0,,D 1.05,L 0.4,188,1007,,,113.2,115.0,383,352,,16.0,,,,448,495,0.180,0.176,19.5,18.8,59.0,59.0,-2.8,-2.8,,,Gear down - ground (3),Gnd (1),,,Normal (0),Normal (0),Not Out (0),Not Out (0),U 0.1, 0.0, 0.0, 0.0, 0.0, 0.0,
89.250,,,,,,,,,,,,,,,D 1.05,,,,,,,,,,,,,,,,,,,,,,,,,,,,,,,,,,,,,,,,,
89.500,,,,,,,,,,,,,,,D 1.05,L 0.4,,,,,,,,,,,,,,,,,,,,,,,,,,,,,,,,Not Out (0),Not Out (0),,,,,,,
89.750,,,,,,,,,,,,,,,D 1.05,,,,,,,,,,,,,,,,,,,,,,,,,,,,,,,,,,,,,,,,,
90.000,,,,,,,,,,,G - Gnd (7),0,0.0,,D 1.05,L 0.4,188,,,E012 39.38,113.2,115.0,385,352,54825,,0.00,,,450,496,0.186,0.176,19.5,18.8,59.0,59.0,-2.8,-2.8,F/CLSD (0),F/CLSD (0),Gear down - ground (3),Gnd (1),0.0,0.1,Normal (0),Normal (0),Not Out (0),Not Out (0),U 0.1, 0.0, 0.0, 0.0, 0.0, 0.0,
90.250,,,,,,,,,,,,,,,D 1.05,,,,,,,,,,,,,,,,,,,,,,,,,,,,,,,,,,,,,,,,,
90.500,,,,,,,,,,,,,,,D 1.05,L 0.4,,,,,,,,,,,,,,,,,,,,,,,,,,,,,,,,Not Out (0),Not Out (0),,,,,,,
90.750,,,,,,,,,,,,,,,D 1.05,,,,,,,,,,,,,,,,,,,,,,,,,,,,,,,,,,,,,,,,,
91.000,,,,,,,,,17,29,G - Gnd (7),0,0.0,,D 1.05,L 0.4,188,,,,113.2,115.0,415,356,,16.0,,,,453,496,0.197,0.180,19.5,18.8,58.8,59.0,-2.8,-2.8,,,Gear down - ground (3),Gnd (1),,,Normal (0),Normal (0),Not Out (0),Not Out (0),U 0.1, 0.0, 0.0, 0.0, 0.0, 0.0,
91.250,,,,,,,,,,,,,,,D 1.05,,,,,,,,,,,,,,,,,,,,,,,,,,,,,,,,,,,,,,,,,
91.500,,,,,,,,,,,,,,,D 1.05,L 0.4,,,,,,,,,,,,,,,,,,,,,,,,,,,,,,,,Not Out (0),Not Out (0),,,,,,,
91.750,,,,,,,,,,,,,,,D 1.05,,,,,,,,,,,,,,,,,,,,,,,,,,,,,,,,,,,,,,,,,
92.000,,A319 (5),,EKCH,FIN83H  ,16,,5,,,G - Gnd (7),0,0.0,0.00,D 1.05,L 0.4,192,,N55 24.18,,113.2,115.0,424,361,,,,0.0,0,457,498,0.203,0.186,19.1,18.8,58.9,58.9,-2.8,-2.8,F/CLSD (0),N/CLSD (1),Gear down - ground (3),Gnd (1),0.0,3.4,Normal (0),Normal (0),Not Out (0),Not Out (0), 0.0, 0.0, 0.0, 0.0, 0.0, 0.0,NOTCMD (0)
92.250,,,,,,,,,,,,,,,D 1.05,,,,,,,,,,,,,,,,,,,,,,,,,,,,,,,,,,,,,,,,,
92.500,,,,,,,,,,,,,,,D 1.05,L 0.4,,,,,,,,,,,,,,,,,,,,,,,,,,,,,,,,Not Out (0),Not Out (0),,,,,,,
92.750,,,,,,,,,,,,,,,D 1.05,,,,,,,,,,,,,,,,,,,,,,,,,,,,,,,,,,,,,,,,,
93.000,.OH-LVI,,EFHK,,,,6,,,,G - Gnd (7),0,0.0,,D 1.05,L 0.4,188,1007,,,113.2,115.0,415,377,,16.0,,,,462,501,0.197,0.201,19.5,18.8,58.9,58.8,-2.8,-2.8,,,Gear down - ground (3),Gnd (1),,,Normal (0),Normal (0),Not Out (0),Not Out (0),U 0.1, 0.0, 0.0, 0.0, 0.0, 0.0,
93.250,,,,,,,,,,,,,,,D 1.05,,,,,,,,,,,,,,,,,,,,,,,,,,,,,,,,,,,,,,,,,
93.500,,,,,,,,,,,,,,,D 1.05,L 0.4,,,,,,,,,,,,,,,,,,,,,,,,,,,,,,,,Not Out (0),Not Out (0),,,,,,,
93.750,,,,,,,,,,,,,,,D 1.05,,,,,,,,,,,,,,,,,,,,,,,,,,,,,,,,,,,,,,,,,
94.000,,,,,,,,,,,G - Gnd (7),0,0.0,,D 1.05,L 0.4,188,,,E012 39.38,113.2,115.0,410,399,54825,,0.00,,,465,508,0.195,0.209,19.6,19.1,59.0,58.9,-2.8,-2.8,F/CLSD (0),N/CLSD (1),Gear down - ground (3),Gnd (1),1.0,6.7,Normal (0),Normal (0),Not Out (0),Not Out (0), 0.0, 0.0, 0.0, 0.0, 0.0, 0.0,
94.250,,,,,,,,,,,,,,,D 1.05,,,,,,,,,,,,,,,,,,,,,,,,,,,,,,,,,,,,,,,,,
94.500,,,,,,,,,,,,,,,D 1.05,L 0.4,,,,,,,,,,,,,,,,,,,,,,,,,,,,,,,,Not Out (0),Not Out (0),,,,,,,
94.750,,,,,,,,,,,,,,,D 1.05,,,,,,,,,,,,,,,,,,,,,,,,,,,,,,,,,,,,,,,,,
95.000,,,,,,,,,17,33,G - Gnd (7),0,0.0,,D 1.05,L 0.4,188,,,,113.2,115.0,410,412,,16.0,,,,467,515,0.195,0.213,19.8,19.3,59.0,59.0,-2.8,-2.8,,,Gear down - ground (3),Gnd (1),,,Normal (0),Normal (0),Not Out (0),Not Out (0), 0.0, 0.0, 0.0, 0.0, 0.0, 0.0,
95.250,,,,,,,,,,,,,,,D 1.05,,,,,,,,,,,,,,,,,,,,,,,,,,,,,,,,,,,,,,,,,
95.500,,,,,,,,,,,,,,,D 1.05,L 0.4,,,,,,,,,,,,,,,,,,,,,,,,,,,,,,,,Not Out (0),Not Out (0),,,,,,,
95.750,,,,,,,,,,,,,,,D 1.05,,,,,,,,,,,,,,,,,,,,,,,,,,,,,,,,,,,,,,,,,
96.000,,A319 (5),,EKCH,FIN83H  ,16,,5,,,G - Gnd (7),0,0.0,0.00,D 1.05,L 0.4,192,,N55 24.18,,113.2,115.0,406,415,,,,0.0,0,469,521,0.193,0.213,19.8,19.3,59.0,59.3,-2.8,-2.8,F/CLSD (0),N/CLSD (1),Gear down - ground (3),Gnd (1),1.0,9.6,Normal (0),Normal (0),Not Out (0),Not Out (0), 0.0, 0.0, 0.0, 0.0, 0.0, 0.0,NOTCMD (0)
96.250,,,,,,,,,,,,,,,D 1.05,,,,,,,,,,,,,,,,,,,,,,,,,,,,,,,,,,,,,,,,,
96.500,,,,,,,,,,,,,,,D 1.05,L 0.4,,,,,,,,,,,,,,,,,,,,,,,,,,,,,,,,Not Out (0),Not Out (0),,,,,,,
96.750,,,,,,,,,,,,,,,D 1.05,,,,,,,,,,,,,,,,,,,,,,,,,,,,,,,,,,,,,,,,,
97.000,.OH-LVI,,EFHK,,,,6,,,,G - Gnd (7),0,0.0,,D 1.05,L 0.4,192,1007,,,113.2,115.0,399,415,,16.0,,,,471,525,0.189,0.209,19.8,19.4,59.0,59.4,-2.8,-2.8,,,Gear down - ground (3),Gnd (1),,,Normal (0),Normal (0),Not Out (0),Not Out (0),U 0.1, 0.0, 0.0, 0.0, 0.0, 0.0,
97.250,,,,,,,,,,,,,,,D 1.05,,,,,,,,,,,,,,,,,,,,,,,,,,,,,,,,,,,,,,,,,
97.500,,,,,,,,,,,,,,,D 1.05,L 0.4,,,,,,,,,,,,,,,,,,,,,,,,,,,,,,,,Not Out (0),Not Out (0),,,,,,,
97.750,,,,,,,,,,,,,,,D 1.05,,,,,,,,,,,,,,,,,,,,,,,,,,,,,,,,,,,,,,,,,
98.000,,,,,,,,,,,G - Gnd (7),0,0.0,,D 1.05,L 0.4,188,,,E012 39.38,113.2,115.0,399,406,54825,,0.00,,,473,529,0.189,0.205,19.8,19.5,59.0,59.5,-2.8,-2.8,F/CLSD (0),N/CLSD (1),Gear down - ground (3),Gnd (1),1.5,10.0,Normal (0),Normal (0),Not Out (0),Not Out (0), 0.0, 0.0, 0.0, 0.0, 0.0, 0.0,
98.250,,,,,,,,,,,,,,,D 1.05,,,,,,,,,,,,,,,,,,,,,,,,,,,,,,,,,,,,,,,,,
98.500,,,,,,,,,,,,,,,D 1.05,L 0.4,,,,,,,,,,,,,,,,,,,,,,,,,,,,,,,,Not Out (0),Not Out (0),,,,,,,
98.750,,,,,,,,,,,,,,,D 1.05,,,,,,,,,,,,,,,,,,,,,,,,,,,,,,,,,,,,,,,,,
99.000,,,,,,,,,17,37,G - Gnd (7),0,0.0,,D 1.05,L 0.4,188,,,,113.2,115.0,397,397,,16.0,,,,474,531,0.188,0.201,19.8,19.8,59.0,59.5,-2.8,-2.8,,,Gear down - ground (3),Gnd (1),,,Normal (0),Normal (0),Not Out (0),Not Out (0), 0.0, 0.0, 0.0, 0.0, 0.0, 0.0,
99.250,,,,,,,,,,,,,,,D 1.05,,,,,,,,,,,,,,,,,,,,,,,,,,,,,,,,,,,,,,,,,
99.500,,,,,,,,,,,,,,,D 1.05,L 0.4,,,,,,,,,,,,,,,,,,,,,,,,,,,,,,,,Not Out (0),Not Out (0),,,,,,,
99.750,,,,,,,,,,,,,,,D 1.05,,,,,,,,,,,,,,,,,,,,,,,,,,,,,,,,,,,,,,,,,
100.000,,A319 (5),,EKCH,FIN83H  ,16,,5,,,G - Gnd (7),0,0.0,0.00,D 1.05,L 0.4,188,,N55 24.18,,113.2,115.0,397,394,,,,0.0,0,476,532,0.189,0.199,19.6,19.8,59.0,59.5,-2.8,-2.8,F/CLSD (0),N/CLSD (1),Gear down - ground (3),Gnd (1),1.5,10.0,Normal (0),Normal (0),Not Out (0),Not Out (0), 0.0, 0.0, 0.0, 0.0, 0.0, 0.0,NOTCMD (0)
100.250,,,,,,,,,,,,,,,D 1.05,,,,,,,,,,,,,,,,,,,,,,,,,,,,,,,,,,,,,,,,,
100.500,,,,,,,,,,,,,,,D 1.05,L 0.4,,,,,,,,,,,,,,,,,,,,,,,,,,,,,,,,Not Out (0),Not Out (0),,,,,,,
100.750,,,,,,,,,,,,,,,D 1.05,,,,,,,,,,,,,,,,,,,,,,,,,,,,,,,,,,,,,,,,,
101.000,.OH-LVI,,EFHK,,,,6,,,,G - Gnd (7),0,0.0,,D 1.05,L 0.4,188,1007,,,113.2,115.0,397,388,,16.0,,,,477,534,0.188,0.197,19.5,19.8,59.0,59.5,-2.8,-2.8,,,Gear down - ground (3),Gnd (1),,,Normal (0),Normal (0),Not Out (0),Not Out (0), 0.0, 0.0, 0.0, 0.0, 0.0, 0.0,
101.250,,,,,,,,,,,,,,,D 1.05,,,,,,,,,,,,,,,,,,,,,,,,,,,,,,,,,,,,,,,,,
101.500,,,,,,,,,,,,,,,D 1.05,L 0.4,,,,,,,,,,,,,,,,,,,,,,,,,,,,,,,,Not Out (0),Not Out (0),,,,,,,
101.750,,,,,,,,,,,,,,,D 1.05,,,,,,,,,,,,,,,,,,,,,,,,,,,,,,,,,,,,,,,,,
102.000,,,,,,,,,,,G - Gnd (7),0,0.0,,D 1.05,L 0.4,188,,,E012 39.38,113.2,115.0,388,388,54825,,0.00,,,478,535,0.182,0.197,19.5,19.6,59.0,59.5,-2.8,-2.8,F/CLSD (0),N/CLSD (1),Gear down - ground (3),Gnd (1),1.5,10.0,Normal (0),Normal (0),Not Out (0),Not Out (0), 0.0, 0.0, 0.0, 0.0, 0.0, 0.0,
102.250,,,,,,,,,,,,,,,D 1.05,,,,,,,,,,,,,,,,,,,,,,,,,,,,,,,,,,,,,,,,,
102.500,,,,,,,,,,,,,,,D 1.05,L 0.4,,,,,,,,,,,,,,,,,,,,,,,,,,,,,,,,Not Out (0),Not Out (0),,,,,,,
102.750,,,,,,,,,,,,,,,D 1.05,,,,,,,,,,,,,,,,,,,,,,,,,,,,,,,,,,,,,,,,,
103.000,,,,,,,,,17,41,G - Gnd (7),0,0.0,,D 1.05,L 0.4,188,,,,113.2,115.0,385,388,,16.0,,,,479,536,0.182,0.199,19.5,19.5,59.0,59.5,-2.8,-2.8,,,Gear down - ground (3),Gnd (1),,,Normal (0),Normal (0),Not Out (0),Not Out (0), 0.0, 0.0, 0.0, 0.0, 0.0, 0.0,
103.250,,,,,,,,,,,,,,,D 1.05,,,,,,,,,,,,,,,,,,,,,,,,,,,,,,,,,,,,,,,,,
103.500,,,,,,,,,,,,,,,D 1.05,L 0.4,,,,,,,,,,,,,,,,,,,,,,,,,,,,,,,,Not Out (0),Not Out (0),,,,,,,
103.750,,,,,,,,,,,,,,,D 1.05,,,,,,,,,,,,,,,,,,,,,,,,,,,,,,,,,,,,,,,,,
104.000,,A319 (5),,EKCH,FIN83H  ,16,,5,,,G - Gnd (7),0,0.0,0.00,D 1.05,L 0.4,188,,N55 24.18,,113.2,115.0,383,394,,,,0.0,0,479,537,0.180,0.199,19.4,19.4,59.0,59.5,-2.8,-2.8,F/CLSD (0),N/CLSD (1),Gear down - ground (3),Gnd (1),1.5,10.0,Normal (0),Normal (0),Not Out (0),Not Out (0), 0.0, 0.0, 0.0, 0.0, 0.0, 0.0,NOTCMD (0)
104.250,,,,,,,,,,,,,,,D 1.05,,,,,,,,,,,,,,,,,,,,,,,,,,,,,,,,,,,,,,,,,
104.500,,,,,,,,,,,,,,,D 1.05,L 0.4,,,,,,,,,,,,,,,,,,,,,,,,,,,,,,,,Not Out (0),Not Out (0),,,,,,,
104.750,,,,,,,,,,,,,,,D 1.05,,,,,,,,,,,,,,,,,,,,,,,,,,,,,,,,,,,,,,,,,
105.000,.OH-LVI,,EFHK,,,,6,,,,G - Gnd (7),0,0.0,,D 1.05,L 0.4,188,1007,,,113.2,115.0,397,392,,16.0,,,,480,539,0.189,0.199,19.1,19.4,58.9,59.4,-2.8,-2.8,,,Gear down - ground (3),Gnd (1),,,Normal (0),Normal (0),Not Out (0),Not Out (0), 0.0, 0.0, 0.0, 0.0, 0.0, 0.0,
105.250,,,,,,,,,,,,,,,D 1.05,,,,,,,,,,,,,,,,,,,,,,,,,,,,,,,,,,,,,,,,,
105.500,,,,,,,,,,,,,,,D 1.05,L 0.4,,,,,,,,,,,,,,,,,,,,,,,,,,,,,,,,Not Out (0),Not Out (0),,,,,,,
105.750,,,,,,,,,,,,,,,D 1.05,,,,,,,,,,,,,,,,,,,,,,,,,,,,,,,,,,,,,,,,,
106.000,,,,,,,,,,,G - Gnd (7),0,0.0,,D 1.05,L 0.4,188,,,E012 39.38,113.2,115.0,414,390,54825,,0.00,,,484,540,0.197,0.199,18.9,19.4,58.9,59.5,-2.8,-2.8,N/CLSD (1),N/CLSD (1),Gear down - ground (3),Gnd (1),1.5,10.0,Normal (0),Normal (0),Not Out (0),Not Out (0), 0.0, 0.0, 0.0, 0.0, 0.0, 0.0,
106.250,,,,,,,,,,,,,,,D 1.05,,,,,,,,,,,,,,,,,,,,,,,,,,,,,,,,,,,,,,,,,
106.500,,,,,,,,,,,,,,,D 1.05,L 0.4,,,,,,,,,,,,,,,,,,,,,,,,,,,,,,,,Not Out (0),Not Out (0),,,,,,,
106.750,,,,,,,,,,,,,,,D 1.05,,,,,,,,,,,,,,,,,,,,,,,,,,,,,,,,,,,,,,,,,
107.000,,,,,,,,,17,45,G - Gnd (7),0,0.0,,D 1.05,L 0.4,188,,,,113.2,115.0,426,390,,16.0,,,,488,542,0.203,0.199,18.8,19.3,59.0,59.5,-2.8,-2.8,,,Gear down - ground (3),Gnd (1),,,Normal (0),Normal (0),Not Out (0),Not Out (0), 0.0, 0.0, 0.0, 0.0, 0.0, 0.0,
107.250,,,,,,,,,,,,,,,D 1.05,,,,,,,,,,,,,,,,,,,,,,,,,,,,,,,,,,,,,,,,,
107.500,,,,,,,,,,,,,,,D 1.05,L 0.4,,,,,,,,,,,,,,,,,,,,,,,,,,,,,,,,Not Out (0),Not Out (0),,,,,,,
107.750,,,,,,,,,,,,,,,D 1.05,,,,,,,,,,,,,,,,,,,,,,,,,,,,,,,,,,,,,,,,,
108.000,,A319 (5),,EKCH,FIN83H  ,16,,5,,,G - Gnd (7),0,0.0,0.00,D 1.05,L 0.4,188,,N55 24.18,,113.2,115.0,432,390,,,,0.0,0,492,543,0.207,0.199,18.9,19.3,59.0,59.5,-2.8,-2.8,N/CLSD (1),N/CLSD (1),Gear down - ground (3),Gnd (1),1.5,10.0,Normal (0),Normal (0),Not Out (0),Not Out (0), 0.0, 0.0, 0.0, 0.0, 0.0, 0.0,NOTCMD (0)
108.250,,,,,,,,,,,,,,,D 1.05,,,,,,,,,,,,,,,,,,,,,,,,,,,,,,,,,,,,,,,,,
108.500,,,,,,,,,,,,,,,D 1.05,L 0.4,,,,,,,,,,,,,,,,,,,,,,,,,,,,,,,,Not Out (0),Not Out (0),,,,,,,
108.750,,,,,,,,,,,,,,,D 1.05,,,,,,,,,,,,,,,,,,,,,,,,,,,,,,,,,,,,,,,,,
109.000,.OH-LVI,,EFHK,,,,6,,,,G - Gnd (7),0,0.0,,D 1.05,L 0.4,188,1007,,,113.2,115.0,434,394,,16.0,,,,497,545,0.209,0.199,18.8,19.3,59.1,59.5,-2.8,-2.8,,,Gear down - ground (3),Gnd (1),,,Normal (0),Normal (0),Not Out (0),Not Out (0), 0.0, 0.0, 0.0, 0.0, 0.0, 0.0,
109.250,,,,,,,,,,,,,,,D 1.05,,,,,,,,,,,,,,,,,,,,,,,,,,,,,,,,,,,,,,,,,
109.500,,,,,,,,,,,,,,,D 1.05,L 0.4,,,,,,,,,,,,,,,,,,,,,,,,,,,,,,,,Not Out (0),Not Out (0),,,,,,,
109.750,,,,,,,,,,,,,,,D 1.05,,,,,,,,,,,,,,,,,,,,,,,,,,,,,,,,,,,,,,,,,
110.000,,,,,,,,,,,G - Gnd (7),0,0.0,,D 1.05,L 0.4,188,,,E012 39.38,113.2,115.0,432,390,54825,,0.00,,,501,546,0.207,0.199,18.6,19.3,59.3,59.5,-2.8,-2.8,N/CLSD (1),N/CLSD (1),Gear down - ground (3),Gnd (1),1.5,10.0,Normal (0),Normal (0),Not Out (0),Not Out (0), 0.0, 0.0, 0.0, 0.0, 0.0, 0.0,
110.250,,,,,,,,,,,,,,,D 1.05,,,,,,,,,,,,,,,,,,,,,,,,,,,,,,,,,,,,,,,,,
110.500,,,,,,,,,,,,,,,D 1.05,L 0.4,,,,,,,,,,,,,,,,,,,,,,,,,,,,,,,,Not Out (0),Not Out (0),,,,,,,
110.750,,,,,,,,,,,,,,,D 1.05,,,,,,,,,,,,,,,,,,,,,,,,,,,,,,,,,,,,,,,,,
