Time (secs),A/C Tail Number,A/C Type,City Pair - To,City Pair - From,Flight Number,Date - Day,Date - Month,UTC - Hour,UTC - Minute,UTC - Second,Air / Gnd,Ground Speed,Computed Airspeed,Mach (derived),Pitch Angle,Roll Angle,Altitude (1013.25mB),Selected Baro Setting Capt,Present Pos - Latitude,Present Pos - Longitude,Magnetic Heading,True Heading,Fuel Flow Eng 1,Fuel Flow Eng 2,Actual Gross Weight,Total Air Temp,Drift Angle,Wind Direction True,Wind Speed,EGT Eng 1,EGT Eng 2,_EPR Actual Eng 1,_EPR Actual Eng 2,N1 Actual Eng 1,N1 Actual Eng 2,N2 Actual Eng 1,N2 Actual Eng 2,Throttle Angle Eng 1,Throttle Angle Eng 2,Pack 1 Flow Ctl Valve,Pack 2 Flow Ctl Valve,Gear (left),Land Gear Squat Switch - Nose,Flap Handle (derived),Flap Angle,Reverser Deployed Eng 1,Reverser Deployed Eng 2,Left Spoiler 1 Out,Right Spoiler 1 Out,Spoiler Pos LH 2,Spoiler Pos LH 4,Spoiler Pos LH 5,Spoiler Pos RH 2,Spoiler Pos RH 3,Spoiler Pos RH 5,Speed Brake Command
0.000,,A319 (5),,ESGG,FIN6LF  ,16,,6,,,G - Gnd (7),2,0.0,0.00,D 0.35,R 0.4,768,,N57 27.05,,66.1,67.7,0,346,,,,0.0,0,164,497,0.000,0.000,0.0,19.4,0.0,60.3,-2.8,-2.8,F/CLSD (0),F/CLSD (0),Gear down - ground (3),Gnd (1),0.0,0.0,Normal (0),Normal (0),Not Out (0),Not Out (0), 0.0, 0.0, 0.0, 0.0, 0.0, 0.0,NOTCMD (0)
0.250,,,,,,,,,,,,,,,D 0.35,,,,,,,,,,,,,,,,,,,,,,,,,,,,,,,,,,,,,,,,,
0.500,,,,,,,,,,,,,,,D 0.35,R 0.4,,,,,,,,,,,,,,,,,,,,,,,,,,,,,,,,Not Out (0),Not Out (0),,,,,,,
0.750,,,,,,,,,,,,,,,D 0.35,,,,,,,,,,,,,,,,,,,,,,,,,,,,,,,,,,,,,,,,,
1.000,.OH-LVH,,EFHK,,,,6,,,,G - Gnd (7),2,0.0,,D 0.35,R 0.4,768,1004,,,62.9,64.6,0,330,,16.5,,,,164,496,0.000,0.000,0.0,19.4,0.3,60.3,-2.8,-2.8,,,Gear down - ground (3),Gnd (1),,,Normal (0),Normal (0),Not Out (0),Not Out (0), 0.0, 0.0, 0.0, 0.0, 0.0, 0.0,
1.250,,,,,,,,,,,,,,,D 0.35,,,,,,,,,,,,,,,,,,,,,,,,,,,,,,,,,,,,,,,,,
1.500,,,,,,,,,,,,,,,D 0.35,R 0.4,,,,,,,,,,,,,,,,,,,,,,,,,,,,,,,,Not Out (0),Not Out (0),,,,,,,
1.750,,,,,,,,,,,,,,,D 0.35,,,,,,,,,,,,,,,,,,,,,,,,,,,,,,,,,,,,,,,,,
2.000,,,,,,,,,,,G - Gnd (7),2,0.0,,D 0.35,R 0.4,768,,,E012 18.32,59.1,61.0,0,327,0,,0.00,,,164,492,0.000,0.000,0.0,19.3,1.6,60.1,-2.8,-2.8,F/CLSD (0),F/CLSD (0),Gear down - ground (3),Gnd (1),0.0,0.0,Normal (0),Normal (0),Not Out (0),Not Out (0), 0.0, 0.0, 0.0, 0.0, 0.0, 0.0,
2.250,,,,,,,,,,,,,,,D 0.35,,,,,,,,,,,,,,,,,,,,,,,,,,,,,,,,,,,,,,,,,
2.500,,,,,,,,,,,,,,,D 0.35,R 0.4,,,,,,,,,,,,,,,,,,,,,,,,,,,,,,,,Not Out (0),Not Out (0),,,,,,,
2.750,,,,,,,,,,,,,,,D 0.35,,,,,,,,,,,,,,,,,,,,,,,,,,,,,,,,,,,,,,,,,
3.000,,,,,,,,,52,13,G - Gnd (7),2,0.0,,D 0.35,R 0.4,768,,,,55.2,57.0,0,330,,16.5,,,,164,490,0.000,0.000,0.0,19.1,3.4,60.0,-2.8,-2.8,,,Gear down - ground (3),Gnd (1),,,Normal (0),Normal (0),Not Out (0),Not Out (0), 0.0, 0.0, 0.0, 0.0, 0.0, 0.0,
3.250,,,,,,,,,,,,,,,D 0.35,,,,,,,,,,,,,,,,,,,,,,,,,,,,,,,,,,,,,,,,,
3.500,,,,,,,,,,,,,,,D 0.35,R 0.4,,,,,,,,,,,,,,,,,,,,,,,,,,,,,,,,Not Out (0),Not Out (0),,,,,,,
3.750,,,,,,,,,,,,,,,D 0.35,,,,,,,,,,,,,,,,,,,,,,,,,,,,,,,,,,,,,,,,,
4.000,,A319 (5),,ESGG,FIN6LF  ,16,,6,,,G - Gnd (7),2,0.0,0.00,D 0.35,R 0.4,768,,N57 27.05,,51.3,53.0,0,332,,,,0.0,0,164,488,0.000,0.000,0.0,19.0,5.6,59.9,-2.8,-2.8,F/CLSD (0),F/CLSD (0),Gear down - ground (3),Gnd (1),0.0,0.0,Normal (0),Normal (0),Not Out (0),Not Out (0), 0.0, 0.0, 0.0, 0.0, 0.0, 0.0,NOTCMD (0)
4.250,,,,,,,,,,,,,,,D 0.35,,,,,,,,,,,,,,,,,,,,,,,,,,,,,,,,,,,,,,,,,
4.500,,,,,,,,,,,,,,,D 0.35,R 0.4,,,,,,,,,,,,,,,,,,,,,,,,,,,,,,,,Not Out (0),Not Out (0),,,,,,,
4.750,,,,,,,,,,,,,,,D 0.35,,,,,,,,,,,,,,,,,,,,,,,,,,,,,,,,,,,,,,,,,
5.000,.OH-LVH,,EFHK,,,,6,,,,G - Gnd (7),2,0.0,, 0.00,R 0.4,768,1004,,,47.5,49.1,0,334,,16.5,,,,164,488,0.000,0.000,0.0,19.0,8.0,59.9,-2.8,-2.8,,,Gear down - ground (3),Gnd (1),,,Normal (0),Normal (0),Not Out (0),Not Out (0), 0.0, 0.0, 0.0, 0.0, 0.0, 0.0,
5.250,,,,,,,,,,,,,,, 0.00,,,,,,,,,,,,,,,,,,,,,,,,,,,,,,,,,,,,,,,,,
5.500,,,,,,,,,,,,,,, 0.00,R 0.4,,,,,,,,,,,,,,,,,,,,,,,,,,,,,,,,Not Out (0),Not Out (0),,,,,,,
5.750,,,,,,,,,,,,,,, 0.00,,,,,,,,,,,,,,,,,,,,,,,,,,,,,,,,,,,,,,,,,
6.000,,,,,,,,,,,G - Gnd (7),2,0.0,, 0.00,R 0.4,768,,,E012 18.32,43.9,45.7,0,337,0,,0.00,,,165,487,0.000,0.000,0.0,19.0,10.0,60.0,-2.8,-2.8,F/CLSD (0),F/CLSD (0),Gear down - ground (3),Gnd (1),0.0,0.0,Normal (0),Normal (0),Not Out (0),Not Out (0), 0.0, 0.0, 0.0, 0.0, 0.0, 0.0,
6.250,,,,,,,,,,,,,,, 0.00,,,,,,,,,,,,,,,,,,,,,,,,,,,,,,,,,,,,,,,,,
6.500,,,,,,,,,,,,,,, 0.00,R 0.4,,,,,,,,,,,,,,,,,,,,,,,,,,,,,,,,Not Out (0),Not Out (0),,,,,,,
6.750,,,,,,,,,,,,,,, 0.00,,,,,,,,,,,,,,,,,,,,,,,,,,,,,,,,,,,,,,,,,
7.000,,,,,,,,,52,17,G - Gnd (7),2,0.0,, 0.00,R 0.4,768,,,,41.1,43.1,0,337,,16.5,,,,165,488,0.000,0.000,0.0,19.0,12.0,60.0,-2.8,-2.8,,,Gear down - ground (3),Gnd (1),,,Normal (0),Normal (0),Not Out (0),Not Out (0), 0.0, 0.0, 0.0, 0.0, 0.0, 0.0,
7.250,,,,,,,,,,,,,,, 0.00,,,,,,,,,,,,,,,,,,,,,,,,,,,,,,,,,,,,,,,,,
7.500,,,,,,,,,,,,,,, 0.00,R 0.4,,,,,,,,,,,,,,,,,,,,,,,,,,,,,,,,Not Out (0),Not Out (0),,,,,,,
7.750,,,,,,,,,,,,,,, 0.00,,,,,,,,,,,,,,,,,,,,,,,,,,,,,,,,,,,,,,,,,
8.000,,A319 (5),,ESGG,FIN6LF  ,16,,6,,,G - Gnd (7),2,0.0,0.00, 0.00,R 0.4,768,,N57 27.05,,39.0,40.9,0,339,,,,0.0,0,165,488,0.000,0.000,0.0,19.0,14.0,60.0,-2.8,-2.8,F/CLSD (0),F/CLSD (0),Gear down - ground (3),Gnd (1),0.0,0.0,Normal (0),Normal (0),Not Out (0),Not Out (0), 0.0, 0.0, 0.0, 0.0, 0.0, 0.0,NOTCMD (0)
8.250,,,,,,,,,,,,,,, 0.00,,,,,,,,,,,,,,,,,,,,,,,,,,,,,,,,,,,,,,,,,
8.500,,,,,,,,,,,,,,, 0.00,R 0.4,,,,,,,,,,,,,,,,,,,,,,,,,,,,,,,,Not Out (0),Not Out (0),,,,,,,
8.750,,,,,,,,,,,,,,, 0.00,,,,,,,,,,,,,,,,,,,,,,,,,,,,,,,,,,,,,,,,,
9.000,.OH-LVH,,EFHK,,,,6,,,,G - Gnd (7),2,0.0,, 0.00,R 0.4,768,1004,,,37.3,39.1,0,336,,16.5,,,,165,488,0.000,0.000,0.0,19.1,15.8,60.0,-2.8,-2.8,,,Gear down - ground (3),Gnd (1),,,Normal (0),Normal (0),Not Out (0),Not Out (0), 0.0, 0.0, 0.0, 0.0, 0.0, 0.0,
9.250,,,,,,,,,,,,,,, 0.00,,,,,,,,,,,,,,,,,,,,,,,,,,,,,,,,,,,,,,,,,
9.500,,,,,,,,,,,,,,, 0.00,R 0.4,,,,,,,,,,,,,,,,,,,,,,,,,,,,,,,,Not Out (0),Not Out (0),,,,,,,
9.750,,,,,,,,,,,,,,, 0.00,,,,,,,,,,,,,,,,,,,,,,,,,,,,,,,,,,,,,,,,,
10.000,,,,,,,,,,,G - Gnd (7),2,0.0,, 0.00,R 0.4,768,,,E012 18.32,35.9,37.5,0,332,56888,,0.00,,,165,488,0.000,0.000,0.0,19.1,17.5,60.0,-2.8,-2.8,F/CLSD (0),F/CLSD (0),Gear down - ground (3),Gnd (1),0.0,0.0,Normal (0),Normal (0),Not Out (0),Not Out (0), 0.0, 0.0, 0.0, 0.0, 0.0, 0.0,
10.250,,,,,,,,,,,,,,, 0.00,,,,,,,,,,,,,,,,,,,,,,,,,,,,,,,,,,,,,,,,,
10.500,,,,,,,,,,,,,,, 0.00,R 0.4,,,,,,,,,,,,,,,,,,,,,,,,,,,,,,,,Not Out (0),Not Out (0),,,,,,,
10.750,,,,,,,,,,,,,,, 0.00,,,,,,,,,,,,,,,,,,,,,,,,,,,,,,,,,,,,,,,,,
11.000,,,,,,,,,52,21,G - Gnd (7),2,0.0,, 0.00,R 0.4,768,,,,34.1,35.9,0,330,,16.5,,,,164,488,0.000,0.000,0.0,19.1,19.1,60.0,-2.8,-2.8,,,Gear down - ground (3),Gnd (1),,,Normal (0),Normal (0),Not Out (0),Not Out (0), 0.0, 0.0, 0.0, 0.0, 0.0, 0.0,
11.250,,,,,,,,,,,,,,, 0.00,,,,,,,,,,,,,,,,,,,,,,,,,,,,,,,,,,,,,,,,,
11.500,,,,,,,,,,,,,,, 0.00,R 0.4,,,,,,,,,,,,,,,,,,,,,,,,,,,,,,,,Not Out (0),Not Out (0),,,,,,,
11.750,,,,,,,,,,,,,,, 0.00,,,,,,,,,,,,,,,,,,,,,,,,,,,,,,,,,,,,,,,,,
12.000,,A319 (5),,ESGG,FIN6LF  ,16,,6,,,G - Gnd (7),2,0.0,0.00, 0.00,R 0.4,768,,N57 27.03,,32.3,34.0,0,332,,,,0.0,0,164,488,0.000,0.000,0.4,19.0,20.5,60.0,-2.8,-2.8,F/CLSD (0),F/CLSD (0),Gear down - ground (3),Gnd (1),0.0,0.0,Normal (0),Normal (0),Not Out (0),Not Out (0), 0.0, 0.0, 0.0, 0.0, 0.0, 0.0,NOTCMD (0)
12.250,,,,,,,,,,,,,,, 0.00,,,,,,,,,,,,,,,,,,,,,,,,,,,,,,,,,,,,,,,,,
12.500,,,,,,,,,,,,,,, 0.00,R 0.4,,,,,,,,,,,,,,,,,,,,,,,,,,,,,,,,Not Out (0),Not Out (0),,,,,,,
12.750,,,,,,,,,,,,,,, 0.00,,,,,,,,,,,,,,,,,,,,,,,,,,,,,,,,,,,,,,,,,
13.000,.OH-LVH,,EFHK,,,,6,,,,G - Gnd (7),2,0.0,, 0.00,R 0.4,768,1004,,,29.9,31.8,0,330,,16.5,,,,163,488,0.000,0.000,1.0,19.0,21.9,60.0,-2.8,-2.8,,,Gear down - ground (3),Gnd (1),,,Normal (0),Normal (0),Not Out (0),Not Out (0), 0.0, 0.0, 0.0, 0.0, 0.0, 0.0,
13.250,,,,,,,,,,,,,,, 0.00,,,,,,,,,,,,,,,,,,,,,,,,,,,,,,,,,,,,,,,,,
13.500,,,,,,,,,,,,,,, 0.00,R 0.4,,,,,,,,,,,,,,,,,,,,,,,,,,,,,,,,Not Out (0),Not Out (0),,,,,,,
13.750,,,,,,,,,,,,,,, 0.00,,,,,,,,,,,,,,,,,,,,,,,,,,,,,,,,,,,,,,,,,
14.000,,,,,,,,,,,G - Gnd (7),1,0.0,, 0.00,R 0.4,768,,,E012 18.32,27.8,29.4,154,330,56888,,0.00,,,162,488,0.000,0.000,1.3,18.9,23.0,60.0,-2.8,-2.8,F/CLSD (0),F/CLSD (0),Gear down - ground (3),Gnd (1),0.0,0.0,Normal (0),Normal (0),Not Out (0),Not Out (0), 0.0, 0.0, 0.0, 0.0, 0.0, 0.0,
14.250,,,,,,,,,,,,,,, 0.00,,,,,,,,,,,,,,,,,,,,,,,,,,,,,,,,,,,,,,,,,
14.500,,,,,,,,,,,,,,, 0.00,R 0.4,,,,,,,,,,,,,,,,,,,,,,,,,,,,,,,,Not Out (0),Not Out (0),,,,,,,
14.750,,,,,,,,,,,,,,, 0.00,,,,,,,,,,,,,,,,,,,,,,,,,,,,,,,,,,,,,,,,,
15.000,,,,,,,,,52,25,G - Gnd (7),1,0.0,, 0.00,R 0.4,768,,,,25.7,27.6,167,332,,16.5,,,,161,488,0.000,0.000,1.5,19.0,24.4,60.0,-2.8,-2.8,,,Gear down - ground (3),Gnd (1),,,Normal (0),Normal (0),Not Out (0),Not Out (0), 0.0, 0.0, 0.0, 0.0, 0.0, 0.0,
15.250,,,,,,,,,,,,,,, 0.00,,,,,,,,,,,,,,,,,,,,,,,,,,,,,,,,,,,,,,,,,
15.500,,,,,,,,,,,,,,, 0.00,R 0.4,,,,,,,,,,,,,,,,,,,,,,,,,,,,,,,,Not Out (0),Not Out (0),,,,,,,
15.750,,,,,,,,,,,,,,, 0.00,,,,,,,,,,,,,,,,,,,,,,,,,,,,,,,,,,,,,,,,,
16.000,,A319 (5),,ESGG,FIN6LF  ,16,,6,,,G - Gnd (7),1,0.0,0.00, 0.00,R 0.4,768,,N57 27.03,,24.6,26.3,181,332,,,,0.0,0,162,489,0.000,0.000,1.9,19.0,26.0,60.0,-2.8,-2.8,F/CLSD (0),F/CLSD (0),Gear down - ground (3),Gnd (1),0.0,0.0,Normal (0),Normal (0),Not Out (0),Not Out (0), 0.0, 0.0, 0.0, 0.0, 0.0, 0.0,NOTCMD (0)
16.250,,,,,,,,,,,,,,, 0.00,,,,,,,,,,,,,,,,,,,,,,,,,,,,,,,,,,,,,,,,,
16.500,,,,,,,,,,,,,,, 0.00,R 0.4,,,,,,,,,,,,,,,,,,,,,,,,,,,,,,,,Not Out (0),Not Out (0),,,,,,,
16.750,,,,,,,,,,,,,,, 0.00,,,,,,,,,,,,,,,,,,,,,,,,,,,,,,,,,,,,,,,,,
17.000,.OH-LVH,,EFHK,,,,6,,,,G - Gnd (7),1,0.0,, 0.00,R 0.4,768,1004,,,23.9,25.6,196,332,,16.5,,,,175,489,0.000,0.000,2.5,19.0,27.6,60.0,-2.8,-2.8,,,Gear down - ground (3),Gnd (1),,,Normal (0),Normal (0),Not Out (0),Not Out (0), 0.0, 0.0, 0.0, 0.0, 0.0, 0.0,
17.250,,,,,,,,,,,,,,, 0.00,,,,,,,,,,,,,,,,,,,,,,,,,,,,,,,,,,,,,,,,,
17.500,,,,,,,,,,,,,,, 0.00,R 0.4,,,,,,,,,,,,,,,,,,,,,,,,,,,,,,,,Not Out (0),Not Out (0),,,,,,,
17.750,,,,,,,,,,,,,,, 0.00,,,,,,,,,,,,,,,,,,,,,,,,,,,,,,,,,,,,,,,,,
18.000,,,,,,,,,,,G - Gnd (7),1,0.0,, 0.00,R 0.4,768,,,E012 18.32,23.6,25.4,263,330,56888,,0.00,,,188,489,0.000,0.000,3.0,19.0,29.1,60.0,-2.8,-2.8,F/CLSD (0),F/CLSD (0),Gear down - ground (3),Gnd (1),0.0,0.0,Normal (0),Normal (0),Not Out (0),Not Out (0), 0.0, 0.0, 0.0, 0.0, 0.0, 0.0,
18.250,,,,,,,,,,,,,,, 0.00,,,,,,,,,,,,,,,,,,,,,,,,,,,,,,,,,,,,,,,,,
18.500,,,,,,,,,,,,,,, 0.00,R 0.4,,,,,,,,,,,,,,,,,,,,,,,,,,,,,,,,Not Out (0),Not Out (0),,,,,,,
18.750,,,,,,,,,,,,,,, 0.00,,,,,,,,,,,,,,,,,,,,,,,,,,,,,,,,,,,,,,,,,
19.000,,,,,,,,,52,29,G - Gnd (7),1,0.0,, 0.00,R 0.4,768,,,,23.6,25.4,250,330,,16.5,,,,205,489,0.000,0.000,3.8,18.9,30.8,60.0,-2.8,-2.8,,,Gear down - ground (3),Gnd (1),,,Normal (0),Normal (0),Not Out (0),Not Out (0), 0.0, 0.0, 0.0, 0.0, 0.0, 0.0,
19.250,,,,,,,,,,,,,,, 0.00,,,,,,,,,,,,,,,,,,,,,,,,,,,,,,,,,,,,,,,,,
19.500,,,,,,,,,,,,,,, 0.00,R 0.4,,,,,,,,,,,,,,,,,,,,,,,,,,,,,,,,Not Out (0),Not Out (0),,,,,,,
19.750,,,,,,,,,,,,,,, 0.00,,,,,,,,,,,,,,,,,,,,,,,,,,,,,,,,,,,,,,,,,
20.000,,A319 (5),,ESGG,FIN6LF  ,16,,6,,,G - Gnd (7),1,0.0,0.00, 0.00,R 0.4,768,,N57 27.03,,23.9,25.7,239,328,,,,0.0,0,226,489,0.000,0.000,4.4,18.9,32.3,60.0,-2.8,-2.8,F/CLSD (0),F/CLSD (0),Gear down - ground (3),Gnd (1),0.0,0.0,Normal (0),Normal (0),Not Out (0),Not Out (0), 0.0, 0.0, 0.0, 0.0, 0.0, 0.0,NOTCMD (0)
20.250,,,,,,,,,,,,,,, 0.00,,,,,,,,,,,,,,,,,,,,,,,,,,,,,,,,,,,,,,,,,
20.500,,,,,,,,,,,,,,, 0.00,R 0.4,,,,,,,,,,,,,,,,,,,,,,,,,,,,,,,,Not Out (0),Not Out (0),,,,,,,
20.750,,,,,,,,,,,,,,, 0.00,,,,,,,,,,,,,,,,,,,,,,,,,,,,,,,,,,,,,,,,,
21.000,.OH-LVH,,EFHK,,,,6,,,,G - Gnd (7),1,0.0,, 0.00,R 0.4,768,1004,,,24.3,25.9,250,330,,16.5,,,,246,490,0.000,0.000,5.1,18.9,33.8,60.0,-2.8,-2.8,,,Gear down - ground (3),Gnd (1),,,Normal (0),Normal (0),Not Out (0),Not Out (0), 0.0, 0.0, 0.0, 0.0, 0.0, 0.0,
21.250,,,,,,,,,,,,,,, 0.00,,,,,,,,,,,,,,,,,,,,,,,,,,,,,,,,,,,,,,,,,
21.500,,,,,,,,,,,,,,, 0.00,R 0.4,,,,,,,,,,,,,,,,,,,,,,,,,,,,,,,,Not Out (0),Not Out (0),,,,,,,
21.750,,,,,,,,,,,,,,, 0.00,,,,,,,,,,,,,,,,,,,,,,,,,,,,,,,,,,,,,,,,,
22.000,,,,,,,,,,,G - Gnd (7),1,0.0,, 0.00,R 0.4,768,,,E012 18.32,24.3,26.0,256,328,56888,,0.00,,,266,490,0.000,0.000,5.9,18.9,35.3,60.0,-2.8,-2.8,F/CLSD (0),F/CLSD (0),Gear down - ground (3),Gnd (1),0.0,0.0,Normal (0),Normal (0),Not Out (0),Not Out (0), 0.0, 0.0, 0.0, 0.0, 0.0, 0.0,
22.250,,,,,,,,,,,,,,, 0.00,,,,,,,,,,,,,,,,,,,,,,,,,,,,,,,,,,,,,,,,,
22.500,,,,,,,,,,,,,,, 0.00,R 0.4,,,,,,,,,,,,,,,,,,,,,,,,,,,,,,,,Not Out (0),Not Out (0),,,,,,,
22.750,,,,,,,,,,,,,,, 0.00,,,,,,,,,,,,,,,,,,,,,,,,,,,,,,,,,,,,,,,,,
23.000,,,,,,,,,52,33,G - Gnd (7),0,0.0,, 0.00,R 0.4,768,,,,24.3,26.1,265,328,,16.5,,,,288,490,0.000,0.000,6.8,18.9,36.6,60.0,-2.8,-2.8,,,Gear down - ground (3),Gnd (1),,,Normal (0),Normal (0),Not Out (0),Not Out (0), 0.0, 0.0, 0.0, 0.0, 0.0, 0.0,
23.250,,,,,,,,,,,,,,, 0.00,,,,,,,,,,,,,,,,,,,,,,,,,,,,,,,,,,,,,,,,,
23.500,,,,,,,,,,,,,,, 0.00,R 0.4,,,,,,,,,,,,,,,,,,,,,,,,,,,,,,,,Not Out (0),Not Out (0),,,,,,,
23.750,,,,,,,,,,,,,,, 0.00,,,,,,,,,,,,,,,,,,,,,,,,,,,,,,,,,,,,,,,,,
24.000,,A319 (5),,ESGG,FIN6LF  ,16,,6,,,G - Gnd (7),0,0.0,0.00, 0.00,R 0.4,768,,N57 27.03,,24.3,26.1,270,328,,,,0.0,0,308,490,0.000,0.000,7.4,18.8,38.0,60.0,-2.8,-2.8,F/CLSD (0),F/CLSD (0),Gear down - ground (3),Gnd (1),0.0,0.0,Normal (0),Normal (0),Not Out (0),Not Out (0), 0.0, 0.0, 0.0, 0.0, 0.0, 0.0,NOTCMD (0)
24.250,,,,,,,,,,,,,,, 0.00,,,,,,,,,,,,,,,,,,,,,,,,,,,,,,,,,,,,,,,,,
24.500,,,,,,,,,,,,,,, 0.00,R 0.4,,,,,,,,,,,,,,,,,,,,,,,,,,,,,,,,Not Out (0),Not Out (0),,,,,,,
24.750,,,,,,,,,,,,,,, 0.00,,,,,,,,,,,,,,,,,,,,,,,,,,,,,,,,,,,,,,,,,
25.000,.OH-LVH,,EFHK,,,,6,,,,G - Gnd (7),0,0.0,, 0.00,R 0.4,768,1004,,,24.6,26.2,288,330,,16.5,,,,326,491,0.000,0.000,8.0,18.9,39.5,60.0,-2.8,-2.8,,,Gear down - ground (3),Gnd (1),,,Normal (0),Normal (0),Not Out (0),Not Out (0), 0.0, 0.0, 0.0, 0.0, 0.0, 0.0,
25.250,,,,,,,,,,,,,,, 0.00,,,,,,,,,,,,,,,,,,,,,,,,,,,,,,,,,,,,,,,,,
25.500,,,,,,,,,,,,,,, 0.00,R 0.4,,,,,,,,,,,,,,,,,,,,,,,,,,,,,,,,Not Out (0),Not Out (0),,,,,,,
25.750,,,,,,,,,,,,,,, 0.00,,,,,,,,,,,,,,,,,,,,,,,,,,,,,,,,,,,,,,,,,
26.000,,,,,,,,,,,G - Gnd (7),0,0.0,, 0.00,R 0.4,768,,,E012 18.32,24.6,26.3,297,330,56888,,0.00,,,344,491,0.000,0.000,8.8,18.9,41.0,60.0,-2.8,-2.8,F/CLSD (0),F/CLSD (0),Gear down - ground (3),Gnd (1),0.0,0.0,Normal (0),Normal (0),Not Out (0),Not Out (0), 0.0, 0.0, 0.0, 0.0, 0.0, 0.0,
26.250,,,,,,,,,,,,,,, 0.00,,,,,,,,,,,,,,,,,,,,,,,,,,,,,,,,,,,,,,,,,
26.500,,,,,,,,,,,,,,, 0.00,R 0.4,,,,,,,,,,,,,,,,,,,,,,,,,,,,,,,,Not Out (0),Not Out (0),,,,,,,
26.750,,,,,,,,,,,,,,, 0.00,,,,,,,,,,,,,,,,,,,,,,,,,,,,,,,,,,,,,,,,,
27.000,,,,,,,,,52,37,G - Gnd (7),0,0.0,, 0.00,R 0.4,768,,,,24.6,26.3,303,330,,16.5,,,,353,491,0.000,0.000,9.4,18.9,42.4,60.0,-2.8,-2.8,,,Gear down - ground (3),Gnd (1),,,Normal (0),Normal (0),Not Out (0),Not Out (0), 0.0, 0.0, 0.0, 0.0, 0.0, 0.0,
27.250,,,,,,,,,,,,,,, 0.00,,,,,,,,,,,,,,,,,,,,,,,,,,,,,,,,,,,,,,,,,
27.500,,,,,,,,,,,,,,, 0.00,R 0.4,,,,,,,,,,,,,,,,,,,,,,,,,,,,,,,,Not Out (0),Not Out (0),,,,,,,
27.750,,,,,,,,,,,,,,, 0.00,,,,,,,,,,,,,,,,,,,,,,,,,,,,,,,,,,,,,,,,,
28.000,,A319 (5),,ESGG,FIN6LF  ,16,,6,,,G - Gnd (7),0,0.0,0.00, 0.00,R 0.4,768,,N57 27.03,,24.6,26.3,312,328,,,,0.0,0,362,492,0.000,0.000,10.0,18.9,43.9,60.0,-2.8,-2.8,F/CLSD (0),F/CLSD (0),Gear down - ground (3),Gnd (1),0.0,0.0,Normal (0),Normal (0),Not Out (0),Not Out (0), 0.0, 0.0, 0.0, 0.0, 0.0, 0.0,NOTCMD (0)
28.250,,,,,,,,,,,,,,, 0.00,,,,,,,,,,,,,,,,,,,,,,,,,,,,,,,,,,,,,,,,,
28.500,,,,,,,,,,,,,,, 0.00,R 0.4,,,,,,,,,,,,,,,,,,,,,,,,,,,,,,,,Not Out (0),Not Out (0),,,,,,,
28.750,,,,,,,,,,,,,,, 0.00,,,,,,,,,,,,,,,,,,,,,,,,,,,,,,,,,,,,,,,,,
29.000,.OH-LVH,,EFHK,,,,6,,,,G - Gnd (7),0,0.0,, 0.00,R 0.4,768,1004,,,24.6,26.3,325,330,,16.5,,,,372,492,0.000,0.000,10.6,18.9,45.4,60.0,-2.8,-2.8,,,Gear down - ground (3),Gnd (1),,,Normal (0),Normal (0),Not Out (0),Not Out (0), 0.0, 0.0, 0.0, 0.0, 0.0, 0.0,
29.250,,,,,,,,,,,,,,, 0.00,,,,,,,,,,,,,,,,,,,,,,,,,,,,,,,,,,,,,,,,,
29.500,,,,,,,,,,,,,,, 0.00,R 0.4,,,,,,,,,,,,,,,,,,,,,,,,,,,,,,,,Not Out (0),Not Out (0),,,,,,,
29.750,,,,,,,,,,,,,,, 0.00,,,,,,,,,,,,,,,,,,,,,,,,,,,,,,,,,,,,,,,,,
30.000,,,,,,,,,,,G - Gnd (7),0,0.0,, 0.00,R 0.4,768,,,E012 18.32,24.6,26.3,339,328,56888,,0.00,,,381,493,0.000,0.000,11.1,18.9,46.8,60.0,-2.8,-2.8,F/CLSD (0),F/CLSD (0),Gear down - ground (3),Gnd (1),0.0,0.0,Normal (0),Normal (0),Not Out (0),Not Out (0), 0.0, 0.0, 0.0, 0.0, 0.0, 0.0,
30.250,,,,,,,,,,,,,,, 0.00,,,,,,,,,,,,,,,,,,,,,,,,,,,,,,,,,,,,,,,,,
30.500,,,,,,,,,,,,,,, 0.00,R 0.4,,,,,,,,,,,,,,,,,,,,,,,,,,,,,,,,Not Out (0),Not Out (0),,,,,,,
30.750,,,,,,,,,,,,,,, 0.00,,,,,,,,,,,,,,,,,,,,,,,,,,,,,,,,,,,,,,,,,
31.000,,,,,,,,,52,41,G - Gnd (7),0,0.0,, 0.00,R 0.4,768,,,,24.6,26.3,346,328,,16.5,,,,391,493,0.000,0.000,11.8,18.9,48.4,60.0,-2.8,-2.8,,,Gear down - ground (3),Gnd (1),,,Normal (0),Normal (0),Not Out (0),Not Out (0), 0.0, 0.0, 0.0, 0.0, 0.0, 0.0,
31.250,,,,,,,,,,,,,,, 0.00,,,,,,,,,,,,,,,,,,,,,,,,,,,,,,,,,,,,,,,,,
31.500,,,,,,,,,,,,,,, 0.00,R 0.4,,,,,,,,,,,,,,,,,,,,,,,,,,,,,,,,Not Out (0),Not Out (0),,,,,,,
31.750,,,,,,,,,,,,,,, 0.00,,,,,,,,,,,,,,,,,,,,,,,,,,,,,,,,,,,,,,,,,
32.000,,A319 (5),,ESGG,FIN6LF  ,16,,6,,,G - Gnd (7),0,0.0,0.00, 0.00,R 0.4,768,,N57 27.03,,24.6,26.3,356,328,,,,0.0,0,400,493,0.000,0.000,12.5,19.0,49.9,60.0,-2.8,-2.8,F/CLSD (0),F/CLSD (0),Gear down - ground (3),Gnd (1),0.0,0.0,Normal (0),Normal (0),Not Out (0),Not Out (0), 0.0, 0.0, 0.0, 0.0, 0.0, 0.0,NOTCMD (0)
32.250,,,,,,,,,,,,,,, 0.00,,,,,,,,,,,,,,,,,,,,,,,,,,,,,,,,,,,,,,,,,
32.500,,,,,,,,,,,,,,, 0.00,R 0.4,,,,,,,,,,,,,,,,,,,,,,,,,,,,,,,,Not Out (0),Not Out (0),,,,,,,
32.750,,,,,,,,,,,,,,, 0.00,,,,,,,,,,,,,,,,,,,,,,,,,,,,,,,,,,,,,,,,,
33.000,.OH-LVH,,EFHK,,,,6,,,,G - Gnd (7),0,0.0,, 0.00,R 0.4,768,1004,,,24.6,26.3,365,328,,16.5,,,,408,494,0.000,0.000,13.3,19.0,51.0,60.0,-2.8,-2.8,,,Gear down - ground (3),Gnd (1),,,Normal (0),Normal (0),Not Out (0),Not Out (0), 0.0, 0.0, 0.0, 0.0, 0.0, 0.0,
33.250,,,,,,,,,,,,,,, 0.00,,,,,,,,,,,,,,,,,,,,,,,,,,,,,,,,,,,,,,,,,
33.500,,,,,,,,,,,,,,, 0.00,R 0.4,,,,,,,,,,,,,,,,,,,,,,,,,,,,,,,,Not Out (0),Not Out (0),,,,,,,
33.750,,,,,,,,,,,,,,, 0.00,,,,,,,,,,,,,,,,,,,,,,,,,,,,,,,,,,,,,,,,,
34.000,,,,,,,,,,,G - Gnd (7),0,0.0,, 0.00,R 0.4,768,,,E012 18.32,24.6,26.3,372,328,56888,,0.00,,,414,495,0.000,0.000,14.0,19.0,51.8,60.0,-2.8,-2.8,F/CLSD (0),F/CLSD (0),Gear down - ground (3),Gnd (1),0.0,0.0,Normal (0),Normal (0),Not Out (0),Not Out (0), 0.0, 0.0, 0.0, 0.0, 0.0, 0.0,
34.250,,,,,,,,,,,,,,, 0.00,,,,,,,,,,,,,,,,,,,,,,,,,,,,,,,,,,,,,,,,,
34.500,,,,,,,,,,,,,,, 0.00,R 0.4,,,,,,,,,,,,,,,,,,,,,,,,,,,,,,,,Not Out (0),Not Out (0),,,,,,,
34.750,,,,,,,,,,,,,,, 0.00,,,,,,,,,,,,,,,,,,,,,,,,,,,,,,,,,,,,,,,,,
35.000,,,,,,,,,52,45,G - Gnd (7),0,0.0,, 0.00,R 0.4,768,,,,24.6,26.3,385,327,,16.5,,,,421,495,0.000,0.000,14.6,18.9,52.5,60.0,-2.8,-2.8,,,Gear down - ground (3),Gnd (1),,,Normal (0),Normal (0),Not Out (0),Not Out (0), 0.0, 0.0, 0.0, 0.0, 0.0, 0.0,
35.250,,,,,,,,,,,,,,, 0.00,,,,,,,,,,,,,,,,,,,,,,,,,,,,,,,,,,,,,,,,,
35.500,,,,,,,,,,,,,,, 0.00,R 0.4,,,,,,,,,,,,,,,,,,,,,,,,,,,,,,,,Not Out (0),Not Out (0),,,,,,,
35.750,,,,,,,,,,,,,,, 0.00,,,,,,,,,,,,,,,,,,,,,,,,,,,,,,,,,,,,,,,,,
36.000,,A319 (5),,ESGG,FIN6LF  ,16,,6,,,G - Gnd (7),0,0.0,0.00, 0.00,R 0.4,768,,N57 27.03,,24.6,26.3,395,328,,,,0.0,0,428,495,0.000,0.000,15.3,18.9,53.4,60.0,-2.8,-2.8,F/CLSD (0),F/CLSD (0),Gear down - ground (3),Gnd (1),0.0,0.0,Normal (0),Normal (0),Not Out (0),Not Out (0), 0.0, 0.0, 0.0, 0.0, 0.0, 0.0,NOTCMD (0)
36.250,,,,,,,,,,,,,,, 0.00,,,,,,,,,,,,,,,,,,,,,,,,,,,,,,,,,,,,,,,,,
36.500,,,,,,,,,,,,,,, 0.00,R 0.4,,,,,,,,,,,,,,,,,,,,,,,,,,,,,,,,Not Out (0),Not Out (0),,,,,,,
36.750,,,,,,,,,,,,,,, 0.00,,,,,,,,,,,,,,,,,,,,,,,,,,,,,,,,,,,,,,,,,
37.000,.OH-LVH,,EFHK,,,,6,,,,G - Gnd (7),0,0.0,, 0.00,R 0.4,768,1004,,,24.6,26.3,401,330,,16.5,,,,434,496,0.000,0.000,15.8,18.9,54.3,60.0,-2.8,-2.8,,,Gear down - ground (3),Gnd (1),,,Normal (0),Normal (0),Not Out (0),Not Out (0), 0.0, 0.0, 0.0, 0.0, 0.0, 0.0,
37.250,,,,,,,,,,,,,,, 0.00,,,,,,,,,,,,,,,,,,,,,,,,,,,,,,,,,,,,,,,,,
37.500,,,,,,,,,,,,,,, 0.00,R 0.4,,,,,,,,,,,,,,,,,,,,,,,,,,,,,,,,Not Out (0),Not Out (0),,,,,,,
37.750,,,,,,,,,,,,,,, 0.00,,,,,,,,,,,,,,,,,,,,,,,,,,,,,,,,,,,,,,,,,
38.000,,,,,,,,,,,G - Gnd (7),0,0.0,, 0.00,R 0.4,768,,,E012 18.32,24.6,26.3,408,328,56888,,0.00,,,440,496,0.000,0.000,16.1,19.0,55.1,60.0,-2.8,-2.8,F/CLSD (0),F/CLSD (0),Gear down - ground (3),Gnd (1),0.0,0.0,Normal (0),Normal (0),Not Out (0),Not Out (0), 0.0, 0.0, 0.0, 0.0, 0.0, 0.0,
38.250,,,,,,,,,,,,,,, 0.00,,,,,,,,,,,,,,,,,,,,,,,,,,,,,,,,,,,,,,,,,
38.500,,,,,,,,,,,,,,, 0.00,R 0.4,,,,,,,,,,,,,,,,,,,,,,,,,,,,,,,,Not Out (0),Not Out (0),,,,,,,
38.750,,,,,,,,,,,,,,, 0.00,,,,,,,,,,,,,,,,,,,,,,,,,,,,,,,,,,,,,,,,,
39.000,,,,,,,,,52,49,G - Gnd (7),0,0.0,, 0.00,R 0.4,768,,,,24.6,26.3,419,330,,16.5,,,,444,497,0.000,0.000,16.5,18.9,55.9,60.0,-2.8,-2.8,,,Gear down - ground (3),Gnd (1),,,Normal (0),Normal (0),Not Out (0),Not Out (0), 0.0, 0.0, 0.0, 0.0, 0.0, 0.0,
39.250,,,,,,,,,,,,,,, 0.00,,,,,,,,,,,,,,,,,,,,,,,,,,,,,,,,,,,,,,,,,
39.500,,,,,,,,,,,,,,, 0.00,R 0.4,,,,,,,,,,,,,,,,,,,,,,,,,,,,,,,,Not Out (0),Not Out (0),,,,,,,
39.750,,,,,,,,,,,,,,, 0.00,,,,,,,,,,,,,,,,,,,,,,,,,,,,,,,,,,,,,,,,,
40.000,,A319 (5),,ESGG,FIN6LF  ,16,,6,,,G - Gnd (7),0,0.0,0.00, 0.00,R 0.4,768,,N57 27.03,,24.6,26.3,435,332,,,,0.0,0,449,497,0.000,0.000,17.0,18.9,56.9,60.0,-2.8,-2.8,F/CLSD (0),F/CLSD (0),Gear down - ground (3),Gnd (1),0.0,0.0,Normal (0),Normal (0),Not Out (0),Not Out (0), 0.0, 0.0, 0.0, 0.0, 0.0, 0.0,NOTCMD (0)
40.250,,,,,,,,,,,,,,, 0.00,,,,,,,,,,,,,,,,,,,,,,,,,,,,,,,,,,,,,,,,,
40.500,,,,,,,,,,,,,,, 0.00,R 0.4,,,,,,,,,,,,,,,,,,,,,,,,,,,,,,,,Not Out (0),Not Out (0),,,,,,,
40.750,,,,,,,,,,,,,,, 0.00,,,,,,,,,,,,,,,,,,,,,,,,,,,,,,,,,,,,,,,,,
41.000,.OH-LVH,,EFHK,,,,6,,,,G - Gnd (7),0,0.0,, 0.00,R 0.4,768,1004,,,24.6,26.3,446,330,,16.5,,,,453,498,0.000,0.000,17.5,19.0,58.0,60.0,-2.8,-2.8,,,Gear down - ground (3),Gnd (1),,,Normal (0),Normal (0),Not Out (0),Not Out (0), 0.0, 0.0, 0.0, 0.0, 0.0, 0.0,
41.250,,,,,,,,,,,,,,, 0.00,,,,,,,,,,,,,,,,,,,,,,,,,,,,,,,,,,,,,,,,,
41.500,,,,,,,,,,,,,,, 0.00,R 0.4,,,,,,,,,,,,,,,,,,,,,,,,,,,,,,,,Not Out (0),Not Out (0),,,,,,,
41.750,,,,,,,,,,,,,,, 0.00,,,,,,,,,,,,,,,,,,,,,,,,,,,,,,,,,,,,,,,,,
42.000,,,,,,,,,,,G - Gnd (7),0,0.0,, 0.00,R 0.4,768,,,E012 18.32,24.6,26.3,454,330,56870,,0.00,,,457,498,0.000,0.000,18.0,18.9,59.0,60.0,-2.8,-2.8,F/CLSD (0),F/CLSD (0),Gear down - ground (3),Gnd (1),0.0,0.0,Normal (0),Normal (0),Not Out (0),Not Out (0), 0.0, 0.0, 0.0, 0.0, 0.0, 0.0,
42.250,,,,,,,,,,,,,,, 0.00,,,,,,,,,,,,,,,,,,,,,,,,,,,,,,,,,,,,,,,,,
42.500,,,,,,,,,,,,,,, 0.00,R 0.4,,,,,,,,,,,,,,,,,,,,,,,,,,,,,,,,Not Out (0),Not Out (0),,,,,,,
42.750,,,,,,,,,,,,,,, 0.00,,,,,,,,,,,,,,,,,,,,,,,,,,,,,,,,,,,,,,,,,
43.000,,,,,,,,,52,53,G - Gnd (7),0,0.0,, 0.00,R 0.4,768,,,,24.6,26.3,415,328,,16.5,,,,460,498,0.000,0.000,18.8,18.9,59.6,60.0,-2.8,-2.8,,,Gear down - ground (3),Gnd (1),,,Normal (0),Normal (0),Not Out (0),Not Out (0), 0.0, 0.0, 0.0, 0.0, 0.0, 0.0,
43.250,,,,,,,,,,,,,,, 0.00,,,,,,,,,,,,,,,,,,,,,,,,,,,,,,,,,,,,,,,,,
43.500,,,,,,,,,,,,,,, 0.00,R 0.4,,,,,,,,,,,,,,,,,,,,,,,,,,,,,,,,Not Out (0),Not Out (0),,,,,,,
43.750,,,,,,,,,,,,,,, 0.00,,,,,,,,,,,,,,,,,,,,,,,,,,,,,,,,,,,,,,,,,
44.000,,A319 (5),,ESGG,FIN6LF  ,16,,6,,,G - Gnd (7),0,0.0,0.00, 0.00,R 0.4,768,,N57 27.03,,24.6,26.3,374,328,,,,0.0,0,470,499,0.000,0.000,19.3,18.9,59.9,60.0,-2.8,-2.8,F/CLSD (0),F/CLSD (0),Gear down - ground (3),Gnd (1),0.0,0.0,Normal (0),Normal (0),Not Out (0),Not Out (0), 0.0, 0.0, 0.0, 0.0, 0.0, 0.0,NOTCMD (0)
44.250,,,,,,,,,,,,,,, 0.00,,,,,,,,,,,,,,,,,,,,,,,,,,,,,,,,,,,,,,,,,
44.500,,,,,,,,,,,,,,, 0.00,R 0.4,,,,,,,,,,,,,,,,,,,,,,,,,,,,,,,,Not Out (0),Not Out (0),,,,,,,
44.750,,,,,,,,,,,,,,, 0.00,,,,,,,,,,,,,,,,,,,,,,,,,,,,,,,,,,,,,,,,,
45.000,.OH-LVH,,EFHK,,,,6,,,,G - Gnd (7),0,0.0,, 0.00,R 0.4,768,1004,,,24.6,26.3,336,328,,16.5,,,,477,500,0.000,0.000,19.4,18.9,59.8,60.0,-2.8,-2.8,,,Gear down - ground (3),Gnd (1),,,Normal (0),Normal (0),Not Out (0),Not Out (0), 0.0, 0.0, 0.0, 0.0, 0.0, 0.0,
45.250,,,,,,,,,,,,,,, 0.00,,,,,,,,,,,,,,,,,,,,,,,,,,,,,,,,,,,,,,,,,
45.500,,,,,,,,,,,,,,, 0.00,R 0.4,,,,,,,,,,,,,,,,,,,,,,,,,,,,,,,,Not Out (0),Not Out (0),,,,,,,
45.750,,,,,,,,,,,,,,, 0.00,,,,,,,,,,,,,,,,,,,,,,,,,,,,,,,,,,,,,,,,,
46.000,,,,,,,,,,,G - Gnd (7),0,0.0,, 0.00,R 0.4,768,,,E012 18.32,24.6,26.3,325,328,56870,,0.00,,,478,499,0.000,0.000,19.4,18.9,59.5,60.0,-2.8,-2.8,F/CLSD (0),F/CLSD (0),Gear down - ground (3),Gnd (1),0.0,0.0,Normal (0),Normal (0),Not Out (0),Not Out (0), 0.0, 0.0, 0.0, 0.0, 0.0, 0.0,
46.250,,,,,,,,,,,,,,, 0.00,,,,,,,,,,,,,,,,,,,,,,,,,,,,,,,,,,,,,,,,,
46.500,,,,,,,,,,,,,,, 0.00,R 0.4,,,,,,,,,,,,,,,,,,,,,,,,,,,,,,,,Not Out (0),Not Out (0),,,,,,,
46.750,,,,,,,,,,,,,,, 0.00,,,,,,,,,,,,,,,,,,,,,,,,,,,,,,,,,,,,,,,,,
47.000,,,,,,,,,52,57,G - Gnd (7),0,0.0,, 0.00,R 0.4,768,,,,24.6,26.3,325,330,,16.5,,,,479,500,0.000,0.000,19.3,19.0,59.4,60.0,-2.8,-2.8,,,Gear down - ground (3),Gnd (1),,,Normal (0),Normal (0),Not Out (0),Not Out (0), 0.0, 0.0, 0.0, 0.0, 0.0, 0.0,
47.250,,,,,,,,,,,,,,, 0.00,,,,,,,,,,,,,,,,,,,,,,,,,,,,,,,,,,,,,,,,,
47.500,,,,,,,,,,,,,,, 0.00,R 0.4,,,,,,,,,,,,,,,,,,,,,,,,,,,,,,,,Not Out (0),Not Out (0),,,,,,,
47.750,,,,,,,,,,,,,,, 0.00,,,,,,,,,,,,,,,,,,,,,,,,,,,,,,,,,,,,,,,,,
48.000,,A319 (5),,ESGG,FIN6LF  ,16,,6,,,G - Gnd (7),0,0.0,0.00, 0.00,R 0.4,768,,N57 27.03,,24.6,26.3,332,328,,,,0.0,0,479,500,0.000,0.000,19.1,19.0,59.3,60.0,-2.8,-2.8,F/CLSD (0),F/CLSD (0),Gear down - ground (3),Gnd (1),0.0,0.0,Normal (0),Normal (0),Not Out (0),Not Out (0), 0.0, 0.0, 0.0, 0.0, 0.0, 0.0,NOTCMD (0)
48.250,,,,,,,,,,,,,,, 0.00,,,,,,,,,,,,,,,,,,,,,,,,,,,,,,,,,,,,,,,,,
48.500,,,,,,,,,,,,,,, 0.00,R 0.4,,,,,,,,,,,,,,,,,,,,,,,,,,,,,,,,Not Out (0),Not Out (0),,,,,,,
48.750,,,,,,,,,,,,,,, 0.00,,,,,,,,,,,,,,,,,,,,,,,,,,,,,,,,,,,,,,,,,
49.000,.OH-LVH,,EFHK,,,,6,,,,G - Gnd (7),0,0.0,, 0.00,R 0.4,768,1004,,,24.6,26.3,337,330,,16.5,,,,481,501,0.000,0.000,19.1,19.0,59.3,60.0,-2.8,-2.8,,,Gear down - ground (3),Gnd (1),,,Normal (0),Normal (0),Not Out (0),Not Out (0), 0.0, 0.0, 0.0, 0.0, 0.0, 0.0,
49.250,,,,,,,,,,,,,,, 0.00,,,,,,,,,,,,,,,,,,,,,,,,,,,,,,,,,,,,,,,,,
49.500,,,,,,,,,,,,,,, 0.00,R 0.4,,,,,,,,,,,,,,,,,,,,,,,,,,,,,,,,Not Out (0),Not Out (0),,,,,,,
49.750,,,,,,,,,,,,,,, 0.00,,,,,,,,,,,,,,,,,,,,,,,,,,,,,,,,,,,,,,,,,
50.000,,,,,,,,,,,G - Gnd (7),0,0.0,, 0.00,R 0.4,768,,,E012 18.32,24.6,26.3,343,328,56870,,0.00,,,483,502,0.000,0.000,19.0,19.0,59.3,60.0,-2.8,-2.8,F/CLSD (0),F/CLSD (0),Gear down - ground (3),Gnd (1),0.0,0.0,Normal (0),Normal (0),Not Out (0),Not Out (0), 0.0, 0.0, 0.0, 0.0, 0.0, 0.0,
50.250,,,,,,,,,,,,,,, 0.00,,,,,,,,,,,,,,,,,,,,,,,,,,,,,,,,,,,,,,,,,
50.500,,,,,,,,,,,,,,, 0.00,R 0.4,,,,,,,,,,,,,,,,,,,,,,,,,,,,,,,,Not Out (0),Not Out (0),,,,,,,
50.750,,,,,,,,,,,,,,, 0.00,,,,,,,,,,,,,,,,,,,,,,,,,,,,,,,,,,,,,,,,,
51.000,,,,,,,,,53,1,G - Gnd (7),0,0.0,, 0.00,R 0.4,768,,,,24.6,26.3,345,328,,16.5,,,,485,502,0.000,0.000,18.8,18.9,59.3,60.0,-2.8,-2.8,,,Gear down - ground (3),Gnd (1),,,Normal (0),Normal (0),Not Out (0),Not Out (0), 0.0, 0.0, 0.0, 0.0, 0.0, 0.0,
51.250,,,,,,,,,,,,,,, 0.00,,,,,,,,,,,,,,,,,,,,,,,,,,,,,,,,,,,,,,,,,
51.500,,,,,,,,,,,,,,, 0.00,R 0.4,,,,,,,,,,,,,,,,,,,,,,,,,,,,,,,,Not Out (0),Not Out (0),,,,,,,
51.750,,,,,,,,,,,,,,, 0.00,,,,,,,,,,,,,,,,,,,,,,,,,,,,,,,,,,,,,,,,,
52.000,,A319 (5),,ESGG,FIN6LF  ,16,,6,,,G - Gnd (7),0,0.0,0.00, 0.00,R 0.4,768,,N57 27.03,,24.6,26.3,345,328,,,,0.0,0,487,502,0.000,0.000,18.8,18.9,59.3,60.0,-2.8,-2.8,F/CLSD (0),F/CLSD (0),Gear down - ground (3),Gnd (1),0.0,0.0,Normal (0),Normal (0),Not Out (0),Not Out (0), 0.0, 0.0, 0.0, 0.0, 0.0, 0.0,NOTCMD (0)
52.250,,,,,,,,,,,,,,, 0.00,,,,,,,,,,,,,,,,,,,,,,,,,,,,,,,,,,,,,,,,,
52.500,,,,,,,,,,,,,,, 0.00,R 0.4,,,,,,,,,,,,,,,,,,,,,,,,,,,,,,,,Not Out (0),Not Out (0),,,,,,,
52.750,,,,,,,,,,,,,,, 0.00,,,,,,,,,,,,,,,,,,,,,,,,,,,,,,,,,,,,,,,,,
53.000,.OH-LVH,,EFHK,,,,6,,,,G - Gnd (7),0,0.0,, 0.00,R 0.4,768,1004,,,24.6,26.3,345,332,,16.5,,,,490,503,0.000,0.000,18.8,18.9,59.3,60.0,-2.8,-2.8,,,Gear down - ground (3),Gnd (1),,,Normal (0),Normal (0),Not Out (0),Not Out (0), 0.0, 0.0, 0.0, 0.0, 0.0, 0.0,
53.250,,,,,,,,,,,,,,, 0.00,,,,,,,,,,,,,,,,,,,,,,,,,,,,,,,,,,,,,,,,,
53.500,,,,,,,,,,,,,,, 0.00,R 0.4,,,,,,,,,,,,,,,,,,,,,,,,,,,,,,,,Not Out (0),Not Out (0),,,,,,,
53.750,,,,,,,,,,,,,,, 0.00,,,,,,,,,,,,,,,,,,,,,,,,,,,,,,,,,,,,,,,,,
54.000,,,,,,,,,,,G - Gnd (7),0,0.0,, 0.00,R 0.4,768,,,E012 18.32,24.6,26.3,366,334,56870,,0.00,,,492,504,0.000,0.000,18.6,18.9,59.3,60.0,-2.8,-2.8,F/CLSD (0),N/CLSD (1),Gear down - ground (3),Gnd (1),0.0,0.9,Normal (0),Normal (0),Not Out (0),Not Out (0), 0.0, 0.0, 0.0, 0.0, 0.0, 0.0,
54.250,,,,,,,,,,,,,,, 0.00,,,,,,,,,,,,,,,,,,,,,,,,,,,,,,,,,,,,,,,,,
54.500,,,,,,,,,,,,,,, 0.00,R 0.4,,,,,,,,,,,,,,,,,,,,,,,,,,,,,,,,Not Out (0),Not Out (0),,,,,,,
54.750,,,,,,,,,,,,,,, 0.00,,,,,,,,,,,,,,,,,,,,,,,,,,,,,,,,,,,,,,,,,
55.000,,,,,,,,,53,5,G - Gnd (7),0,0.0,, 0.00,R 0.4,768,,,,24.6,26.3,357,359,,16.5,,,,496,506,0.000,0.000,18.8,18.9,59.3,60.0,-2.8,-2.8,,,Gear down - ground (3),Gnd (1),,,Normal (0),Normal (0),Not Out (0),Not Out (0), 0.0, 0.0, 0.0, 0.0, 0.0, 0.0,
55.250,,,,,,,,,,,,,,, 0.00,,,,,,,,,,,,,,,,,,,,,,,,,,,,,,,,,,,,,,,,,
55.500,,,,,,,,,,,,,,, 0.00,R 0.4,,,,,,,,,,,,,,,,,,,,,,,,,,,,,,,,Not Out (0),Not Out (0),,,,,,,
55.750,,,,,,,,,,,,,,, 0.00,,,,,,,,,,,,,,,,,,,,,,,,,,,,,,,,,,,,,,,,,
56.000,,A319 (5),,ESGG,FIN6LF  ,16,,6,,,G - Gnd (7),0,0.0,0.00, 0.00,R 0.4,768,,N57 27.03,,24.6,26.3,354,381,,,,0.0,0,499,512,0.000,0.000,18.8,18.9,59.1,60.1,-2.8,-2.8,F/CLSD (0),N/CLSD (1),Gear down - ground (3),Gnd (1),0.0,4.1,Normal (0),Normal (0),Not Out (0),Not Out (0), 0.0, 0.0, 0.0, 0.0, 0.0, 0.0,NOTCMD (0)
56.250,,,,,,,,,,,,,,, 0.00,,,,,,,,,,,,,,,,,,,,,,,,,,,,,,,,,,,,,,,,,
56.500,,,,,,,,,,,,,,, 0.00,R 0.4,,,,,,,,,,,,,,,,,,,,,,,,,,,,,,,,Not Out (0),Not Out (0),,,,,,,
56.750,,,,,,,,,,,,,,, 0.00,,,,,,,,,,,,,,,,,,,,,,,,,,,,,,,,,,,,,,,,,
57.000,.OH-LVH,,EFHK,,,,6,,,,G - Gnd (7),0,0.0,, 0.00,R 0.4,768,1004,,,24.6,26.3,359,395,,16.5,,,,501,519,0.000,0.000,18.8,19.0,59.1,60.3,-2.8,-2.8,,,Gear down - ground (3),Gnd (1),,,Normal (0),Normal (0),Not Out (0),Not Out (0), 0.0, 0.0, 0.0, 0.0, 0.0, 0.0,
57.250,,,,,,,,,,,,,,, 0.00,,,,,,,,,,,,,,,,,,,,,,,,,,,,,,,,,,,,,,,,,
57.500,,,,,,,,,,,,,,, 0.00,R 0.4,,,,,,,,,,,,,,,,,,,,,,,,,,,,,,,,Not Out (0),Not Out (0),,,,,,,
57.750,,,,,,,,,,,,,,, 0.00,,,,,,,,,,,,,,,,,,,,,,,,,,,,,,,,,,,,,,,,,
58.000,,,,,,,,,,,G - Gnd (7),0,0.0,, 0.00,R 0.4,768,,,E012 18.32,24.6,26.3,357,397,56870,,0.00,,,503,525,0.000,0.000,18.8,19.0,59.1,60.5,-2.8,-2.8,F/CLSD (0),N/CLSD (1),Gear down - ground (3),Gnd (1),1.0,7.3,Normal (0),Normal (0),Not Out (0),Not Out (0), 0.0, 0.0, 0.0, 0.0, 0.0, 0.0,
58.250,,,,,,,,,,,,,,, 0.00,,,,,,,,,,,,,,,,,,,,,,,,,,,,,,,,,,,,,,,,,
58.500,,,,,,,,,,,,,,, 0.00,R 0.4,,,,,,,,,,,,,,,,,,,,,,,,,,,,,,,,Not Out (0),Not Out (0),,,,,,,
58.750,,,,,,,,,,,,,,, 0.00,,,,,,,,,,,,,,,,,,,,,,,,,,,,,,,,,,,,,,,,,
59.000,,,,,,,,,53,9,G - Gnd (7),0,0.0,, 0.00,R 0.4,768,,,,24.6,26.3,357,395,,16.5,,,,506,531,0.000,0.000,18.8,19.1,59.1,60.6,-2.8,-2.8,,,Gear down - ground (3),Gnd (1),,,Normal (0),Normal (0),Not Out (0),Not Out (0), 0.0, 0.0, 0.0, 0.0, 0.0, 0.0,
59.250,,,,,,,,,,,,,,, 0.00,,,,,,,,,,,,,,,,,,,,,,,,,,,,,,,,,,,,,,,,,
59.500,,,,,,,,,,,,,,, 0.00,R 0.4,,,,,,,,,,,,,,,,,,,,,,,,,,,,,,,,Not Out (0),Not Out (0),,,,,,,
59.750,,,,,,,,,,,,,,, 0.00,,,,,,,,,,,,,,,,,,,,,,,,,,,,,,,,,,,,,,,,,
60.000,,A319 (5),,ESGG,FIN6LF  ,16,,6,,,G - Gnd (7),0,0.0,0.00, 0.00,R 0.4,768,,N57 27.03,,24.6,26.3,359,386,,,,0.0,0,508,535,0.000,0.000,18.8,19.1,59.1,60.8,-2.8,-2.8,F/CLSD (0),N/CLSD (1),Gear down - ground (3),Gnd (1),1.0,9.8,Normal (0),Normal (0),Not Out (0),Not Out (0), 0.0, 0.0, 0.0, 0.0, 0.0, 0.0,NOTCMD (0)
60.250,,,,,,,,,,,,,,, 0.00,,,,,,,,,,,,,,,,,,,,,,,,,,,,,,,,,,,,,,,,,
60.500,,,,,,,,,,,,,,, 0.00,R 0.4,,,,,,,,,,,,,,,,,,,,,,,,,,,,,,,,Not Out (0),Not Out (0),,,,,,,
60.750,,,,,,,,,,,,,,, 0.00,,,,,,,,,,,,,,,,,,,,,,,,,,,,,,,,,,,,,,,,,
61.000,.OH-LVH,,EFHK,,,,6,,,,G - Gnd (7),0,0.0,, 0.00,R 0.4,768,1004,,,24.6,26.3,356,379,,16.5,,,,510,538,0.000,0.000,18.9,19.3,59.1,60.8,-2.8,-2.8,,,Gear down - ground (3),Gnd (1),,,Normal (0),Normal (0),Not Out (0),Not Out (0), 0.0, 0.0, 0.0, 0.0, 0.0, 0.0,
61.250,,,,,,,,,,,,,,, 0.00,,,,,,,,,,,,,,,,,,,,,,,,,,,,,,,,,,,,,,,,,
61.500,,,,,,,,,,,,,,, 0.00,R 0.4,,,,,,,,,,,,,,,,,,,,,,,,,,,,,,,,Not Out (0),Not Out (0),,,,,,,
61.750,,,,,,,,,,,,,,, 0.00,,,,,,,,,,,,,,,,,,,,,,,,,,,,,,,,,,,,,,,,,
62.000,,,,,,,,,,,G - Gnd (7),0,0.0,, 0.00,R 0.4,768,,,E012 18.32,24.6,26.3,357,375,56870,,0.00,,,512,540,0.000,0.000,19.0,19.3,59.1,60.9,-2.8,-2.8,F/CLSD (0),N/CLSD (1),Gear down - ground (3),Gnd (1),1.5,10.0,Normal (0),Normal (0),Not Out (0),Not Out (0), 0.0, 0.0, 0.0, 0.0, 0.0, 0.0,
62.250,,,,,,,,,,,,,,, 0.00,,,,,,,,,,,,,,,,,,,,,,,,,,,,,,,,,,,,,,,,,
62.500,,,,,,,,,,,,,,, 0.00,R 0.4,,,,,,,,,,,,,,,,,,,,,,,,,,,,,,,,Not Out (0),Not Out (0),,,,,,,
62.750,,,,,,,,,,,,,,, 0.00,,,,,,,,,,,,,,,,,,,,,,,,,,,,,,,,,,,,,,,,,
63.000,,,,,,,,,53,13,G - Gnd (7),0,0.0,, 0.00,R 0.4,768,,,,24.6,26.3,354,368,,16.5,,,,514,541,0.000,0.000,19.1,19.3,59.1,60.9,-2.8,-2.8,,,Gear down - ground (3),Gnd (1),,,Normal (0),Normal (0),Not Out (0),Not Out (0), 0.0, 0.0, 0.0, 0.0, 0.0, 0.0,
63.250,,,,,,,,,,,,,,, 0.00,,,,,,,,,,,,,,,,,,,,,,,,,,,,,,,,,,,,,,,,,
63.500,,,,,,,,,,,,,,, 0.00,R 0.4,,,,,,,,,,,,,,,,,,,,,,,,,,,,,,,,Not Out (0),Not Out (0),,,,,,,
63.750,,,,,,,,,,,,,,, 0.00,,,,,,,,,,,,,,,,,,,,,,,,,,,,,,,,,,,,,,,,,
64.000,,A319 (5),,ESGG,FIN6LF  ,16,,6,,,G - Gnd (7),0,0.0,0.00, 0.00,R 0.4,768,,N57 27.03,,24.6,26.3,352,366,,,,0.0,0,515,541,0.000,0.000,19.1,19.1,59.1,60.8,-2.8,-2.8,N/CLSD (1),N/CLSD (1),Gear down - ground (3),Gnd (1),1.5,10.0,Normal (0),Normal (0),Not Out (0),Not Out (0), 0.0, 0.0, 0.0, 0.0, 0.0, 0.0,NOTCMD (0)
64.250,,,,,,,,,,,,,,, 0.00,,,,,,,,,,,,,,,,,,,,,,,,,,,,,,,,,,,,,,,,,
64.500,,,,,,,,,,,,,,, 0.00,R 0.4,,,,,,,,,,,,,,,,,,,,,,,,,,,,,,,,Not Out (0),Not Out (0),,,,,,,
64.750,,,,,,,,,,,,,,, 0.00,,,,,,,,,,,,,,,,,,,,,,,,,,,,,,,,,,,,,,,,,
65.000,.OH-LVH,,EFHK,,,,6,,,,G - Gnd (7),0,0.0,, 0.00,R 0.4,768,1004,,,24.6,26.3,366,365,,16.5,,,,517,542,0.000,0.000,19.0,19.1,59.3,60.8,-2.8,-2.8,,,Gear down - ground (3),Gnd (1),,,Normal (0),Normal (0),Not Out (0),Not Out (0), 0.0, 0.0, 0.0, 0.0, 0.0, 0.0,
65.250,,,,,,,,,,,,,,, 0.00,,,,,,,,,,,,,,,,,,,,,,,,,,,,,,,,,,,,,,,,,
65.500,,,,,,,,,,,,,,, 0.00,R 0.4,,,,,,,,,,,,,,,,,,,,,,,,,,,,,,,,Not Out (0),Not Out (0),,,,,,,
65.750,,,,,,,,,,,,,,, 0.00,,,,,,,,,,,,,,,,,,,,,,,,,,,,,,,,,,,,,,,,,
66.000,,,,,,,,,,,G - Gnd (7),0,0.0,, 0.00,R 0.4,768,,,E012 18.32,24.6,26.3,390,368,56870,,0.00,,,520,543,0.000,0.000,19.0,19.0,59.4,60.8,-2.8,-2.8,N/CLSD (1),N/CLSD (1),Gear down - ground (3),Gnd (1),1.5,10.0,Normal (0),Normal (0),Not Out (0),Not Out (0), 0.0, 0.0, 0.0, 0.0, 0.0, 0.0,
66.250,,,,,,,,,,,,,,, 0.00,,,,,,,,,,,,,,,,,,,,,,,,,,,,,,,,,,,,,,,,,
66.500,,,,,,,,,,,,,,, 0.00,R 0.4,,,,,,,,,,,,,,,,,,,,,,,,,,,,,,,,Not Out (0),Not Out (0),,,,,,,
66.750,,,,,,,,,,,,,,, 0.00,,,,,,,,,,,,,,,,,,,,,,,,,,,,,,,,,,,,,,,,,
67.000,,,,,,,,,53,17,G - Gnd (7),0,0.0,, 0.00,R 0.4,768,,,,24.6,26.3,397,366,,16.5,,,,525,543,0.000,0.000,19.1,19.0,59.6,60.8,-2.8,-2.8,,,Gear down - ground (3),Gnd (1),,,Normal (0),Normal (0),Not Out (0),Not Out (0), 0.0, 0.0, 0.0, 0.0, 0.0, 0.0,
67.250,,,,,,,,,,,,,,, 0.00,,,,,,,,,,,,,,,,,,,,,,,,,,,,,,,,,,,,,,,,,
67.500,,,,,,,,,,,,,,, 0.00,R 0.4,,,,,,,,,,,,,,,,,,,,,,,,,,,,,,,,Not Out (0),Not Out (0),,,,,,,
67.750,,,,,,,,,,,,,,, 0.00,,,,,,,,,,,,,,,,,,,,,,,,,,,,,,,,,,,,,,,,,
68.000,,A319 (5),,ESGG,FIN6LF  ,16,,6,,,G - Gnd (7),0,0.0,0.00, 0.00,R 0.4,768,,N57 27.03,,24.6,26.3,403,366,,,,0.0,0,532,545,0.000,0.000,19.1,19.0,59.9,60.8,-2.8,-2.8,N/CLSD (1),N/CLSD (1),Gear down - ground (3),Gnd (1),1.5,10.0,Normal (0),Normal (0),Not Out (0),Not Out (0), 0.0, 0.0, 0.0, 0.0, 0.0, 0.0,NOTCMD (0)
68.250,,,,,,,,,,,,,,, 0.00,,,,,,,,,,,,,,,,,,,,,,,,,,,,,,,,,,,,,,,,,
68.500,,,,,,,,,,,,,,, 0.00,R 0.4,,,,,,,,,,,,,,,,,,,,,,,,,,,,,,,,Not Out (0),Not Out (0),,,,,,,
68.750,,,,,,,,,,,,,,, 0.00,,,,,,,,,,,,,,,,,,,,,,,,,,,,,,,,,,,,,,,,,
69.000,.OH-LVH,,EFHK,,,,6,,,,G - Gnd (7),0,0.0,, 0.00,R 0.4,768,1004,,,24.6,26.3,399,365,,16.5,,,,536,546,0.000,0.000,19.3,19.0,60.0,60.8,-2.8,-2.8,,,Gear down - ground (3),Gnd (1),,,Normal (0),Normal (0),Not Out (0),Not Out (0), 0.0, 0.0, 0.0, 0.0, 0.0, 0.0,
69.250,,,,,,,,,,,,,,, 0.00,,,,,,,,,,,,,,,,,,,,,,,,,,,,,,,,,,,,,,,,,
69.500,,,,,,,,,,,,,,, 0.00,R 0.4,,,,,,,,,,,,,,,,,,,,,,,,,,,,,,,,Not Out (0),Not Out (0),,,,,,,
69.750,,,,,,,,,,,,,,, 0.00,,,,,,,,,,,,,,,,,,,,,,,,,,,,,,,,,,,,,,,,,
70.000,,,,,,,,,,,G - Gnd (7),0,0.0,, 0.00,R 0.4,768,,,E012 18.32,24.6,26.3,392,368,56870,,0.00,,,540,547,0.000,0.000,19.4,19.0,60.1,60.8,-2.8,-2.8,N/CLSD (1),N/CLSD (1),Gear down - ground (3),Gnd (1),1.5,10.0,Normal (0),Normal (0),Not Out (0),Not Out (0), 0.0, 0.0, 0.0, 0.0, 0.0, 0.0,
70.250,,,,,,,,,,,,,,, 0.00,,,,,,,,,,,,,,,,,,,,,,,,,,,,,,,,,,,,,,,,,
70.500,,,,,,,,,,,,,,, 0.00,R 0.4,,,,,,,,,,,,,,,,,,,,,,,,,,,,,,,,Not Out (0),Not Out (0),,,,,,,
70.750,,,,,,,,,,,,,,, 0.00,,,,,,,,,,,,,,,,,,,,,,,,,,,,,,,,,,,,,,,,,
71.000,,,,,,,,,53,21,G - Gnd (7),0,0.0,, 0.00,R 0.4,768,,,,24.6,26.3,386,370,,16.5,,,,544,548,0.000,0.000,19.5,19.0,60.1,60.8,-2.8,-2.8,,,Gear down - ground (3),Gnd (1),,,Normal (0),Normal (0),Not Out (0),Not Out (0), 0.0, 0.0, 0.0, 0.0, 0.0, 0.0,
71.250,,,,,,,,,,,,,,, 0.00,,,,,,,,,,,,,,,,,,,,,,,,,,,,,,,,,,,,,,,,,
71.500,,,,,,,,,,,,,,, 0.00,R 0.4,,,,,,,,,,,,,,,,,,,,,,,,,,,,,,,,Not Out (0),Not Out (0),,,,,,,
71.750,,,,,,,,,,,,,,, 0.00,,,,,,,,,,,,,,,,,,,,,,,,,,,,,,,,,,,,,,,,,
72.000,,A319 (5),,ESGG,FIN6LF  ,16,,6,,,G - Gnd (7),0,0.0,0.00, 0.00,R 0.4,768,,N57 27.03,,24.6,26.3,383,368,,,,0.0,0,547,549,0.000,0.000,19.4,19.1,60.1,60.8,-2.8,-2.8,N/CLSD (1),N/CLSD (1),Gear down - ground (3),Gnd (1),1.5,10.0,Normal (0),Normal (0),Not Out (0),Not Out (0), 0.0, 0.0, 0.0, 0.0, 0.0, 0.0,NOTCMD (0)
72.250,,,,,,,,,,,,,,, 0.00,,,,,,,,,,,,,,,,,,,,,,,,,,,,,,,,,,,,,,,,,
72.500,,,,,,,,,,,,,,, 0.00,R 0.4,,,,,,,,,,,,,,,,,,,,,,,,,,,,,,,,Not Out (0),Not Out (0),,,,,,,
72.750,,,,,,,,,,,,,,, 0.00,,,,,,,,,,,,,,,,,,,,,,,,,,,,,,,,,,,,,,,,,
73.000,.OH-LVH,,EFHK,,,,6,,,,G - Gnd (7),0,0.0,, 0.00,R 0.4,768,1004,,,24.6,26.3,383,370,,16.5,,,,549,550,0.000,0.000,19.4,19.1,60.1,60.8,-2.8,-2.8,,,Gear down - ground (3),Gnd (1),,,Normal (0),Normal (0),Not Out (0),Not Out (0), 0.0, 0.0, 0.0, 0.0, 0.0, 0.0,
73.250,,,,,,,,,,,,,,, 0.00,,,,,,,,,,,,,,,,,,,,,,,,,,,,,,,,,,,,,,,,,
73.500,,,,,,,,,,,,,,, 0.00,R 0.4,,,,,,,,,,,,,,,,,,,,,,,,,,,,,,,,Not Out (0),Not Out (0),,,,,,,
73.750,,,,,,,,,,,,,,, 0.00,,,,,,,,,,,,,,,,,,,,,,,,,,,,,,,,,,,,,,,,,
74.000,,,,,,,,,,,G - Gnd (7),0,0.0,, 0.00,R 0.4,768,,,E012 18.32,24.6,26.3,381,368,56870,,0.00,,,551,551,0.000,0.000,19.3,19.1,60.1,60.8,-2.8,-2.8,N/CLSD (1),N/CLSD (1),Gear down - ground (3),Gnd (1),1.5,10.0,Normal (0),Normal (0),Not Out (0),Not Out (0), 0.0, 0.0, 0.0, 0.0, 0.0, 0.0,
74.250,,,,,,,,,,,,,,, 0.00,,,,,,,,,,,,,,,,,,,,,,,,,,,,,,,,,,,,,,,,,
74.500,,,,,,,,,,,,,,, 0.00,R 0.4,,,,,,,,,,,,,,,,,,,,,,,,,,,,,,,,Not Out (0),Not Out (0),,,,,,,
74.750,,,,,,,,,,,,,,, 0.00,,,,,,,,,,,,,,,,,,,,,,,,,,,,,,,,,,,,,,,,,
75.000,,,,,,,,,53,25,G - Gnd (7),0,0.0,, 0.00,R 0.4,768,,,,24.6,26.3,383,370,,16.5,,,,553,552,0.000,0.000,19.1,19.0,60.1,60.8,-2.8,-2.8,,,Gear down - ground (3),Gnd (1),,,Normal (0),Normal (0),Not Out (0),Not Out (0), 0.0, 0.0, 0.0, 0.0, 0.0, 0.0,
75.250,,,,,,,,,,,,,,, 0.00,,,,,,,,,,,,,,,,,,,,,,,,,,,,,,,,,,,,,,,,,
75.500,,,,,,,,,,,,,,, 0.00,R 0.4,,,,,,,,,,,,,,,,,,,,,,,,,,,,,,,,Not Out (0),Not Out (0),,,,,,,
75.750,,,,,,,,,,,,,,, 0.00,,,,,,,,,,,,,,,,,,,,,,,,,,,,,,,,,,,,,,,,,
76.000,,A319 (5),,ESGG,FIN6LF  ,16,,6,,,G - Gnd (7),0,0.0,0.00, 0.00,R 0.4,768,,N57 27.03,,24.6,26.3,383,366,,,,0.0,0,556,553,0.000,0.000,19.0,19.0,60.1,60.8,-2.8,-2.8,N/CLSD (1),N/CLSD (1),Gear down - ground (3),Gnd (1),1.5,10.0,Normal (0),Normal (0),Not Out (0),Not Out (0), 0.0, 0.0, 0.0, 0.0, 0.0, 0.0,NOTCMD (0)
76.250,,,,,,,,,,,,,,, 0.00,,,,,,,,,,,,,,,,,,,,,,,,,,,,,,,,,,,,,,,,,
76.500,,,,,,,,,,,,,,, 0.00,R 0.4,,,,,,,,,,,,,,,,,,,,,,,,,,,,,,,,Not Out (0),Not Out (0),,,,,,,
76.750,,,,,,,,,,,,,,, 0.00,,,,,,,,,,,,,,,,,,,,,,,,,,,,,,,,,,,,,,,,,
77.000,.OH-LVH,,EFHK,,,,6,,,,G - Gnd (7),0,0.0,, 0.00,R 0.4,768,1004,,,24.6,26.3,375,366,,16.5,,,,558,554,0.000,0.000,19.0,19.0,60.1,60.8,-2.8,-2.8,,,Gear down - ground (3),Gnd (1),,,Normal (0),Normal (0),Not Out (0),Not Out (0), 0.0, 0.0, 0.0, 0.0, 0.0, 0.0,
77.250,,,,,,,,,,,,,,, 0.00,,,,,,,,,,,,,,,,,,,,,,,,,,,,,,,,,,,,,,,,,
77.500,,,,,,,,,,,,,,, 0.00,R 0.4,,,,,,,,,,,,,,,,,,,,,,,,,,,,,,,,Not Out (0),Not Out (0),,,,,,,
77.750,,,,,,,,,,,,,,, 0.00,,,,,,,,,,,,,,,,,,,,,,,,,,,,,,,,,,,,,,,,,
78.000,,,,,,,,,,,G - Gnd (7),0,0.0,, 0.00,R 0.4,768,,,E012 18.32,24.6,26.3,365,361,56870,,0.00,,,559,554,0.000,0.000,18.9,19.0,60.0,60.6,-2.8,-2.8,N/CLSD (1),N/CLSD (1),Gear down - ground (3),Gnd (1),1.5,10.0,Normal (0),Normal (0),Not Out (0),Not Out (0), 0.0, 0.0, 0.0, 0.0, 0.0, 0.0,
78.250,,,,,,,,,,,,,,, 0.00,,,,,,,,,,,,,,,,,,,,,,,,,,,,,,,,,,,,,,,,,
78.500,,,,,,,,,,,,,,, 0.00,R 0.4,,,,,,,,,,,,,,,,,,,,,,,,,,,,,,,,Not Out (0),Not Out (0),,,,,,,
78.750,,,,,,,,,,,,,,, 0.00,,,,,,,,,,,,,,,,,,,,,,,,,,,,,,,,,,,,,,,,,
79.000,,,,,,,,,53,29,G - Gnd (7),0,0.0,, 0.00,R 0.4,768,,,,24.6,26.3,352,345,,16.5,,,,559,553,0.000,0.000,18.8,19.0,59.8,60.5,-2.8,-2.8,,,Gear down - ground (3),Gnd (1),,,Normal (0),Normal (0),Not Out (0),Not Out (0), 0.0, 0.0, 0.0, 0.0, 0.0, 0.0,
79.250,,,,,,,,,,,,,,, 0.00,,,,,,,,,,,,,,,,,,,,,,,,,,,,,,,,,,,,,,,,,
79.500,,,,,,,,,,,,,,, 0.00,R 0.4,,,,,,,,,,,,,,,,,,,,,,,,,,,,,,,,Not Out (0),Not Out (0),,,,,,,
79.750,,,,,,,,,,,,,,, 0.00,,,,,,,,,,,,,,,,,,,,,,,,,,,,,,,,,,,,,,,,,
80.000,,A319 (5),,ESGG,FIN6LF  ,16,,6,,,G - Gnd (7),0,0.0,0.00, 0.00,R 0.4,768,,N57 27.03,,24.6,26.3,345,330,,,,0.0,0,557,550,0.000,0.000,18.8,19.0,59.4,60.1,-2.8,-2.8,N/CLSD (1),N/CLSD (1),Gear down - ground (3),Gnd (1),1.5,10.0,Normal (0),Normal (0),Not Out (0),Not Out (0), 0.0, 0.0, 0.0, 0.0, 0.0, 0.0,NOTCMD (0)
80.250,,,,,,,,,,,,,,, 0.00,,,,,,,,,,,,,,,,,,,,,,,,,,,,,,,,,,,,,,,,,
80.500,,,,,,,,,,,,,,, 0.00,R 0.4,,,,,,,,,,,,,,,,,,,,,,,,,,,,,,,,Not Out (0),Not Out (0),,,,,,,
80.750,,,,,,,,,,,,,,, 0.00,,,,,,,,,,,,,,,,,,,,,,,,,,,,,,,,,,,,,,,,,
81.000,.OH-LVH,,EFHK,,,,6,,,,G - Gnd (7),0,0.0,, 0.00,R 0.4,768,1004,,,24.6,26.3,341,325,,16.5,,,,555,546,0.000,0.000,18.6,19.0,59.1,59.8,-2.8,-2.8,,,Gear down - ground (3),Gnd (1),,,Normal (0),Normal (0),Not Out (0),Not Out (0), 0.0, 0.0, 0.0, 0.0, 0.0, 0.0,
81.250,,,,,,,,,,,,,,, 0.00,,,,,,,,,,,,,,,,,,,,,,,,,,,,,,,,,,,,,,,,,
81.500,,,,,,,,,,,,,,, 0.00,R 0.4,,,,,,,,,,,,,,,,,,,,,,,,,,,,,,,,Not Out (0),Not Out (0),,,,,,,
81.750,,,,,,,,,,,,,,, 0.00,,,,,,,,,,,,,,,,,,,,,,,,,,,,,,,,,,,,,,,,,
82.000,,,,,,,,,,,G - Gnd (7),0,0.0,, 0.00,R 0.4,768,,,E012 18.32,24.6,26.3,359,321,56870,,0.00,,,553,543,0.000,0.000,18.8,19.0,59.0,59.5,-2.8,-2.8,N/CLSD (1),N/CLSD (1),Gear down - ground (3),Gnd (1),1.5,10.0,Normal (0),Normal (0),Not Out (0),Not Out (0), 0.0, 0.0, 0.0, 0.0, 0.0, 0.0,
82.250,,,,,,,,,,,,,,, 0.00,,,,,,,,,,,,,,,,,,,,,,,,,,,,,,,,,,,,,,,,,
82.500,,,,,,,,,,,,,,, 0.00,R 0.4,,,,,,,,,,,,,,,,,,,,,,,,,,,,,,,,Not Out (0),Not Out (0),,,,,,,
82.750,,,,,,,,,,,,,,, 0.00,,,,,,,,,,,,,,,,,,,,,,,,,,,,,,,,,,,,,,,,,
83.000,,,,,,,,,53,33,G - Gnd (7),0,0.0,, 0.00,R 0.4,768,,,,24.6,26.3,374,323,,16.5,,,,553,540,0.000,0.000,18.9,19.0,58.9,59.1,-2.8,-2.8,,,Gear down - ground (3),Gnd (1),,,Normal (0),Normal (0),Not Out (0),Not Out (0), 0.0, 0.0, 0.0, 0.0, 0.0, 0.0,
83.250,,,,,,,,,,,,,,, 0.00,,,,,,,,,,,,,,,,,,,,,,,,,,,,,,,,,,,,,,,,,
83.500,,,,,,,,,,,,,,, 0.00,R 0.4,,,,,,,,,,,,,,,,,,,,,,,,,,,,,,,,Not Out (0),Not Out (0),,,,,,,
83.750,,,,,,,,,,,,,,, 0.00,,,,,,,,,,,,,,,,,,,,,,,,,,,,,,,,,,,,,,,,,
84.000,,A319 (5),,ESGG,FIN6LF  ,16,,6,,,G - Gnd (7),0,0.0,0.00, 0.00,R 0.4,768,,N57 27.03,,24.6,26.3,374,336,,,,0.0,0,554,538,0.000,0.000,19.1,19.0,59.0,59.0,-2.8,-2.8,N/CLSD (1),N/CLSD (1),Gear down - ground (3),Gnd (1),1.5,10.0,Normal (0),Normal (0),Not Out (0),Not Out (0), 0.0, 0.0, 0.0, 0.0, 0.0, 0.0,NOTCMD (0)
84.250,,,,,,,,,,,,,,, 0.00,,,,,,,,,,,,,,,,,,,,,,,,,,,,,,,,,,,,,,,,,
84.500,,,,,,,,,,,,,,, 0.00,R 0.4,,,,,,,,,,,,,,,,,,,,,,,,,,,,,,,,Not Out (0),Not Out (0),,,,,,,
84.750,,,,,,,,,,,,,,, 0.00,,,,,,,,,,,,,,,,,,,,,,,,,,,,,,,,,,,,,,,,,
85.000,.OH-LVH,,EFHK,,,,6,,,,G - Gnd (7),0,0.0,, 0.00,R 0.4,768,1004,,,24.6,26.3,372,352,,16.5,,,,555,538,0.000,0.000,19.3,19.1,59.0,58.9,-2.8,-2.8,,,Gear down - ground (3),Gnd (1),,,Normal (0),Normal (0),Not Out (0),Not Out (0), 0.0, 0.0, 0.0, 0.0, 0.0, 0.0,
85.250,,,,,,,,,,,,,,, 0.00,,,,,,,,,,,,,,,,,,,,,,,,,,,,,,,,,,,,,,,,,
85.500,,,,,,,,,,,,,,, 0.00,R 0.4,,,,,,,,,,,,,,,,,,,,,,,,,,,,,,,,Not Out (0),Not Out (0),,,,,,,
85.750,,,,,,,,,,,,,,, 0.00,,,,,,,,,,,,,,,,,,,,,,,,,,,,,,,,,,,,,,,,,
86.000,,,,,,,,,,,G - Gnd (7),0,0.0,, 0.00,R 0.4,768,,,E012 18.32,24.6,26.3,375,359,56870,,0.00,,,555,539,0.000,0.000,19.5,19.3,59.0,58.9,-2.8,-2.8,N/CLSD (1),N/CLSD (1),Gear down - ground (3),Gnd (1),1.5,10.0,Normal (0),Normal (0),Not Out (0),Not Out (0), 0.0, 0.0, 0.0, 0.0, 0.0, 0.0,
86.250,,,,,,,,,,,,,,, 0.00,,,,,,,,,,,,,,,,,,,,,,,,,,,,,,,,,,,,,,,,,
86.500,,,,,,,,,,,,,,, 0.00,R 0.4,,,,,,,,,,,,,,,,,,,,,,,,,,,,,,,,Not Out (0),Not Out (0),,,,,,,
86.750,,,,,,,,,,,,,,, 0.00,,,,,,,,,,,,,,,,,,,,,,,,,,,,,,,,,,,,,,,,,
87.000,,,,,,,,,53,37,G - Gnd (7),0,0.0,, 0.00,R 0.4,768,,,,24.6,26.3,374,357,,16.5,,,,556,539,0.000,0.000,19.8,19.4,59.0,59.0,-2.8,-2.8,,,Gear down - ground (3),Gnd (1),,,Normal (0),Normal (0),Not Out (0),Not Out (0), 0.0, 0.0, 0.0, 0.0, 0.0, 0.0,
87.250,,,,,,,,,,,,,,, 0.00,,,,,,,,,,,,,,,,,,,,,,,,,,,,,,,,,,,,,,,,,
87.500,,,,,,,,,,,,,,, 0.00,R 0.4,,,,,,,,,,,,,,,,,,,,,,,,,,,,,,,,Not Out (0),Not Out (0),,,,,,,
87.750,,,,,,,,,,,,,,, 0.00,,,,,,,,,,,,,,,,,,,,,,,,,,,,,,,,,,,,,,,,,
88.000,,A319 (5),,ESGG,FIN6LF  ,16,,6,,,G - Gnd (7),0,0.0,0.00, 0.00,R 0.4,768,,N57 27.03,,24.6,26.3,375,356,,,,0.0,0,556,539,0.000,0.000,19.9,19.5,59.0,59.0,-2.8,-2.8,N/CLSD (1),N/CLSD (1),Gear down - ground (3),Gnd (1),1.5,10.0,Normal (0),Normal (0),Not Out (0),Not Out (0), 0.0, 0.0, 0.0, 0.0, 0.0, 0.0,NOTCMD (0)
88.250,,,,,,,,,,,,,,, 0.00,,,,,,,,,,,,,,,,,,,,,,,,,,,,,,,,,,,,,,,,,
88.500,,,,,,,,,,,,,,, 0.00,R 0.4,,,,,,,,,,,,,,,,,,,,,,,,,,,,,,,,Not Out (0),Not Out (0),,,,,,,
88.750,,,,,,,,,,,,,,, 0.00,,,,,,,,,,,,,,,,,,,,,,,,,,,,,,,,,,,,,,,,,
89.000,.OH-LVH,,EFHK,,,,6,,,,G - Gnd (7),0,0.0,, 0.00,R 0.4,768,1004,,,24.6,26.3,374,356,,16.5,,,,556,539,0.000,0.000,19.9,19.5,59.0,59.0,-2.8,-2.8,,,Gear down - ground (3),Gnd (1),,,Normal (0),Normal (0),Not Out (0),Not Out (0), 0.0, 0.0, 0.0, 0.0, 0.0, 0.0,
89.250,,,,,,,,,,,,,,, 0.00,,,,,,,,,,,,,,,,,,,,,,,,,,,,,,,,,,,,,,,,,
89.500,,,,,,,,,,,,,,, 0.00,R 0.4,,,,,,,,,,,,,,,,,,,,,,,,,,,,,,,,Not Out (0),Not Out (0),,,,,,,
89.750,,,,,,,,,,,,,,, 0.00,,,,,,,,,,,,,,,,,,,,,,,,,,,,,,,,,,,,,,,,,
90.000,,,,,,,,,,,G - Gnd (7),0,0.0,, 0.00,R 0.4,768,,,E012 18.32,24.6,26.3,375,356,56870,,0.00,,,557,540,0.000,0.000,19.9,19.4,59.0,59.0,-2.8,-2.8,N/CLSD (1),N/CLSD (1),Gear down - ground (3),Gnd (1),1.5,10.0,Normal (0),Normal (0),Not Out (0),Not Out (0), 0.0, 0.0, 0.0, 0.0, 0.0, 0.0,
90.250,,,,,,,,,,,,,,, 0.00,,,,,,,,,,,,,,,,,,,,,,,,,,,,,,,,,,,,,,,,,
90.500,,,,,,,,,,,,,,, 0.00,R 0.4,,,,,,,,,,,,,,,,,,,,,,,,,,,,,,,,Not Out (0),Not Out (0),,,,,,,
90.750,,,,,,,,,,,,,,, 0.00,,,,,,,,,,,,,,,,,,,,,,,,,,,,,,,,,,,,,,,,,
91.000,,,,,,,,,53,41,G - Gnd (7),0,0.0,, 0.00,R 0.4,768,,,,24.6,26.3,374,356,,16.5,,,,556,540,0.000,0.000,20.0,19.4,59.0,59.0,-2.8,-2.8,,,Gear down - ground (3),Gnd (1),,,Normal (0),Normal (0),Not Out (0),Not Out (0), 0.0, 0.0, 0.0, 0.0, 0.0, 0.0,
91.250,,,,,,,,,,,,,,, 0.00,,,,,,,,,,,,,,,,,,,,,,,,,,,,,,,,,,,,,,,,,
91.500,,,,,,,,,,,,,,, 0.00,R 0.4,,,,,,,,,,,,,,,,,,,,,,,,,,,,,,,,Not Out (0),Not Out (0),,,,,,,
91.750,,,,,,,,,,,,,,, 0.00,,,,,,,,,,,,,,,,,,,,,,,,,,,,,,,,,,,,,,,,,
92.000,,A319 (5),,ESGG,FIN6LF  ,16,,6,,,G - Gnd (7),0,0.0,0.00, 0.00,R 0.4,768,,N57 27.03,,24.6,26.3,372,356,,,,0.0,0,557,540,0.000,0.000,20.0,19.4,59.0,59.0,-2.8,-2.8,N/CLSD (1),N/CLSD (1),Gear down - ground (3),Gnd (1),1.5,10.0,Normal (0),Normal (0),Not Out (0),Not Out (0), 0.0, 0.0, 0.0, 0.0, 0.0, 0.0,NOTCMD (0)
92.250,,,,,,,,,,,,,,, 0.00,,,,,,,,,,,,,,,,,,,,,,,,,,,,,,,,,,,,,,,,,
92.500,,,,,,,,,,,,,,, 0.00,R 0.4,,,,,,,,,,,,,,,,,,,,,,,,,,,,,,,,Not Out (0),Not Out (0),,,,,,,
92.750,,,,,,,,,,,,,,, 0.00,,,,,,,,,,,,,,,,,,,,,,,,,,,,,,,,,,,,,,,,,
93.000,.OH-LVH,,EFHK,,,,6,,,,G - Gnd (7),0,0.0,, 0.00,R 0.4,768,1004,,,24.6,26.3,375,356,,16.5,,,,557,539,0.000,0.000,20.0,19.4,59.0,59.0,-2.8,-2.8,,,Gear down - ground (3),Gnd (1),,,Normal (0),Normal (0),Not Out (0),Not Out (0), 0.0, 0.0, 0.0, 0.0, 0.0, 0.0,
93.250,,,,,,,,,,,,,,, 0.00,,,,,,,,,,,,,,,,,,,,,,,,,,,,,,,,,,,,,,,,,
93.500,,,,,,,,,,,,,,, 0.00,R 0.4,,,,,,,,,,,,,,,,,,,,,,,,,,,,,,,,Not Out (0),Not Out (0),,,,,,,
93.750,,,,,,,,,,,,,,, 0.00,,,,,,,,,,,,,,,,,,,,,,,,,,,,,,,,,,,,,,,,,
94.000,,,,,,,,,,,G - Gnd (7),0,0.0,, 0.00,R 0.4,768,,,E012 18.32,24.6,26.3,377,356,56870,,0.00,,,558,539,0.000,0.000,19.9,19.4,59.0,59.0,-2.8,-2.8,N/CLSD (1),N/CLSD (1),Gear down - ground (3),Gnd (1),1.5,10.0,Normal (0),Normal (0),Not Out (0),Not Out (0), 0.0, 0.0, 0.0, 0.0, 0.0, 0.0,
94.250,,,,,,,,,,,,,,, 0.00,,,,,,,,,,,,,,,,,,,,,,,,,,,,,,,,,,,,,,,,,
94.500,,,,,,,,,,,,,,, 0.00,R 0.4,,,,,,,,,,,,,,,,,,,,,,,,,,,,,,,,Not Out (0),Not Out (0),,,,,,,
94.750,,,,,,,,,,,,,,, 0.00,,,,,,,,,,,,,,,,,,,,,,,,,,,,,,,,,,,,,,,,,
95.000,,,,,,,,,53,45,G - Gnd (7),0,0.0,, 0.00,R 0.4,768,,,,24.6,26.3,372,354,,16.3,,,,559,539,0.000,0.000,19.9,19.5,59.0,59.0,-2.8,-2.8,,,Gear down - ground (3),Gnd (1),,,Normal (0),Normal (0),Not Out (0),Not Out (0), 0.0, 0.0, 0.0, 0.0, 0.0, 0.0,
95.250,,,,,,,,,,,,,,, 0.00,,,,,,,,,,,,,,,,,,,,,,,,,,,,,,,,,,,,,,,,,
95.500,,,,,,,,,,,,,,, 0.00,R 0.4,,,,,,,,,,,,,,,,,,,,,,,,,,,,,,,,Not Out (0),Not Out (0),,,,,,,
95.750,,,,,,,,,,,,,,, 0.00,,,,,,,,,,,,,,,,,,,,,,,,,,,,,,,,,,,,,,,,,
96.000,,A319 (5),,ESGG,FIN6LF  ,16,,6,,,G - Gnd (7),0,0.0,0.00, 0.00,R 0.4,768,,N57 27.03,,24.6,26.3,374,356,,,,0.0,0,559,539,0.000,0.000,19.9,19.6,59.0,59.0,-2.8,-2.8,N/CLSD (1),N/CLSD (1),Gear down - ground (3),Gnd (1),1.5,10.0,Normal (0),Normal (0),Not Out (0),Not Out (0), 0.0, 0.0, 0.0, 0.0, 0.0, 0.0,NOTCMD (0)
96.250,,,,,,,,,,,,,,, 0.00,,,,,,,,,,,,,,,,,,,,,,,,,,,,,,,,,,,,,,,,,
96.500,,,,,,,,,,,,,,, 0.00,R 0.4,,,,,,,,,,,,,,,,,,,,,,,,,,,,,,,,Not Out (0),Not Out (0),,,,,,,
96.750,,,,,,,,,,,,,,, 0.00,,,,,,,,,,,,,,,,,,,,,,,,,,,,,,,,,,,,,,,,,
97.000,.OH-LVH,,EFHK,,,,6,,,,G - Gnd (7),0,0.0,, 0.00,R 0.4,768,1004,,,24.6,26.3,375,354,,16.3,,,,559,539,0.000,0.000,19.9,19.8,59.0,59.0,-2.8,-2.8,,,Gear down - ground (3),Gnd (1),,,Normal (0),Normal (0),Not Out (0),Not Out (0), 0.0, 0.0, 0.0, 0.0, 0.0, 0.0,
97.250,,,,,,,,,,,,,,, 0.00,,,,,,,,,,,,,,,,,,,,,,,,,,,,,,,,,,,,,,,,,
97.500,,,,,,,,,,,,,,, 0.00,R 0.4,,,,,,,,,,,,,,,,,,,,,,,,,,,,,,,,Not Out (0),Not Out (0),,,,,,,
97.750,,,,,,,,,,,,,,, 0.00,,,,,,,,,,,,,,,,,,,,,,,,,,,,,,,,,,,,,,,,,
98.000,,,,,,,,,,,G - Gnd (7),0,0.0,, 0.00,R 0.4,768,,,E012 18.32,24.6,26.3,375,356,56870,,0.00,,,560,539,0.000,0.000,20.0,19.8,59.0,59.0,-2.8,-2.8,N/CLSD (1),N/CLSD (1),Gear down - ground (3),Gnd (1),1.5,10.0,Normal (0),Normal (0),Not Out (0),Not Out (0), 0.0, 0.0, 0.0, 0.0, 0.0, 0.0,
98.250,,,,,,,,,,,,,,, 0.00,,,,,,,,,,,,,,,,,,,,,,,,,,,,,,,,,,,,,,,,,
98.500,,,,,,,,,,,,,,, 0.00,R 0.4,,,,,,,,,,,,,,,,,,,,,,,,,,,,,,,,Not Out (0),Not Out (0),,,,,,,
98.750,,,,,,,,,,,,,,, 0.00,,,,,,,,,,,,,,,,,,,,,,,,,,,,,,,,,,,,,,,,,
99.000,,,,,,,,,53,49,G - Gnd (7),0,0.0,, 0.00,R 0.4,768,,,,24.6,26.3,377,356,,16.3,,,,561,539,0.000,0.000,20.0,19.8,59.0,59.0,-2.8,-2.8,,,Gear down - ground (3),Gnd (1),,,Normal (0),Normal (0),Not Out (0),Not Out (0), 0.0, 0.0, 0.0, 0.0, 0.0, 0.0,
99.250,,,,,,,,,,,,,,, 0.00,,,,,,,,,,,,,,,,,,,,,,,,,,,,,,,,,,,,,,,,,
99.500,,,,,,,,,,,,,,, 0.00,R 0.4,,,,,,,,,,,,,,,,,,,,,,,,,,,,,,,,Not Out (0),Not Out (0),,,,,,,
99.750,,,,,,,,,,,,,,, 0.00,,,,,,,,,,,,,,,,,,,,,,,,,,,,,,,,,,,,,,,,,
100.000,,A319 (5),,ESGG,FIN6LF  ,16,,6,,,G - Gnd (7),0,0.0,0.00, 0.00,R 0.4,768,,N57 27.03,,24.6,26.3,374,354,,,,0.0,0,561,539,0.000,0.000,20.0,19.8,59.0,59.0,-2.8,-2.8,N/CLSD (1),N/CLSD (1),Gear down - ground (3),Gnd (1),1.5,10.0,Normal (0),Normal (0),Not Out (0),Not Out (0), 0.0, 0.0, 0.0, 0.0, 0.0, 0.0,NOTCMD (0)
100.250,,,,,,,,,,,,,,, 0.00,,,,,,,,,,,,,,,,,,,,,,,,,,,,,,,,,,,,,,,,,
100.500,,,,,,,,,,,,,,, 0.00,R 0.4,,,,,,,,,,,,,,,,,,,,,,,,,,,,,,,,Not Out (0),Not Out (0),,,,,,,
100.750,,,,,,,,,,,,,,, 0.00,,,,,,,,,,,,,,,,,,,,,,,,,,,,,,,,,,,,,,,,,
101.000,.OH-LVH,,EFHK,,,,6,,,,G - Gnd (7),0,0.0,, 0.00,R 0.4,768,1004,,,24.6,26.3,379,356,,16.3,,,,562,539,0.000,0.000,20.0,19.8,59.0,59.0,-2.8,-2.8,,,Gear down - ground (3),Gnd (1),,,Normal (0),Normal (0),Not Out (0),Not Out (0), 0.0, 0.0, 0.0, 0.0, 0.0, 0.0,
101.250,,,,,,,,,,,,,,, 0.00,,,,,,,,,,,,,,,,,,,,,,,,,,,,,,,,,,,,,,,,,
101.500,,,,,,,,,,,,,,, 0.00,R 0.4,,,,,,,,,,,,,,,,,,,,,,,,,,,,,,,,Not Out (0),Not Out (0),,,,,,,
101.750,,,,,,,,,,,,,,, 0.00,,,,,,,,,,,,,,,,,,,,,,,,,,,,,,,,,,,,,,,,,
102.000,,,,,,,,,,,G - Gnd (7),0,0.0,, 0.00,R 0.4,768,,,E012 18.32,24.6,26.3,379,356,56852,,0.00,,,563,539,0.000,0.000,19.9,19.8,59.0,59.0,-2.8,-2.8,N/CLSD (1),N/CLSD (1),Gear down - ground (3),Gnd (1),1.5,10.0,Normal (0),Normal (0),Not Out (0),Not Out (0), 0.0, 0.0, 0.0, 0.0, 0.0, 0.0,
102.250,,,,,,,,,,,,,,, 0.00,,,,,,,,,,,,,,,,,,,,,,,,,,,,,,,,,,,,,,,,,
102.500,,,,,,,,,,,,,,, 0.00,R 0.4,,,,,,,,,,,,,,,,,,,,,,,,,,,,,,,,Not Out (0),Not Out (0),,,,,,,
102.750,,,,,,,,,,,,,,, 0.00,,,,,,,,,,,,,,,,,,,,,,,,,,,,,,,,,,,,,,,,,
103.000,,,,,,,,,53,53,G - Gnd (7),0,0.0,, 0.00,R 0.4,768,,,,24.6,26.3,379,356,,16.5,,,,564,539,0.000,0.000,19.9,19.8,59.0,59.0,-2.8,-2.8,,,Gear down - ground (3),Gnd (1),,,Normal (0),Normal (0),Not Out (0),Not Out (0), 0.0, 0.0, 0.0, 0.0, 0.0, 0.0,
103.250,,,,,,,,,,,,,,, 0.00,,,,,,,,,,,,,,,,,,,,,,,,,,,,,,,,,,,,,,,,,
103.500,,,,,,,,,,,,,,, 0.00,R 0.4,,,,,,,,,,,,,,,,,,,,,,,,,,,,,,,,Not Out (0),Not Out (0),,,,,,,
103.750,,,,,,,,,,,,,,, 0.00,,,,,,,,,,,,,,,,,,,,,,,,,,,,,,,,,,,,,,,,,
104.000,,A319 (5),,ESGG,FIN6LF  ,16,,6,,,G - Gnd (7),0,0.0,0.00, 0.00,R 0.4,768,,N57 27.03,,24.6,26.3,379,357,,,,0.0,0,564,539,0.000,0.000,19.9,19.8,59.0,59.0,-2.8,-2.8,N/CLSD (1),N/CLSD (1),Gear down - ground (3),Gnd (1),1.5,10.0,Normal (0),Normal (0),Not Out (0),Not Out (0), 0.0, 0.0, 0.0, 0.0, 0.0, 0.0,NOTCMD (0)
104.250,,,,,,,,,,,,,,, 0.00,,,,,,,,,,,,,,,,,,,,,,,,,,,,,,,,,,,,,,,,,
104.500,,,,,,,,,,,,,,, 0.00,R 0.4,,,,,,,,,,,,,,,,,,,,,,,,,,,,,,,,Not Out (0),Not Out (0),,,,,,,
104.750,,,,,,,,,,,,,,, 0.00,,,,,,,,,,,,,,,,,,,,,,,,,,,,,,,,,,,,,,,,,
105.000,.OH-LVH,,EFHK,,,,6,,,,G - Gnd (7),0,0.0,, 0.00,R 0.4,768,1004,,,24.6,26.3,381,359,,16.5,,,,566,540,0.000,0.000,20.0,19.6,59.0,59.0,-2.8,-2.8,,,Gear down - ground (3),Gnd (1),,,Normal (0),Normal (0),Not Out (0),Not Out (0), 0.0, 0.0, 0.0, 0.0, 0.0, 0.0,
105.250,,,,,,,,,,,,,,, 0.00,,,,,,,,,,,,,,,,,,,,,,,,,,,,,,,,,,,,,,,,,
105.500,,,,,,,,,,,,,,, 0.00,R 0.4,,,,,,,,,,,,,,,,,,,,,,,,,,,,,,,,Not Out (0),Not Out (0),,,,,,,
105.750,,,,,,,,,,,,,,, 0.00,,,,,,,,,,,,,,,,,,,,,,,,,,,,,,,,,,,,,,,,,
106.000,,,,,,,,,,,G - Gnd (7),0,0.0,, 0.00,R 0.4,768,,,E012 18.32,24.6,26.3,383,359,56852,,0.00,,,566,540,0.000,0.000,20.0,19.6,59.0,59.0,-2.8,-2.8,N/CLSD (1),N/CLSD (1),Gear down - ground (3),Gnd (1),1.5,10.0,Normal (0),Normal (0),Not Out (0),Not Out (0), 0.0, 0.0, 0.0, 0.0, 0.0, 0.0,
106.250,,,,,,,,,,,,,,, 0.00,,,,,,,,,,,,,,,,,,,,,,,,,,,,,,,,,,,,,,,,,
106.500,,,,,,,,,,,,,,, 0.00,R 0.4,,,,,,,,,,,,,,,,,,,,,,,,,,,,,,,,Not Out (0),Not Out (0),,,,,,,
106.750,,,,,,,,,,,,,,, 0.00,,,,,,,,,,,,,,,,,,,,,,,,,,,,,,,,,,,,,,,,,
107.000,,,,,,,,,53,57,G - Gnd (7),0,0.0,, 0.00,R 0.4,768,,,,24.6,26.3,377,354,,16.3,,,,567,540,0.000,0.000,19.9,19.5,59.0,59.0,-2.8,-2.8,,,Gear down - ground (3),Gnd (1),,,Normal (0),Normal (0),Not Out (0),Not Out (0), 0.0, 0.0, 0.0, 0.0, 0.0, 0.0,
107.250,,,,,,,,,,,,,,, 0.00,,,,,,,,,,,,,,,,,,,,,,,,,,,,,,,,,,,,,,,,,
107.500,,,,,,,,,,,,,,, 0.00,R 0.4,,,,,,,,,,,,,,,,,,,,,,,,,,,,,,,,Not Out (0),Not Out (0),,,,,,,
107.750,,,,,,,,,,,,,,, 0.00,,,,,,,,,,,,,,,,,,,,,,,,,,,,,,,,,,,,,,,,,
108.000,,A319 (5),,ESGG,FIN6LF  ,16,,6,,,G - Gnd (7),0,0.0,0.00, 0.00,R 0.4,768,,N57 27.03,,24.6,26.3,383,357,,,,0.0,0,568,541,0.000,0.000,19.9,19.5,59.0,59.0,-2.8,-2.8,N/CLSD (1),N/CLSD (1),Gear down - ground (3),Gnd (1),1.5,10.0,Normal (0),Normal (0),Not Out (0),Not Out (0), 0.0, 0.0, 0.0, 0.0, 0.0, 0.0,NOTCMD (0)
108.250,,,,,,,,,,,,,,, 0.00,,,,,,,,,,,,,,,,,,,,,,,,,,,,,,,,,,,,,,,,,
108.500,,,,,,,,,,,,,,, 0.00,R 0.4,,,,,,,,,,,,,,,,,,,,,,,,,,,,,,,,Not Out (0),Not Out (0),,,,,,,
108.750,,,,,,,,,,,,,,, 0.00,,,,,,,,,,,,,,,,,,,,,,,,,,,,,,,,,,,,,,,,,
109.000,.OH-LVH,,EFHK,,,,6,,,,G - Gnd (7),0,0.0,, 0.00,R 0.4,768,1004,,,24.6,26.3,383,357,,16.3,,,,569,541,0.000,0.000,19.9,19.5,59.0,59.0,-2.8,-2.8,,,Gear down - ground (3),Gnd (1),,,Normal (0),Normal (0),Not Out (0),Not Out (0), 0.0, 0.0, 0.0, 0.0, 0.0, 0.0,
109.250,,,,,,,,,,,,,,, 0.00,,,,,,,,,,,,,,,,,,,,,,,,,,,,,,,,,,,,,,,,,
109.500,,,,,,,,,,,,,,, 0.00,R 0.4,,,,,,,,,,,,,,,,,,,,,,,,,,,,,,,,Not Out (0),Not Out (0),,,,,,,
109.750,,,,,,,,,,,,,,, 0.00,,,,,,,,,,,,,,,,,,,,,,,,,,,,,,,,,,,,,,,,,
110.000,,,,,,,,,,,G - Gnd (7),0,0.0,, 0.00,R 0.4,768,,,E012 18.32,24.6,26.3,381,359,56852,,0.00,,,570,541,0.000,0.000,19.9,19.5,59.0,59.0,-2.8,-2.8,N/CLSD (1),N/CLSD (1),Gear down - ground (3),Gnd (1),1.5,10.0,Normal (0),Normal (0),Not Out (0),Not Out (0), 0.0, 0.0, 0.0, 0.0, 0.0, 0.0,
110.250,,,,,,,,,,,,,,, 0.00,,,,,,,,,,,,,,,,,,,,,,,,,,,,,,,,,,,,,,,,,
110.500,,,,,,,,,,,,,,, 0.00,R 0.4,,,,,,,,,,,,,,,,,,,,,,,,,,,,,,,,Not Out (0),Not Out (0),,,,,,,
110.750,,,,,,,,,,,,,,, 0.00,,,,,,,,,,,,,,,,,,,,,,,,,,,,,,,,,,,,,,,,,
111.000,,,,,,,,,54,1,G - Gnd (7),0,0.0,, 0.00,R 0.4,768,,,,24.6,26.3,385,359,,16.5,,,,571,542,0.000,0.000,19.8,19.5,59.0,59.0,-2.8,-2.8,,,Gear down - ground (3),Gnd (1),,,Normal (0),Normal (0),Not Out (0),Not Out (0), 0.0, 0.0, 0.0, 0.0, 0.0, 0.0,
111.250,,,,,,,,,,,,,,, 0.00,,,,,,,,,,,,,,,,,,,,,,,,,,,,,,,,,,,,,,,,,
111.500,,,,,,,,,,,,,,, 0.00,R 0.4,,,,,,,,,,,,,,,,,,,,,,,,,,,,,,,,Not Out (0),Not Out (0),,,,,,,
111.750,,,,,,,,,,,,,,, 0.00,,,,,,,,,,,,,,,,,,,,,,,,,,,,,,,,,,,,,,,,,
112.000,,A319 (5),,ESGG,FIN6LF  ,16,,6,,,G - Gnd (7),0,0.0,0.00, 0.00,R 0.4,768,,N57 27.03,,24.6,26.3,385,361,,,,0.0,0,572,542,0.000,0.000,19.8,19.5,59.0,59.0,-2.8,-2.8,N/CLSD (1),N/CLSD (1),Gear down - ground (3),Gnd (1),1.5,10.0,Normal (0),Normal (0),Not Out (0),Not Out (0), 0.0, 0.0, 0.0, 0.0, 0.0, 0.0,NOTCMD (0)
112.250,,,,,,,,,,,,,,, 0.00,,,,,,,,,,,,,,,,,,,,,,,,,,,,,,,,,,,,,,,,,
112.500,,,,,,,,,,,,,,, 0.00,R 0.4,,,,,,,,,,,,,,,,,,,,,,,,,,,,,,,,Not Out (0),Not Out (0),,,,,,,
112.750,,,,,,,,,,,,,,, 0.00,,,,,,,,,,,,,,,,,,,,,,,,,,,,,,,,,,,,,,,,,
113.000,.OH-LVH,,EFHK,,,,6,,,,G - Gnd (7),0,0.0,, 0.00,R 0.4,768,1004,,,24.6,26.3,383,359,,16.5,,,,573,543,0.000,0.000,19.8,19.5,59.0,59.0,0.0,0.0,,,Gear down - ground (3),Gnd (1),,,Normal (0),Normal (0),Not Out (0),Not Out (0), 0.0, 0.0, 0.0, 0.0, 0.0, 0.0,
113.250,,,,,,,,,,,,,,, 0.00,,,,,,,,,,,,,,,,,,,,,,,,,,,,,,,,,,,,,,,,,
113.500,,,,,,,,,,,,,,, 0.00,R 0.4,,,,,,,,,,,,,,,,,,,,,,,,,,,,,,,,Not Out (0),Not Out (0),,,,,,,
113.750,,,,,,,,,,,,,,, 0.00,,,,,,,,,,,,,,,,,,,,,,,,,,,,,,,,,,,,,,,,,
114.000,,,,,,,,,,,G - Gnd (7),0,0.0,, 0.00,R 0.4,768,,,E012 18.32,24.6,26.3,493,435,56852,,0.00,,,573,544,0.000,0.000,19.8,19.8,59.6,59.5,2.8,2.8,N/CLSD (1),N/CLSD (1),Gear down - ground (3),Gnd (1),1.5,10.0,Normal (0),Normal (0),Not Out (0),Not Out (0), 0.0, 0.0, 0.0, 0.0, 0.0, 0.0,
114.250,,,,,,,,,,,,,,, 0.00,,,,,,,,,,,,,,,,,,,,,,,,,,,,,,,,,,,,,,,,,
114.500,,,,,,,,,,,,,,, 0.00,R 0.4,,,,,,,,,,,,,,,,,,,,,,,,,,,,,,,,Not Out (0),Not Out (0),,,,,,,
114.750,,,,,,,,,,,,,,, 0.00,,,,,,,,,,,,,,,,,,,,,,,,,,,,,,,,,,,,,,,,,
