Time (secs),A/C Tail Number,A/C Type,City Pair - To,City Pair - From,Flight Number,Date - Day,Date - Month,UTC - Hour,UTC - Minute,UTC - Second,Air / Gnd,Ground Speed,Computed Airspeed,Mach (derived),Pitch Angle,Roll Angle,Altitude (1013.25mB),Selected Baro Setting Capt,Present Pos - Latitude,Present Pos - Longitude,Magnetic Heading,True Heading,Fuel Flow Eng 1,Fuel Flow Eng 2,Actual Gross Weight,Total Air Temp,Drift Angle,Wind Direction True,Wind Speed,EGT Eng 1,EGT Eng 2,_EPR Actual Eng 1,_EPR Actual Eng 2,N1 Actual Eng 1,N1 Actual Eng 2,N2 Actual Eng 1,N2 Actual Eng 2,Throttle Angle Eng 1,Throttle Angle Eng 2,Pack 1 Flow Ctl Valve,Pack 2 Flow Ctl Valve,Gear (left),Land Gear Squat Switch - Nose,Flap Handle (derived),Flap Angle,Reverser Deployed Eng 1,Reverser Deployed Eng 2,Left Spoiler 1 Out,Right Spoiler 1 Out,Spoiler Pos LH 2,Spoiler Pos LH 4,Spoiler Pos LH 5,Spoiler Pos RH 2,Spoiler Pos RH 3,Spoiler Pos RH 5,Speed Brake Command
0.000,,*A319 (5),,*EFHK,*FIN6EU  ,*16,,*13,,,*G - Gnd (7),*1,*0.0,*0.00,*U 0.70,*L 0.7,*264,,*N60 05.84,,*355.1,*1.9,*0,*0,,,,*0.0,*0,*139,*140,*1.871,*1.877,*0.0,*0.0,*0.0,*0.0,*-2.8,*-2.8,*F/CLSD (0),*N/CLSD (1),*Gear down - ground (3),*Gnd (1),*0.0,*0.0,*Normal (0),*Normal (0),*Not Out (0),*Not Out (0),* 0.0,* 0.0,* 0.0,* 0.0,* 0.0,* 0.0,*NOTCMD (0)
0.250,,,,,,,,,,,,,,,*U 0.70,,,,,,,,,,,,,,,,,,,,,,,,,,,,,,,,,,,,,,,,,
0.500,,,,,,,,,,,,,,,*U 0.70,*L 0.7,,,,,,,,,,,,,,,,,,,,,,,,,,,,,,,,*Not Out (0),*Not Out (0),,,,,,,
0.750,,,,,,,,,,,,,,,*U 0.70,,,,,,,,,,,,,,,,,,,,,,,,,,,,,,,,,,,,,,,,,
1.000,*.OH-LVB,,*ENGM,,,,*6,,,,*G - Gnd (7),*1,*0.0,,*U 0.70,*L 0.7,*264,*1009,,,*355.1,*2.0,*0,*0,,*20.5,,,,*139,*140,*1.871,*1.877,*0.0,*0.0,*0.0,*0.0,*-2.8,*-2.8,,,*Gear down - ground (3),*Gnd (1),,,*Normal (0),*Normal (0),*Not Out (0),*Not Out (0),* 0.0,* 0.0,* 0.0,* 0.0,* 0.0,* 0.0,
1.250,,,,,,,,,,,,,,,*U 0.70,,,,,,,,,,,,,,,,,,,,,,,,,,,,,,,,,,,,,,,,,
1.500,,,,,,,,,,,,,,,*U 0.70,*L 0.7,,,,,,,,,,,,,,,,,,,,,,,,,,,,,,,,*Not Out (0),*Not Out (0),,,,,,,
1.750,,,,,,,,,,,,,,,*U 0.70,,,,,,,,,,,,,,,,,,,,,,,,,,,,,,,,,,,,,,,,,
2.000,,,,,,,,,,,*G - Gnd (7),*2,*0.0,,*U 0.70,*L 0.7,*264,,,*E024 55.84,*355.1,*2.1,*0,*0,*0,,*0.00,,,*139,*140,*1.871,*1.877,*0.0,*0.0,*0.0,*0.0,*-2.8,*-2.8,*F/CLSD (0),*F/CLSD (0),*Gear down - ground (3),*Gnd (1),*0.0,*0.0,*Normal (0),*Normal (0),*Not Out (0),*Not Out (0),* 0.0,* 0.0,* 0.0,* 0.0,* 0.0,* 0.0,
2.250,,,,,,,,,,,,,,,*U 0.70,,,,,,,,,,,,,,,,,,,,,,,,,,,,,,,,,,,,,,,,,
2.500,,,,,,,,,,,,,,,*U 0.70,*L 0.7,,,,,,,,,,,,,,,,,,,,,,,,,,,,,,,,*Not Out (0),*Not Out (0),,,,,,,
2.750,,,,,,,,,,,,,,,*U 0.70,,,,,,,,,,,,,,,,,,,,,,,,,,,,,,,,,,,,,,,,,
3.000,,,,,,,,,*47,*48,*G - Gnd (7),*2,*0.0,,*U 0.70,*L 0.7,*264,,,,*355.1,*2.0,*0,*0,,*20.5,,,,*139,*141,*1.871,*1.869,*0.0,*0.0,*0.0,*1.3,*-2.8,*-2.8,,,*Gear down - ground (3),*Gnd (1),,,*Normal (0),*Normal (0),*Not Out (0),*Not Out (0),* 0.0,* 0.0,* 0.0,* 0.0,* 0.0,* 0.0,
3.250,,,,,,,,,,,,,,,*U 0.70,,,,,,,,,,,,,,,,,,,,,,,,,,,,,,,,,,,,,,,,,
3.500,,,,,,,,,,,,,,,*U 0.70,*L 0.4,,,,,,,,,,,,,,,,,,,,,,,,,,,,,,,,*Not Out (0),*Not Out (0),,,,,,,
3.750,,,,,,,,,,,,,,,*U 0.70,,,,,,,,,,,,,,,,,,,,,,,,,,,,,,,,,,,,,,,,,
4.000,,*A319 (5),,*EFHK,*FIN6EU  ,*16,,*13,,,*G - Gnd (7),*1,*0.0,*0.00,*U 0.70,*L 0.7,*264,,*N60 05.84,,*355.1,*1.9,*0,*0,,,,*0.0,*0,*139,*140,*1.871,*1.877,*0.0,*0.0,*0.0,*0.0,*-2.8,*-2.8,*F/CLSD (0),*N/CLSD (1),*Gear down - ground (3),*Gnd (1),*0.0,*0.0,*Normal (0),*Normal (0),*Not Out (0),*Not Out (0),* 0.0,* 0.0,* 0.0,* 0.0,* 0.0,* 0.0,*NOTCMD (0)
4.250,,,,,,,,,,,,,,,*U 0.70,,,,,,,,,,,,,,,,,,,,,,,,,,,,,,,,,,,,,,,,,
4.500,,,,,,,,,,,,,,,*U 0.70,*L 0.7,,,,,,,,,,,,,,,,,,,,,,,,,,,,,,,,*Not Out (0),*Not Out (0),,,,,,,
4.750,,,,,,,,,,,,,,,*U 0.70,,,,,,,,,,,,,,,,,,,,,,,,,,,,,,,,,,,,,,,,,
5.000,*.OH-LVB,,*ENGM,,,,*6,,,,*G - Gnd (7),*1,*0.0,,*U 0.70,*L 0.7,*264,*1009,,,*355.1,*2.0,*0,*0,,*20.5,,,,*139,*140,*1.871,*1.877,*0.0,*0.0,*0.0,*0.0,*-2.8,*-2.8,,,*Gear down - ground (3),*Gnd (1),,,*Normal (0),*Normal (0),*Not Out (0),*Not Out (0),* 0.0,* 0.0,* 0.0,* 0.0,* 0.0,* 0.0,
5.250,,,,,,,,,,,,,,,*U 0.70,,,,,,,,,,,,,,,,,,,,,,,,,,,,,,,,,,,,,,,,,
5.500,,,,,,,,,,,,,,,*U 0.70,*L 0.7,,,,,,,,,,,,,,,,,,,,,,,,,,,,,,,,*Not Out (0),*Not Out (0),,,,,,,
5.750,,,,,,,,,,,,,,,*U 0.70,,,,,,,,,,,,,,,,,,,,,,,,,,,,,,,,,,,,,,,,,
6.000,,,,,,,,,,,*G - Gnd (7),*2,*0.0,,*U 0.70,*L 0.7,*264,,,*E024 55.84,*355.1,*2.1,*0,*0,*0,,*0.00,,,*139,*140,*1.871,*1.877,*0.0,*0.0,*0.0,*0.0,*-2.8,*-2.8,*F/CLSD (0),*F/CLSD (0),*Gear down - ground (3),*Gnd (1),*0.0,*0.0,*Normal (0),*Normal (0),*Not Out (0),*Not Out (0),* 0.0,* 0.0,* 0.0,* 0.0,* 0.0,* 0.0,
6.250,,,,,,,,,,,,,,,*U 0.70,,,,,,,,,,,,,,,,,,,,,,,,,,,,,,,,,,,,,,,,,
6.500,,,,,,,,,,,,,,,*U 0.70,*L 0.7,,,,,,,,,,,,,,,,,,,,,,,,,,,,,,,,*Not Out (0),*Not Out (0),,,,,,,
6.750,,,,,,,,,,,,,,,*U 0.70,,,,,,,,,,,,,,,,,,,,,,,,,,,,,,,,,,,,,,,,,
7.000,,,,,,,,,*47,*48,*G - Gnd (7),*2,*0.0,,*U 0.70,*L 0.7,*264,,,,*355.1,*2.0,*0,*0,,*20.5,,,,*139,*141,*1.871,*1.869,*0.0,*0.0,*0.0,*1.3,*-2.8,*-2.8,,,*Gear down - ground (3),*Gnd (1),,,*Normal (0),*Normal (0),*Not Out (0),*Not Out (0),* 0.0,* 0.0,* 0.0,* 0.0,* 0.0,* 0.0,
7.250,,,,,,,,,,,,,,,*U 0.70,,,,,,,,,,,,,,,,,,,,,,,,,,,,,,,,,,,,,,,,,
7.500,,,,,,,,,,,,,,,*U 0.70,*L 0.4,,,,,,,,,,,,,,,,,,,,,,,,,,,,,,,,*Not Out (0),*Not Out (0),,,,,,,
7.750,,,,,,,,,,,,,,,*U 0.70,,,,,,,,,,,,,,,,,,,,,,,,,,,,,,,,,,,,,,,,,
8.000,,*A319 (5),,*EFHK,*FIN6EU  ,*16,,*13,,,*G - Gnd (7),*1,*0.0,*0.00,*U 0.70,*L 0.7,*264,,*N60 05.84,,*355.1,*1.9,*0,*0,,,,*0.0,*0,*139,*140,*1.871,*1.877,*0.0,*0.0,*0.0,*0.0,*-2.8,*-2.8,*F/CLSD (0),*N/CLSD (1),*Gear down - ground (3),*Gnd (1),*0.0,*0.0,*Normal (0),*Normal (0),*Not Out (0),*Not Out (0),* 0.0,* 0.0,* 0.0,* 0.0,* 0.0,* 0.0,*NOTCMD (0)
8.250,,,,,,,,,,,,,,,*U 0.70,,,,,,,,,,,,,,,,,,,,,,,,,,,,,,,,,,,,,,,,,
8.500,,,,,,,,,,,,,,,*U 0.70,*L 0.7,,,,,,,,,,,,,,,,,,,,,,,,,,,,,,,,*Not Out (0),*Not Out (0),,,,,,,
8.750,,,,,,,,,,,,,,,*U 0.70,,,,,,,,,,,,,,,,,,,,,,,,,,,,,,,,,,,,,,,,,
9.000,*.OH-LVB,,*ENGM,,,,*6,,,,*G - Gnd (7),*1,*0.0,,*U 0.70,*L 0.7,*264,*1009,,,*355.1,*2.0,*0,*0,,*20.5,,,,*139,*140,*1.871,*1.877,*0.0,*0.0,*0.0,*0.0,*-2.8,*-2.8,,,*Gear down - ground (3),*Gnd (1),,,*Normal (0),*Normal (0),*Not Out (0),*Not Out (0),* 0.0,* 0.0,* 0.0,* 0.0,* 0.0,* 0.0,
9.250,,,,,,,,,,,,,,,*U 0.70,,,,,,,,,,,,,,,,,,,,,,,,,,,,,,,,,,,,,,,,,
9.500,,,,,,,,,,,,,,,*U 0.70,*L 0.7,,,,,,,,,,,,,,,,,,,,,,,,,,,,,,,,*Not Out (0),*Not Out (0),,,,,,,
9.750,,,,,,,,,,,,,,,*U 0.70,,,,,,,,,,,,,,,,,,,,,,,,,,,,,,,,,,,,,,,,,
10.000,,,,,,,,,,,*G - Gnd (7),*2,*0.0,,*U 0.70,*L 0.7,*264,,,*E024 55.84,*355.1,*2.1,*0,*0,*0,,*0.00,,,*139,*140,*1.871,*1.877,*0.0,*0.0,*0.0,*0.0,*-2.8,*-2.8,*F/CLSD (0),*F/CLSD (0),*Gear down - ground (3),*Gnd (1),*0.0,*0.0,*Normal (0),*Normal (0),*Not Out (0),*Not Out (0),* 0.0,* 0.0,* 0.0,* 0.0,* 0.0,* 0.0,
10.250,,,,,,,,,,,,,,,*U 0.70,,,,,,,,,,,,,,,,,,,,,,,,,,,,,,,,,,,,,,,,,
10.500,,,,,,,,,,,,,,,*U 0.70,*L 0.7,,,,,,,,,,,,,,,,,,,,,,,,,,,,,,,,*Not Out (0),*Not Out (0),,,,,,,
10.750,,,,,,,,,,,,,,,*U 0.70,,,,,,,,,,,,,,,,,,,,,,,,,,,,,,,,,,,,,,,,,
11.000,,,,,,,,,*47,*48,*G - Gnd (7),*2,*0.0,,*U 0.70,*L 0.7,*264,,,,*355.1,*2.0,*0,*0,,*20.5,,,,*139,*141,*1.871,*1.869,*0.0,*0.0,*0.0,*1.3,*-2.8,*-2.8,,,*Gear down - ground (3),*Gnd (1),,,*Normal (0),*Normal (0),*Not Out (0),*Not Out (0),* 0.0,* 0.0,* 0.0,* 0.0,* 0.0,* 0.0,
11.250,,,,,,,,,,,,,,,*U 0.70,,,,,,,,,,,,,,,,,,,,,,,,,,,,,,,,,,,,,,,,,
11.500,,,,,,,,,,,,,,,*U 0.70,*L 0.4,,,,,,,,,,,,,,,,,,,,,,,,,,,,,,,,*Not Out (0),*Not Out (0),,,,,,,
11.750,,,,,,,,,,,,,,,*U 0.70,,,,,,,,,,,,,,,,,,,,,,,,,,,,,,,,,,,,,,,,,
12.000,,*A319 (5),,*EFHK,*FIN6EU  ,*16,,*13,,,*G - Gnd (7),*1,*0.0,*0.00,*U 0.70,*L 0.7,*264,,*N60 05.84,,*355.1,*1.9,*0,*0,,,,*0.0,*0,*139,*140,*1.871,*1.877,*0.0,*0.0,*0.0,*0.0,*-2.8,*-2.8,*F/CLSD (0),*N/CLSD (1),*Gear down - ground (3),*Gnd (1),*0.0,*0.0,*Normal (0),*Normal (0),*Not Out (0),*Not Out (0),* 0.0,* 0.0,* 0.0,* 0.0,* 0.0,* 0.0,*NOTCMD (0)
12.250,,,,,,,,,,,,,,,*U 0.70,,,,,,,,,,,,,,,,,,,,,,,,,,,,,,,,,,,,,,,,,
12.500,,,,,,,,,,,,,,,*U 0.70,*L 0.7,,,,,,,,,,,,,,,,,,,,,,,,,,,,,,,,*Not Out (0),*Not Out (0),,,,,,,
12.750,,,,,,,,,,,,,,,*U 0.70,,,,,,,,,,,,,,,,,,,,,,,,,,,,,,,,,,,,,,,,,
13.000,*.OH-LVB,,*ENGM,,,,*6,,,,*G - Gnd (7),*1,*0.0,,*U 0.70,*L 0.7,*264,*1009,,,*355.1,*2.0,*0,*0,,*20.5,,,,*139,*140,*1.871,*1.877,*0.0,*0.0,*0.0,*0.0,*-2.8,*-2.8,,,*Gear down - ground (3),*Gnd (1),,,*Normal (0),*Normal (0),*Not Out (0),*Not Out (0),* 0.0,* 0.0,* 0.0,* 0.0,* 0.0,* 0.0,
13.250,,,,,,,,,,,,,,,*U 0.70,,,,,,,,,,,,,,,,,,,,,,,,,,,,,,,,,,,,,,,,,
13.500,,,,,,,,,,,,,,,*U 0.70,*L 0.7,,,,,,,,,,,,,,,,,,,,,,,,,,,,,,,,*Not Out (0),*Not Out (0),,,,,,,
13.750,,,,,,,,,,,,,,,*U 0.70,,,,,,,,,,,,,,,,,,,,,,,,,,,,,,,,,,,,,,,,,
14.000,,,,,,,,,,,*G - Gnd (7),*2,*0.0,,*U 0.70,*L 0.7,*264,,,*E024 55.84,*355.1,*2.1,*0,*0,*0,,*0.00,,,*139,*140,*1.871,*1.877,*0.0,*0.0,*0.0,*0.0,*-2.8,*-2.8,*F/CLSD (0),*F/CLSD (0),*Gear down - ground (3),*Gnd (1),*0.0,*0.0,*Normal (0),*Normal (0),*Not Out (0),*Not Out (0),* 0.0,* 0.0,* 0.0,* 0.0,* 0.0,* 0.0,
14.250,,,,,,,,,,,,,,,*U 0.70,,,,,,,,,,,,,,,,,,,,,,,,,,,,,,,,,,,,,,,,,
14.500,,,,,,,,,,,,,,,*U 0.70,*L 0.7,,,,,,,,,,,,,,,,,,,,,,,,,,,,,,,,*Not Out (0),*Not Out (0),,,,,,,
14.750,,,,,,,,,,,,,,,*U 0.70,,,,,,,,,,,,,,,,,,,,,,,,,,,,,,,,,,,,,,,,,
15.000,,,,,,,,,*47,*48,*G - Gnd (7),*2,*0.0,,*U 0.70,*L 0.7,*264,,,,*355.1,*2.0,*0,*0,,*20.5,,,,*139,*141,*1.871,*1.869,*0.0,*0.0,*0.0,*1.3,*-2.8,*-2.8,,,*Gear down - ground (3),*Gnd (1),,,*Normal (0),*Normal (0),*Not Out (0),*Not Out (0),* 0.0,* 0.0,* 0.0,* 0.0,* 0.0,* 0.0,
15.250,,,,,,,,,,,,,,,*U 0.70,,,,,,,,,,,,,,,,,,,,,,,,,,,,,,,,,,,,,,,,,
15.500,,,,,,,,,,,,,,,*U 0.70,*L 0.4,,,,,,,,,,,,,,,,,,,,,,,,,,,,,,,,*Not Out (0),*Not Out (0),,,,,,,
15.750,,,,,,,,,,,,,,,*U 0.70,,,,,,,,,,,,,,,,,,,,,,,,,,,,,,,,,,,,,,,,,
16.000,,*A319 (5),,*EFHK,*FIN6EU  ,*16,,*13,,,*G - Gnd (7),*1,*0.0,*0.00,*U 0.70,*L 0.7,*264,,*N60 05.84,,*355.1,*1.9,*0,*0,,,,*0.0,*0,*139,*140,*1.871,*1.877,*0.0,*0.0,*0.0,*0.0,*-2.8,*-2.8,*F/CLSD (0),*N/CLSD (1),*Gear down - ground (3),*Gnd (1),*0.0,*0.0,*Normal (0),*Normal (0),*Not Out (0),*Not Out (0),* 0.0,* 0.0,* 0.0,* 0.0,* 0.0,* 0.0,*NOTCMD (0)
16.250,,,,,,,,,,,,,,,*U 0.70,,,,,,,,,,,,,,,,,,,,,,,,,,,,,,,,,,,,,,,,,
16.500,,,,,,,,,,,,,,,*U 0.70,*L 0.7,,,,,,,,,,,,,,,,,,,,,,,,,,,,,,,,*Not Out (0),*Not Out (0),,,,,,,
16.750,,,,,,,,,,,,,,,*U 0.70,,,,,,,,,,,,,,,,,,,,,,,,,,,,,,,,,,,,,,,,,
17.000,*.OH-LVB,,*ENGM,,,,*6,,,,*G - Gnd (7),*1,*0.0,,*U 0.70,*L 0.7,*264,*1009,,,*355.1,*2.0,*0,*0,,*20.5,,,,*139,*140,*1.871,*1.877,*0.0,*0.0,*0.0,*0.0,*-2.8,*-2.8,,,*Gear down - ground (3),*Gnd (1),,,*Normal (0),*Normal (0),*Not Out (0),*Not Out (0),* 0.0,* 0.0,* 0.0,* 0.0,* 0.0,* 0.0,
17.250,,,,,,,,,,,,,,,*U 0.70,,,,,,,,,,,,,,,,,,,,,,,,,,,,,,,,,,,,,,,,,
17.500,,,,,,,,,,,,,,,*U 0.70,*L 0.7,,,,,,,,,,,,,,,,,,,,,,,,,,,,,,,,*Not Out (0),*Not Out (0),,,,,,,
17.750,,,,,,,,,,,,,,,*U 0.70,,,,,,,,,,,,,,,,,,,,,,,,,,,,,,,,,,,,,,,,,
18.000,,,,,,,,,,,*G - Gnd (7),*2,*0.0,,*U 0.70,*L 0.7,*264,,,*E024 55.84,*355.1,*2.1,*0,*0,*0,,*0.00,,,*139,*140,*1.871,*1.877,*0.0,*0.0,*0.0,*0.0,*-2.8,*-2.8,*F/CLSD (0),*F/CLSD (0),*Gear down - ground (3),*Gnd (1),*0.0,*0.0,*Normal (0),*Normal (0),*Not Out (0),*Not Out (0),* 0.0,* 0.0,* 0.0,* 0.0,* 0.0,* 0.0,
18.250,,,,,,,,,,,,,,,*U 0.70,,,,,,,,,,,,,,,,,,,,,,,,,,,,,,,,,,,,,,,,,
18.500,,,,,,,,,,,,,,,*U 0.70,*L 0.7,,,,,,,,,,,,,,,,,,,,,,,,,,,,,,,,*Not Out (0),*Not Out (0),,,,,,,
18.750,,,,,,,,,,,,,,,*U 0.70,,,,,,,,,,,,,,,,,,,,,,,,,,,,,,,,,,,,,,,,,
19.000,,,,,,,,,*47,*48,*G - Gnd (7),*2,*0.0,,*U 0.70,*L 0.7,*264,,,,*355.1,*2.0,*0,*0,,*20.5,,,,*139,*141,*1.871,*1.869,*0.0,*0.0,*0.0,*1.3,*-2.8,*-2.8,,,*Gear down - ground (3),*Gnd (1),,,*Normal (0),*Normal (0),*Not Out (0),*Not Out (0),* 0.0,* 0.0,* 0.0,* 0.0,* 0.0,* 0.0,
19.250,,,,,,,,,,,,,,,*U 0.70,,,,,,,,,,,,,,,,,,,,,,,,,,,,,,,,,,,,,,,,,
19.500,,,,,,,,,,,,,,,*U 0.70,*L 0.4,,,,,,,,,,,,,,,,,,,,,,,,,,,,,,,,*Not Out (0),*Not Out (0),,,,,,,
19.750,,,,,,,,,,,,,,,*U 0.70,,,,,,,,,,,,,,,,,,,,,,,,,,,,,,,,,,,,,,,,,
20.000,,*A319 (5),,*EFHK,*FIN6EU  ,*16,,*13,,,*G - Gnd (7),*1,*0.0,*0.00,*U 0.70,*L 0.7,*264,,*N60 05.84,,*355.1,*1.9,*0,*0,,,,*0.0,*0,*139,*140,*1.871,*1.877,*0.0,*0.0,*0.0,*0.0,*-2.8,*-2.8,*F/CLSD (0),*N/CLSD (1),*Gear down - ground (3),*Gnd (1),*0.0,*0.0,*Normal (0),*Normal (0),*Not Out (0),*Not Out (0),* 0.0,* 0.0,* 0.0,* 0.0,* 0.0,* 0.0,*NOTCMD (0)
20.250,,,,,,,,,,,,,,,*U 0.70,,,,,,,,,,,,,,,,,,,,,,,,,,,,,,,,,,,,,,,,,
20.500,,,,,,,,,,,,,,,*U 0.70,*L 0.7,,,,,,,,,,,,,,,,,,,,,,,,,,,,,,,,*Not Out (0),*Not Out (0),,,,,,,
20.750,,,,,,,,,,,,,,,*U 0.70,,,,,,,,,,,,,,,,,,,,,,,,,,,,,,,,,,,,,,,,,
21.000,*.OH-LVB,,*ENGM,,,,*6,,,,*G - Gnd (7),*1,*0.0,,*U 0.70,*L 0.7,*264,*1009,,,*355.1,*2.0,*0,*0,,*20.5,,,,*139,*140,*1.871,*1.877,*0.0,*0.0,*0.0,*0.0,*-2.8,*-2.8,,,*Gear down - ground (3),*Gnd (1),,,*Normal (0),*Normal (0),*Not Out (0),*Not Out (0),* 0.0,* 0.0,* 0.0,* 0.0,* 0.0,* 0.0,
21.250,,,,,,,,,,,,,,,*U 0.70,,,,,,,,,,,,,,,,,,,,,,,,,,,,,,,,,,,,,,,,,
21.500,,,,,,,,,,,,,,,*U 0.70,*L 0.7,,,,,,,,,,,,,,,,,,,,,,,,,,,,,,,,*Not Out (0),*Not Out (0),,,,,,,
21.750,,,,,,,,,,,,,,,*U 0.70,,,,,,,,,,,,,,,,,,,,,,,,,,,,,,,,,,,,,,,,,
22.000,,,,,,,,,,,*G - Gnd (7),*2,*0.0,,*U 0.70,*L 0.7,*264,,,*E024 55.84,*355.1,*2.1,*0,*0,*0,,*0.00,,,*139,*140,*1.871,*1.877,*0.0,*0.0,*0.0,*0.0,*-2.8,*-2.8,*F/CLSD (0),*F/CLSD (0),*Gear down - ground (3),*Gnd (1),*0.0,*0.0,*Normal (0),*Normal (0),*Not Out (0),*Not Out (0),* 0.0,* 0.0,* 0.0,* 0.0,* 0.0,* 0.0,
22.250,,,,,,,,,,,,,,,*U 0.70,,,,,,,,,,,,,,,,,,,,,,,,,,,,,,,,,,,,,,,,,
22.500,,,,,,,,,,,,,,,*U 0.70,*L 0.7,,,,,,,,,,,,,,,,,,,,,,,,,,,,,,,,*Not Out (0),*Not Out (0),,,,,,,
22.750,,,,,,,,,,,,,,,*U 0.70,,,,,,,,,,,,,,,,,,,,,,,,,,,,,,,,,,,,,,,,,
23.000,,,,,,,,,*47,*48,*G - Gnd (7),*2,*0.0,,*U 0.70,*L 0.7,*264,,,,*355.1,*2.0,*0,*0,,*20.5,,,,*139,*141,*1.871,*1.869,*0.0,*0.0,*0.0,*1.3,*-2.8,*-2.8,,,*Gear down - ground (3),*Gnd (1),,,*Normal (0),*Normal (0),*Not Out (0),*Not Out (0),* 0.0,* 0.0,* 0.0,* 0.0,* 0.0,* 0.0,
23.250,,,,,,,,,,,,,,,*U 0.70,,,,,,,,,,,,,,,,,,,,,,,,,,,,,,,,,,,,,,,,,
23.500,,,,,,,,,,,,,,,*U 0.70,*L 0.4,,,,,,,,,,,,,,,,,,,,,,,,,,,,,,,,*Not Out (0),*Not Out (0),,,,,,,
23.750,,,,,,,,,,,,,,,*U 0.70,,,,,,,,,,,,,,,,,,,,,,,,,,,,,,,,,,,,,,,,,
24.000,,*A319 (5),,*EFHK,*FIN6EU  ,*16,,*13,,,*G - Gnd (7),*1,*0.0,*0.00,*U 0.70,*L 0.7,*264,,*N60 05.84,,*355.1,*1.9,*0,*0,,,,*0.0,*0,*139,*140,*1.871,*1.877,*0.0,*0.0,*0.0,*0.0,*-2.8,*-2.8,*F/CLSD (0),*N/CLSD (1),*Gear down - ground (3),*Gnd (1),*0.0,*0.0,*Normal (0),*Normal (0),*Not Out (0),*Not Out (0),* 0.0,* 0.0,* 0.0,* 0.0,* 0.0,* 0.0,*NOTCMD (0)
24.250,,,,,,,,,,,,,,,*U 0.70,,,,,,,,,,,,,,,,,,,,,,,,,,,,,,,,,,,,,,,,,
24.500,,,,,,,,,,,,,,,*U 0.70,*L 0.7,,,,,,,,,,,,,,,,,,,,,,,,,,,,,,,,*Not Out (0),*Not Out (0),,,,,,,
24.750,,,,,,,,,,,,,,,*U 0.70,,,,,,,,,,,,,,,,,,,,,,,,,,,,,,,,,,,,,,,,,
25.000,*.OH-LVB,,*ENGM,,,,*6,,,,*G - Gnd (7),*1,*0.0,,*U 0.70,*L 0.7,*264,*1009,,,*355.1,*2.0,*0,*0,,*20.5,,,,*139,*140,*1.871,*1.877,*0.0,*0.0,*0.0,*0.0,*-2.8,*-2.8,,,*Gear down - ground (3),*Gnd (1),,,*Normal (0),*Normal (0),*Not Out (0),*Not Out (0),* 0.0,* 0.0,* 0.0,* 0.0,* 0.0,* 0.0,
25.250,,,,,,,,,,,,,,,*U 0.70,,,,,,,,,,,,,,,,,,,,,,,,,,,,,,,,,,,,,,,,,
25.500,,,,,,,,,,,,,,,*U 0.70,*L 0.7,,,,,,,,,,,,,,,,,,,,,,,,,,,,,,,,*Not Out (0),*Not Out (0),,,,,,,
25.750,,,,,,,,,,,,,,,*U 0.70,,,,,,,,,,,,,,,,,,,,,,,,,,,,,,,,,,,,,,,,,
26.000,,,,,,,,,,,*G - Gnd (7),*2,*0.0,,*U 0.70,*L 0.7,*264,,,*E024 55.84,*355.1,*2.1,*0,*0,*0,,*0.00,,,*139,*140,*1.871,*1.877,*0.0,*0.0,*0.0,*0.0,*-2.8,*-2.8,*F/CLSD (0),*F/CLSD (0),*Gear down - ground (3),*Gnd (1),*0.0,*0.0,*Normal (0),*Normal (0),*Not Out (0),*Not Out (0),* 0.0,* 0.0,* 0.0,* 0.0,* 0.0,* 0.0,
26.250,,,,,,,,,,,,,,,*U 0.70,,,,,,,,,,,,,,,,,,,,,,,,,,,,,,,,,,,,,,,,,
26.500,,,,,,,,,,,,,,,*U 0.70,*L 0.7,,,,,,,,,,,,,,,,,,,,,,,,,,,,,,,,*Not Out (0),*Not Out (0),,,,,,,
26.750,,,,,,,,,,,,,,,*U 0.70,,,,,,,,,,,,,,,,,,,,,,,,,,,,,,,,,,,,,,,,,
27.000,,,,,,,,,*47,*48,*G - Gnd (7),*2,*0.0,,*U 0.70,*L 0.7,*264,,,,*355.1,*2.0,*0,*0,,*20.5,,,,*139,*141,*1.871,*1.869,*0.0,*0.0,*0.0,*1.3,*-2.8,*-2.8,,,*Gear down - ground (3),*Gnd (1),,,*Normal (0),*Normal (0),*Not Out (0),*Not Out (0),* 0.0,* 0.0,* 0.0,* 0.0,* 0.0,* 0.0,
27.250,,,,,,,,,,,,,,,*U 0.70,,,,,,,,,,,,,,,,,,,,,,,,,,,,,,,,,,,,,,,,,
27.500,,,,,,,,,,,,,,,*U 0.70,*L 0.4,,,,,,,,,,,,,,,,,,,,,,,,,,,,,,,,*Not Out (0),*Not Out (0),,,,,,,
27.750,,,,,,,,,,,,,,,*U 0.70,,,,,,,,,,,,,,,,,,,,,,,,,,,,,,,,,,,,,,,,,
28.000,,A319 (5),,EFHK,FIN6EU  ,16,,13,,,G - Gnd (7),1,0.0,0.00,U 0.70,L 0.7,264,,N60 05.84,,355.1,1.9,0,0,,,,0.0,0,139,140,1.871,1.877,0.0,0.0,0.0,0.0,-2.8,-2.8,F/CLSD (0),N/CLSD (1),Gear down - ground (3),Gnd (1),0.0,0.0,Normal (0),Normal (0),Not Out (0),Not Out (0), 0.0, 0.0, 0.0, 0.0, 0.0, 0.0,NOTCMD (0)
28.250,,,,,,,,,,,,,,,U 0.70,,,,,,,,,,,,,,,,,,,,,,,,,,,,,,,,,,,,,,,,,
28.500,,,,,,,,,,,,,,,U 0.70,L 0.7,,,,,,,,,,,,,,,,,,,,,,,,,,,,,,,,Not Out (0),Not Out (0),,,,,,,
28.750,,,,,,,,,,,,,,,U 0.70,,,,,,,,,,,,,,,,,,,,,,,,,,,,,,,,,,,,,,,,,
29.000,.OH-LVB,,ENGM,,,,6,,,,G - Gnd (7),1,0.0,,U 0.70,L 0.7,264,1009,,,355.1,2.0,0,0,,20.5,,,,139,140,1.871,1.877,0.0,0.0,0.0,0.0,-2.8,-2.8,,,Gear down - ground (3),Gnd (1),,,Normal (0),Normal (0),Not Out (0),Not Out (0), 0.0, 0.0, 0.0, 0.0, 0.0, 0.0,
29.250,,,,,,,,,,,,,,,U 0.70,,,,,,,,,,,,,,,,,,,,,,,,,,,,,,,,,,,,,,,,,
29.500,,,,,,,,,,,,,,,U 0.70,L 0.7,,,,,,,,,,,,,,,,,,,,,,,,,,,,,,,,Not Out (0),Not Out (0),,,,,,,
29.750,,,,,,,,,,,,,,,U 0.70,,,,,,,,,,,,,,,,,,,,,,,,,,,,,,,,,,,,,,,,,
30.000,,,,,,,,,,,G - Gnd (7),2,0.0,,U 0.70,L 0.7,264,,,E024 55.84,355.1,2.1,0,0,0,,0.00,,,139,140,1.871,1.877,0.0,0.0,0.0,0.0,-2.8,-2.8,F/CLSD (0),F/CLSD (0),Gear down - ground (3),Gnd (1),0.0,0.0,Normal (0),Normal (0),Not Out (0),Not Out (0), 0.0, 0.0, 0.0, 0.0, 0.0, 0.0,
30.250,,,,,,,,,,,,,,,U 0.70,,,,,,,,,,,,,,,,,,,,,,,,,,,,,,,,,,,,,,,,,
30.500,,,,,,,,,,,,,,,U 0.70,L 0.7,,,,,,,,,,,,,,,,,,,,,,,,,,,,,,,,Not Out (0),Not Out (0),,,,,,,
30.750,,,,,,,,,,,,,,,U 0.70,,,,,,,,,,,,,,,,,,,,,,,,,,,,,,,,,,,,,,,,,
31.000,,,,,,,,,47,48,G - Gnd (7),2,0.0,,U 0.70,L 0.7,264,,,,355.1,2.0,0,0,,20.5,,,,139,141,1.871,1.869,0.0,0.0,0.0,1.3,-2.8,-2.8,,,Gear down - ground (3),Gnd (1),,,Normal (0),Normal (0),Not Out (0),Not Out (0), 0.0, 0.0, 0.0, 0.0, 0.0, 0.0,
31.250,,,,,,,,,,,,,,,U 0.70,,,,,,,,,,,,,,,,,,,,,,,,,,,,,,,,,,,,,,,,,
31.500,,,,,,,,,,,,,,,U 0.70,L 0.4,,,,,,,,,,,,,,,,,,,,,,,,,,,,,,,,Not Out (0),Not Out (0),,,,,,,
31.750,,,,,,,,,,,,,,,U 0.70,,,,,,,,,,,,,,,,,,,,,,,,,,,,,,,,,,,,,,,,,
32.000,,A319 (5),,EFHK,FIN6EU  ,16,,13,,,G - Gnd (7),3,0.0,0.00,U 0.70,L 0.4,264,,N60 05.84,,354.7,1.8,0,0,,,,0.0,0,139,140,1.871,1.869,0.0,0.0,0.0,3.3,-2.8,-2.8,F/CLSD (0),F/CLSD (0),Gear down - ground (3),Gnd (1),0.0,0.0,Normal (0),Normal (0),Not Out (0),Not Out (0), 0.0, 0.0, 0.0, 0.0, 0.0, 0.0,NOTCMD (0)
32.250,,,,,,,,,,,,,,,U 0.70,,,,,,,,,,,,,,,,,,,,,,,,,,,,,,,,,,,,,,,,,
32.500,,,,,,,,,,,,,,,U 0.70,L 0.4,,,,,,,,,,,,,,,,,,,,,,,,,,,,,,,,Not Out (0),Not Out (0),,,,,,,
32.750,,,,,,,,,,,,,,,U 0.70,,,,,,,,,,,,,,,,,,,,,,,,,,,,,,,,,,,,,,,,,
33.000,.OH-LVB,,ENGM,,,,6,,,,G - Gnd (7),3,0.0,,U 0.70,L 0.4,264,1009,,,354.4,1.2,0,0,,20.5,,,,139,141,1.871,1.869,0.0,0.0,0.0,5.4,-2.8,-2.8,,,Gear down - ground (3),Gnd (1),,,Normal (0),Normal (0),Not Out (0),Not Out (0), 0.0, 0.0, 0.0, 0.0, 0.0, 0.0,
33.250,,,,,,,,,,,,,,,U 0.70,,,,,,,,,,,,,,,,,,,,,,,,,,,,,,,,,,,,,,,,,
33.500,,,,,,,,,,,,,,,U 0.70,L 0.4,,,,,,,,,,,,,,,,,,,,,,,,,,,,,,,,Not Out (0),Not Out (0),,,,,,,
33.750,,,,,,,,,,,,,,,U 0.70,,,,,,,,,,,,,,,,,,,,,,,,,,,,,,,,,,,,,,,,,
34.000,,,,,,,,,,,G - Gnd (7),3,0.0,,U 0.70,L 0.4,264,,,E024 55.84,353.7,0.5,0,0,0,,0.00,,,139,141,1.871,1.869,0.0,0.0,0.0,7.8,-2.8,-2.8,F/CLSD (0),F/CLSD (0),Gear down - ground (3),Gnd (1),0.0,0.0,Normal (0),Normal (0),Not Out (0),Not Out (0), 0.0, 0.0, 0.0, 0.0, 0.0, 0.0,
34.250,,,,,,,,,,,,,,,U 0.70,,,,,,,,,,,,,,,,,,,,,,,,,,,,,,,,,,,,,,,,,
34.500,,,,,,,,,,,,,,,U 0.70,L 0.4,,,,,,,,,,,,,,,,,,,,,,,,,,,,,,,,Not Out (0),Not Out (0),,,,,,,
34.750,,,,,,,,,,,,,,,U 0.70,,,,,,,,,,,,,,,,,,,,,,,,,,,,,,,,,,,,,,,,,
35.000,,,,,,,,,47,52,G - Gnd (7),3,0.0,,U 0.70,L 0.4,264,,,,353.0,359.8,0,0,,20.5,,,,139,142,1.871,1.867,0.0,0.0,0.0,9.9,-2.8,-2.8,,,Gear down - ground (3),Gnd (1),,,Normal (0),Normal (0),Not Out (0),Not Out (0), 0.0, 0.0, 0.0, 0.0, 0.0, 0.0,
35.250,,,,,,,,,,,,,,,U 0.70,,,,,,,,,,,,,,,,,,,,,,,,,,,,,,,,,,,,,,,,,
35.500,,,,,,,,,,,,,,,U 0.70,L 0.4,,,,,,,,,,,,,,,,,,,,,,,,,,,,,,,,Not Out (0),Not Out (0),,,,,,,
35.750,,,,,,,,,,,,,,,U 0.70,,,,,,,,,,,,,,,,,,,,,,,,,,,,,,,,,,,,,,,,,
36.000,,A319 (5),,EFHK,FIN6EU  ,16,,13,,,G - Gnd (7),3,0.0,0.00,U 0.70,L 0.4,264,,N60 05.84,,352.3,359.2,0,0,,,,0.0,0,139,141,1.871,1.867,0.0,0.0,0.0,11.8,-2.8,-2.8,F/CLSD (0),F/CLSD (0),Gear down - ground (3),Gnd (1),0.0,0.0,Normal (0),Normal (0),Not Out (0),Not Out (0), 0.0, 0.0, 0.0, 0.0, 0.0, 0.0,NOTCMD (0)
36.250,,,,,,,,,,,,,,,U 0.70,,,,,,,,,,,,,,,,,,,,,,,,,,,,,,,,,,,,,,,,,
36.500,,,,,,,,,,,,,,,U 0.70,L 0.4,,,,,,,,,,,,,,,,,,,,,,,,,,,,,,,,Not Out (0),Not Out (0),,,,,,,
36.750,,,,,,,,,,,,,,,U 0.70,,,,,,,,,,,,,,,,,,,,,,,,,,,,,,,,,,,,,,,,,
37.000,.OH-LVB,,ENGM,,,,6,,,,G - Gnd (7),3,0.0,,U 0.70,L 0.7,264,1009,,,351.9,358.8,0,0,,20.5,,,,139,142,1.871,1.867,0.0,0.0,0.0,13.8,-2.8,-2.8,,,Gear down - ground (3),Gnd (1),,,Normal (0),Normal (0),Not Out (0),Not Out (0), 0.0, 0.0, 0.0, 0.0, 0.0, 0.0,
37.250,,,,,,,,,,,,,,,U 0.70,,,,,,,,,,,,,,,,,,,,,,,,,,,,,,,,,,,,,,,,,
37.500,,,,,,,,,,,,,,,U 0.70,L 0.7,,,,,,,,,,,,,,,,,,,,,,,,,,,,,,,,Not Out (0),Not Out (0),,,,,,,
37.750,,,,,,,,,,,,,,,U 0.70,,,,,,,,,,,,,,,,,,,,,,,,,,,,,,,,,,,,,,,,,
38.000,,,,,,,,,,,G - Gnd (7),3,0.0,,U 0.70,L 0.7,264,,,E024 55.84,351.6,358.6,0,0,0,,0.00,,,139,142,1.871,1.867,0.0,0.0,0.0,15.6,-2.8,-2.8,F/CLSD (0),F/CLSD (0),Gear down - ground (3),Gnd (1),0.0,0.0,Normal (0),Normal (0),Not Out (0),Not Out (0), 0.0, 0.0, 0.0, 0.0, 0.0, 0.0,
38.250,,,,,,,,,,,,,,,U 0.70,,,,,,,,,,,,,,,,,,,,,,,,,,,,,,,,,,,,,,,,,
38.500,,,,,,,,,,,,,,,U 0.70,L 0.7,,,,,,,,,,,,,,,,,,,,,,,,,,,,,,,,Not Out (0),Not Out (0),,,,,,,
38.750,,,,,,,,,,,,,,,U 0.70,,,,,,,,,,,,,,,,,,,,,,,,,,,,,,,,,,,,,,,,,
39.000,,,,,,,,,47,56,G - Gnd (7),3,0.0,,U 0.35,L 0.7,264,,,,351.6,358.5,0,0,,20.5,,,,139,142,1.871,1.867,0.0,0.0,0.0,17.3,-2.8,-2.8,,,Gear down - ground (3),Gnd (1),,,Normal (0),Normal (0),Not Out (0),Not Out (0), 0.0, 0.0, 0.0, 0.0, 0.0, 0.0,
39.250,,,,,,,,,,,,,,,U 0.35,,,,,,,,,,,,,,,,,,,,,,,,,,,,,,,,,,,,,,,,,
39.500,,,,,,,,,,,,,,,U 0.35,L 0.7,,,,,,,,,,,,,,,,,,,,,,,,,,,,,,,,Not Out (0),Not Out (0),,,,,,,
39.750,,,,,,,,,,,,,,,U 0.35,,,,,,,,,,,,,,,,,,,,,,,,,,,,,,,,,,,,,,,,,
40.000,,A319 (5),,EFHK,FIN6EU  ,16,,13,,,G - Gnd (7),3,0.0,0.00,U 0.35,L 0.7,264,,N60 05.84,,351.2,358.3,0,0,,,,0.0,0,139,142,1.871,1.867,0.0,0.6,0.0,18.8,-2.8,-2.8,F/CLSD (0),F/CLSD (0),Gear down - ground (3),Gnd (1),0.0,0.0,Normal (0),Normal (0),Not Out (0),Not Out (0), 0.0, 0.0, 0.0, 0.0, 0.0, 0.0,NOTCMD (0)
40.250,,,,,,,,,,,,,,,U 0.35,,,,,,,,,,,,,,,,,,,,,,,,,,,,,,,,,,,,,,,,,
40.500,,,,,,,,,,,,,,,U 0.35,L 0.7,,,,,,,,,,,,,,,,,,,,,,,,,,,,,,,,Not Out (0),Not Out (0),,,,,,,
40.750,,,,,,,,,,,,,,,U 0.35,,,,,,,,,,,,,,,,,,,,,,,,,,,,,,,,,,,,,,,,,
41.000,.OH-LVB,,ENGM,,,,6,,,,G - Gnd (7),3,0.0,,U 0.35,L 0.7,264,1009,,,350.9,357.9,0,0,,20.5,,,,140,142,1.871,1.867,0.0,1.0,0.0,20.3,-2.8,-2.8,,,Gear down - ground (3),Gnd (1),,,Normal (0),Normal (0),Not Out (0),Not Out (0), 0.0, 0.0, 0.0, 0.0, 0.0, 0.0,
41.250,,,,,,,,,,,,,,,U 0.35,,,,,,,,,,,,,,,,,,,,,,,,,,,,,,,,,,,,,,,,,
41.500,,,,,,,,,,,,,,,U 0.35,L 0.7,,,,,,,,,,,,,,,,,,,,,,,,,,,,,,,,Not Out (0),Not Out (0),,,,,,,
41.750,,,,,,,,,,,,,,,U 0.35,,,,,,,,,,,,,,,,,,,,,,,,,,,,,,,,,,,,,,,,,
42.000,,,,,,,,,,,G - Gnd (7),3,0.0,,U 0.35,L 1.1,264,,,E024 55.84,350.5,357.6,0,0,0,,0.00,,,140,141,1.871,1.867,0.0,1.1,0.0,21.5,-2.8,-2.8,F/CLSD (0),F/CLSD (0),Gear down - ground (3),Gnd (1),0.0,0.0,Normal (0),Normal (0),Not Out (0),Not Out (0), 0.0, 0.0, 0.0, 0.0, 0.0, 0.0,
42.250,,,,,,,,,,,,,,,U 0.35,,,,,,,,,,,,,,,,,,,,,,,,,,,,,,,,,,,,,,,,,
42.500,,,,,,,,,,,,,,,U 0.35,L 0.7,,,,,,,,,,,,,,,,,,,,,,,,,,,,,,,,Not Out (0),Not Out (0),,,,,,,
42.750,,,,,,,,,,,,,,,U 0.35,,,,,,,,,,,,,,,,,,,,,,,,,,,,,,,,,,,,,,,,,
43.000,,,,,,,,,48,0,G - Gnd (7),3,0.0,,U 0.35,L 0.7,264,,,,350.5,357.5,0,0,,20.5,,,,139,141,1.871,0.010,0.0,1.4,0.0,22.6,-2.8,-2.8,,,Gear down - ground (3),Gnd (1),,,Normal (0),Normal (0),Not Out (0),Not Out (0), 0.0, 0.0, 0.0, 0.0, 0.0, 0.0,
43.250,,,,,,,,,,,,,,,U 0.35,,,,,,,,,,,,,,,,,,,,,,,,,,,,,,,,,,,,,,,,,
43.500,,,,,,,,,,,,,,,U 0.35,L 0.7,,,,,,,,,,,,,,,,,,,,,,,,,,,,,,,,Not Out (0),Not Out (0),,,,,,,
43.750,,,,,,,,,,,,,,,U 0.35,,,,,,,,,,,,,,,,,,,,,,,,,,,,,,,,,,,,,,,,,
44.000,,A319 (5),,EFHK,FIN6EU  ,16,,13,,,G - Gnd (7),3,0.0,0.00,U 0.35,L 0.7,264,,N60 05.84,,350.5,357.5,0,152,,,,0.0,0,139,141,1.871,0.021,0.0,1.8,0.0,24.0,-2.8,-2.8,F/CLSD (0),F/CLSD (0),Gear down - ground (3),Gnd (1),0.0,0.0,Normal (0),Normal (0),Not Out (0),Not Out (0), 0.0, 0.0, 0.0, 0.0, 0.0, 0.0,NOTCMD (0)
44.250,,,,,,,,,,,,,,,U 0.35,,,,,,,,,,,,,,,,,,,,,,,,,,,,,,,,,,,,,,,,,
44.500,,,,,,,,,,,,,,,U 0.35,L 0.7,,,,,,,,,,,,,,,,,,,,,,,,,,,,,,,,Not Out (0),Not Out (0),,,,,,,
44.750,,,,,,,,,,,,,,,U 0.35,,,,,,,,,,,,,,,,,,,,,,,,,,,,,,,,,,,,,,,,,
45.000,.OH-LVB,,ENGM,,,,6,,,,G - Gnd (7),3,0.0,,U 0.35,L 0.7,264,1009,,,350.9,357.7,0,169,,20.5,,,,139,151,1.871,0.035,0.0,2.3,0.0,25.5,-2.8,-2.8,,,Gear down - ground (3),Gnd (1),,,Normal (0),Normal (0),Not Out (0),Not Out (0), 0.0, 0.0, 0.0, 0.0, 0.0, 0.0,
45.250,,,,,,,,,,,,,,,U 0.35,,,,,,,,,,,,,,,,,,,,,,,,,,,,,,,,,,,,,,,,,
45.500,,,,,,,,,,,,,,,U 0.35,L 0.7,,,,,,,,,,,,,,,,,,,,,,,,,,,,,,,,Not Out (0),Not Out (0),,,,,,,
45.750,,,,,,,,,,,,,,,U 0.35,,,,,,,,,,,,,,,,,,,,,,,,,,,,,,,,,,,,,,,,,
46.000,,,,,,,,,,,G - Gnd (7),3,0.0,,U 0.35,L 0.7,264,,,E024 55.84,350.9,358.0,0,187,0,,0.00,,,139,166,1.871,0.051,0.0,2.9,0.0,27.1,-2.8,-2.8,F/CLSD (0),F/CLSD (0),Gear down - ground (3),Gnd (1),0.0,0.0,Normal (0),Normal (0),Not Out (0),Not Out (0), 0.0, 0.0, 0.0, 0.0, 0.0, 0.0,
46.250,,,,,,,,,,,,,,,U 0.35,,,,,,,,,,,,,,,,,,,,,,,,,,,,,,,,,,,,,,,,,
46.500,,,,,,,,,,,,,,,U 0.35,L 0.7,,,,,,,,,,,,,,,,,,,,,,,,,,,,,,,,Not Out (0),Not Out (0),,,,,,,
46.750,,,,,,,,,,,,,,,U 0.35,,,,,,,,,,,,,,,,,,,,,,,,,,,,,,,,,,,,,,,,,
47.000,,,,,,,,,48,4,G - Gnd (7),3,0.0,,U 0.35,L 0.7,264,,,,351.6,358.5,0,261,,20.5,,,,140,187,1.871,0.064,0.0,3.4,0.0,28.6,-2.8,-2.8,,,Gear down - ground (3),Gnd (1),,,Normal (0),Normal (0),Not Out (0),Not Out (0), 0.0, 0.0, 0.0, 0.0, 0.0, 0.0,
47.250,,,,,,,,,,,,,,,U 0.35,,,,,,,,,,,,,,,,,,,,,,,,,,,,,,,,,,,,,,,,,
47.500,,,,,,,,,,,,,,,U 0.35,L 0.7,,,,,,,,,,,,,,,,,,,,,,,,,,,,,,,,Not Out (0),Not Out (0),,,,,,,
47.750,,,,,,,,,,,,,,,U 0.35,,,,,,,,,,,,,,,,,,,,,,,,,,,,,,,,,,,,,,,,,
48.000,,A319 (5),,EFHK,FIN6EU  ,16,,13,,,G - Gnd (7),4,0.0,0.00,U 0.35,L 0.7,264,,N60 05.84,,352.3,359.1,0,256,,,,0.0,0,139,208,1.871,0.074,0.0,4.1,0.0,30.1,-2.8,-2.8,F/CLSD (0),F/CLSD (0),Gear down - ground (3),Gnd (1),0.0,0.0,Normal (0),Normal (0),Not Out (0),Not Out (0), 0.0, 0.0, 0.0, 0.0, 0.0, 0.0,NOTCMD (0)
48.250,,,,,,,,,,,,,,,U 0.35,,,,,,,,,,,,,,,,,,,,,,,,,,,,,,,,,,,,,,,,,
48.500,,,,,,,,,,,,,,,U 0.35,L 0.7,,,,,,,,,,,,,,,,,,,,,,,,,,,,,,,,Not Out (0),Not Out (0),,,,,,,
48.750,,,,,,,,,,,,,,,U 0.35,,,,,,,,,,,,,,,,,,,,,,,,,,,,,,,,,,,,,,,,,
49.000,.OH-LVB,,ENGM,,,,6,,,,G - Gnd (7),4,0.0,,U 0.35,L 0.7,264,1009,,,352.6,359.6,0,252,,20.5,,,,139,229,1.871,0.082,0.0,4.9,0.0,31.6,-2.8,-2.8,,,Gear down - ground (3),Gnd (1),,,Normal (0),Normal (0),Not Out (0),Not Out (0), 0.0, 0.0, 0.0, 0.0, 0.0, 0.0,
49.250,,,,,,,,,,,,,,,U 0.35,,,,,,,,,,,,,,,,,,,,,,,,,,,,,,,,,,,,,,,,,
49.500,,,,,,,,,,,,,,,U 0.35,L 0.7,,,,,,,,,,,,,,,,,,,,,,,,,,,,,,,,Not Out (0),Not Out (0),,,,,,,
49.750,,,,,,,,,,,,,,,U 0.35,,,,,,,,,,,,,,,,,,,,,,,,,,,,,,,,,,,,,,,,,
50.000,,,,,,,,,,,G - Gnd (7),4,0.0,,U 0.35,L 0.7,264,,,E024 55.84,353.0,359.9,0,249,0,,0.00,,,139,250,1.871,0.090,0.0,5.5,0.0,33.1,-2.8,-2.8,F/CLSD (0),F/CLSD (0),Gear down - ground (3),Gnd (1),0.0,0.0,Normal (0),Normal (0),Not Out (0),Not Out (0), 0.0, 0.0, 0.0, 0.0, 0.0, 0.0,
50.250,,,,,,,,,,,,,,,U 0.35,,,,,,,,,,,,,,,,,,,,,,,,,,,,,,,,,,,,,,,,,
50.500,,,,,,,,,,,,,,,U 0.35,L 0.7,,,,,,,,,,,,,,,,,,,,,,,,,,,,,,,,Not Out (0),Not Out (0),,,,,,,
50.750,,,,,,,,,,,,,,,U 0.35,,,,,,,,,,,,,,,,,,,,,,,,,,,,,,,,,,,,,,,,,
51.000,,,,,,,,,48,8,G - Gnd (7),4,0.0,,U 0.35,L 0.7,264,,,,353.0,0.1,0,252,,20.5,,,,140,273,1.871,0.096,0.0,6.3,0.0,34.6,-2.8,-2.8,,,Gear down - ground (3),Gnd (1),,,Normal (0),Normal (0),Not Out (0),Not Out (0), 0.0, 0.0, 0.0, 0.0, 0.0, 0.0,
51.250,,,,,,,,,,,,,,,U 0.35,,,,,,,,,,,,,,,,,,,,,,,,,,,,,,,,,,,,,,,,,
51.500,,,,,,,,,,,,,,,U 0.35,L 0.7,,,,,,,,,,,,,,,,,,,,,,,,,,,,,,,,Not Out (0),Not Out (0),,,,,,,
51.750,,,,,,,,,,,,,,,U 0.35,,,,,,,,,,,,,,,,,,,,,,,,,,,,,,,,,,,,,,,,,
52.000,,A319 (5),,EFHK,FIN6EU  ,16,,13,,,G - Gnd (7),4,0.0,0.00,U 0.35,L 0.7,264,,N60 05.82,,353.3,0.3,0,258,,,,0.0,0,139,294,1.871,0.104,0.0,7.0,0.0,36.0,-2.8,-2.8,F/CLSD (0),F/CLSD (0),Gear down - ground (3),Gnd (1),0.0,0.0,Normal (0),Normal (0),Not Out (0),Not Out (0), 0.0, 0.0, 0.0, 0.0, 0.0, 0.0,NOTCMD (0)
52.250,,,,,,,,,,,,,,,U 0.35,,,,,,,,,,,,,,,,,,,,,,,,,,,,,,,,,,,,,,,,,
52.500,,,,,,,,,,,,,,,U 0.35,L 0.7,,,,,,,,,,,,,,,,,,,,,,,,,,,,,,,,Not Out (0),Not Out (0),,,,,,,
52.750,,,,,,,,,,,,,,,U 0.35,,,,,,,,,,,,,,,,,,,,,,,,,,,,,,,,,,,,,,,,,
53.000,.OH-LVB,,ENGM,,,,6,,,,G - Gnd (7),4,0.0,,U 0.35,L 0.7,264,1009,,,353.7,0.5,0,263,,20.5,,,,139,313,1.871,0.107,0.0,7.8,0.0,37.4,-2.8,-2.8,,,Gear down - ground (3),Gnd (1),,,Normal (0),Normal (0),Not Out (0),Not Out (0), 0.0, 0.0, 0.0, 0.0, 0.0, 0.0,
53.250,,,,,,,,,,,,,,,U 0.35,,,,,,,,,,,,,,,,,,,,,,,,,,,,,,,,,,,,,,,,,
53.500,,,,,,,,,,,,,,,U 0.35,L 0.7,,,,,,,,,,,,,,,,,,,,,,,,,,,,,,,,Not Out (0),Not Out (0),,,,,,,
53.750,,,,,,,,,,,,,,,U 0.35,,,,,,,,,,,,,,,,,,,,,,,,,,,,,,,,,,,,,,,,,
54.000,,,,,,,,,,,G - Gnd (7),4,0.0,,U 0.35,L 0.7,264,,,E024 55.84,354.0,0.9,0,267,0,,0.00,,,139,335,1.871,0.113,0.0,8.4,0.0,38.8,-2.8,-2.8,F/CLSD (0),F/CLSD (0),Gear down - ground (3),Gnd (1),0.0,0.0,Normal (0),Normal (0),Not Out (0),Not Out (0), 0.0, 0.0, 0.0, 0.0, 0.0, 0.0,
54.250,,,,,,,,,,,,,,,U 0.35,,,,,,,,,,,,,,,,,,,,,,,,,,,,,,,,,,,,,,,,,
54.500,,,,,,,,,,,,,,,U 0.35,L 0.7,,,,,,,,,,,,,,,,,,,,,,,,,,,,,,,,Not Out (0),Not Out (0),,,,,,,
54.750,,,,,,,,,,,,,,,U 0.35,,,,,,,,,,,,,,,,,,,,,,,,,,,,,,,,,,,,,,,,,
55.000,,,,,,,,,48,12,G - Gnd (7),4,0.0,,U 0.35,L 0.7,264,,,,354.0,1.1,0,278,,20.5,,,,139,351,1.871,0.121,0.0,9.1,0.0,40.3,-2.8,-2.8,,,Gear down - ground (3),Gnd (1),,,Normal (0),Normal (0),Not Out (0),Not Out (0), 0.0, 0.0, 0.0, 0.0, 0.0, 0.0,
55.250,,,,,,,,,,,,,,,U 0.35,,,,,,,,,,,,,,,,,,,,,,,,,,,,,,,,,,,,,,,,,
55.500,,,,,,,,,,,,,,,U 0.35,L 0.7,,,,,,,,,,,,,,,,,,,,,,,,,,,,,,,,Not Out (0),Not Out (0),,,,,,,
55.750,,,,,,,,,,,,,,,U 0.35,,,,,,,,,,,,,,,,,,,,,,,,,,,,,,,,,,,,,,,,,
56.000,,A319 (5),,EFHK,FIN6EU  ,16,,13,,,G - Gnd (7),4,0.0,0.00,U 0.35,L 0.7,264,,N60 05.82,,354.4,1.4,0,283,,,,0.0,0,139,363,1.871,0.127,0.0,9.6,0.0,41.8,-2.8,-2.8,F/CLSD (0),F/CLSD (0),Gear down - ground (3),Gnd (1),0.0,0.0,Normal (0),Normal (0),Not Out (0),Not Out (0), 0.0, 0.0, 0.0, 0.0, 0.0, 0.0,NOTCMD (0)
56.250,,,,,,,,,,,,,,,U 0.35,,,,,,,,,,,,,,,,,,,,,,,,,,,,,,,,,,,,,,,,,
56.500,,,,,,,,,,,,,,,U 0.35,L 0.4,,,,,,,,,,,,,,,,,,,,,,,,,,,,,,,,Not Out (0),Not Out (0),,,,,,,
56.750,,,,,,,,,,,,,,,U 0.35,,,,,,,,,,,,,,,,,,,,,,,,,,,,,,,,,,,,,,,,,
57.000,.OH-LVB,,ENGM,,,,6,,,,G - Gnd (7),4,0.0,,U 0.35,L 0.7,264,1009,,,355.1,1.8,0,296,,20.5,,,,139,376,1.871,0.133,0.0,10.3,0.0,43.1,-2.8,-2.8,,,Gear down - ground (3),Gnd (1),,,Normal (0),Normal (0),Not Out (0),Not Out (0), 0.0, 0.0, 0.0, 0.0, 0.0, 0.0,
57.250,,,,,,,,,,,,,,,U 0.35,,,,,,,,,,,,,,,,,,,,,,,,,,,,,,,,,,,,,,,,,
57.500,,,,,,,,,,,,,,,U 0.35,L 0.7,,,,,,,,,,,,,,,,,,,,,,,,,,,,,,,,Not Out (0),Not Out (0),,,,,,,
57.750,,,,,,,,,,,,,,,U 0.35,,,,,,,,,,,,,,,,,,,,,,,,,,,,,,,,,,,,,,,,,
58.000,,,,,,,,,,,G - Gnd (7),4,0.0,,U 0.35,L 0.7,264,,,E024 55.84,355.4,2.5,0,307,0,,0.00,,,139,387,1.871,0.141,0.0,10.9,0.0,44.6,-2.8,-2.8,F/CLSD (0),F/CLSD (0),Gear down - ground (3),Gnd (1),0.0,0.0,Normal (0),Normal (0),Not Out (0),Not Out (0), 0.0, 0.0, 0.0, 0.0, 0.0, 0.0,
58.250,,,,,,,,,,,,,,,U 0.35,,,,,,,,,,,,,,,,,,,,,,,,,,,,,,,,,,,,,,,,,
58.500,,,,,,,,,,,,,,,U 0.35,L 0.7,,,,,,,,,,,,,,,,,,,,,,,,,,,,,,,,Not Out (0),Not Out (0),,,,,,,
58.750,,,,,,,,,,,,,,,U 0.35,,,,,,,,,,,,,,,,,,,,,,,,,,,,,,,,,,,,,,,,,
59.000,,,,,,,,,48,16,G - Gnd (7),4,0.0,,U 0.35,L 0.7,264,,,,356.1,3.2,0,317,,20.5,,,,139,398,1.871,0.148,0.0,11.5,0.0,46.1,-2.8,-2.8,,,Gear down - ground (3),Gnd (1),,,Normal (0),Normal (0),Not Out (0),Not Out (0), 0.0, 0.0, 0.0, 0.0, 0.0, 0.0,
59.250,,,,,,,,,,,,,,,U 0.35,,,,,,,,,,,,,,,,,,,,,,,,,,,,,,,,,,,,,,,,,
59.500,,,,,,,,,,,,,,,U 0.35,L 0.7,,,,,,,,,,,,,,,,,,,,,,,,,,,,,,,,Not Out (0),Not Out (0),,,,,,,
59.750,,,,,,,,,,,,,,,U 0.35,,,,,,,,,,,,,,,,,,,,,,,,,,,,,,,,,,,,,,,,,
60.000,,A319 (5),,EFHK,FIN6EU  ,16,,13,,,G - Gnd (7),4,0.0,0.00,U 0.35,L 0.7,264,,N60 05.82,,357.2,4.1,0,328,,,,0.0,0,139,410,1.871,0.158,0.0,12.3,0.0,47.5,-2.8,-2.8,F/CLSD (0),F/CLSD (0),Gear down - ground (3),Gnd (1),0.0,0.0,Normal (0),Normal (0),Not Out (0),Not Out (0), 0.0, 0.0, 0.0, 0.0, 0.0, 0.0,NOTCMD (0)
60.250,,,,,,,,,,,,,,,U 0.35,,,,,,,,,,,,,,,,,,,,,,,,,,,,,,,,,,,,,,,,,
60.500,,,,,,,,,,,,,,,U 0.35,L 0.7,,,,,,,,,,,,,,,,,,,,,,,,,,,,,,,,Not Out (0),Not Out (0),,,,,,,
60.750,,,,,,,,,,,,,,,U 0.35,,,,,,,,,,,,,,,,,,,,,,,,,,,,,,,,,,,,,,,,,
61.000,.OH-LVB,,ENGM,,,,6,,,,G - Gnd (7),4,0.0,,U 0.35,L 0.7,264,1009,,,358.2,5.4,0,341,,20.5,,,,139,420,1.871,0.162,0.0,13.0,0.0,49.0,-2.8,-2.8,,,Gear down - ground (3),Gnd (1),,,Normal (0),Normal (0),Not Out (0),Not Out (0), 0.0, 0.0, 0.0, 0.0, 0.0, 0.0,
61.250,,,,,,,,,,,,,,,U 0.35,,,,,,,,,,,,,,,,,,,,,,,,,,,,,,,,,,,,,,,,,
61.500,,,,,,,,,,,,,,,U 0.35,L 0.7,,,,,,,,,,,,,,,,,,,,,,,,,,,,,,,,Not Out (0),Not Out (0),,,,,,,
61.750,,,,,,,,,,,,,,,U 0.35,,,,,,,,,,,,,,,,,,,,,,,,,,,,,,,,,,,,,,,,,
62.000,,,,,,,,,,,G - Gnd (7),4,0.0,,U 0.35,L 0.7,264,,,E024 55.84,0.0,6.9,0,350,0,,0.00,,,139,429,1.871,0.168,0.0,13.6,0.0,50.5,-2.8,-2.8,F/CLSD (0),F/CLSD (0),Gear down - ground (3),Gnd (1),0.0,0.0,Normal (0),Normal (0),Not Out (0),Not Out (0), 0.0, 0.0, 0.0, 0.0, 0.0, 0.0,
62.250,,,,,,,,,,,,,,,U 0.35,,,,,,,,,,,,,,,,,,,,,,,,,,,,,,,,,,,,,,,,,
62.500,,,,,,,,,,,,,,,U 0.35,L 0.7,,,,,,,,,,,,,,,,,,,,,,,,,,,,,,,,Not Out (0),Not Out (0),,,,,,,
62.750,,,,,,,,,,,,,,,U 0.35,,,,,,,,,,,,,,,,,,,,,,,,,,,,,,,,,,,,,,,,,
63.000,,,,,,,,,48,20,G - Gnd (7),4,0.0,,U 0.35,L 0.7,264,,,,1.8,8.6,0,357,,20.5,,,,139,437,1.895,0.172,0.0,14.4,0.0,51.4,-2.8,-2.8,,,Gear down - ground (3),Gnd (1),,,Normal (0),Normal (0),Not Out (0),Not Out (0), 0.0, 0.0, 0.0, 0.0,U 0.1, 0.0,
63.250,,,,,,,,,,,,,,,U 0.35,,,,,,,,,,,,,,,,,,,,,,,,,,,,,,,,,,,,,,,,,
63.500,,,,,,,,,,,,,,,U 0.35,L 0.7,,,,,,,,,,,,,,,,,,,,,,,,,,,,,,,,Not Out (0),Not Out (0),,,,,,,
63.750,,,,,,,,,,,,,,,U 0.35,,,,,,,,,,,,,,,,,,,,,,,,,,,,,,,,,,,,,,,,,
64.000,,A319 (5),,EFHK,FIN6EU  ,16,,13,,,G - Gnd (7),4,0.0,0.00,U 0.35,L 0.7,264,,N60 05.82,,3.5,10.5,0,363,,,,0.0,0,139,444,1.895,0.182,0.0,15.0,0.1,52.0,-2.8,-2.8,F/CLSD (0),F/CLSD (0),Gear down - ground (3),Gnd (1),0.0,0.0,Normal (0),Normal (0),Not Out (0),Not Out (0), 0.0, 0.0, 0.0, 0.0,U 0.2, 0.0,NOTCMD (0)
64.250,,,,,,,,,,,,,,,U 0.35,,,,,,,,,,,,,,,,,,,,,,,,,,,,,,,,,,,,,,,,,
64.500,,,,,,,,,,,,,,,U 0.35,L 0.7,,,,,,,,,,,,,,,,,,,,,,,,,,,,,,,,Not Out (0),Not Out (0),,,,,,,
64.750,,,,,,,,,,,,,,,U 0.35,,,,,,,,,,,,,,,,,,,,,,,,,,,,,,,,,,,,,,,,,
65.000,.OH-LVB,,ENGM,,,,6,,,,G - Gnd (7),4,0.0,,U 0.35,L 0.7,264,1009,,,5.3,12.4,0,379,,20.5,,,,139,452,1.893,0.188,0.0,15.5,1.6,52.9,-2.8,-2.8,,,Gear down - ground (3),Gnd (1),,,Normal (0),Normal (0),Not Out (0),Not Out (0), 0.0, 0.0, 0.0, 0.0,U 0.2, 0.0,
65.250,,,,,,,,,,,,,,,U 0.35,,,,,,,,,,,,,,,,,,,,,,,,,,,,,,,,,,,,,,,,,
65.500,,,,,,,,,,,,,,,U 0.70,L 0.7,,,,,,,,,,,,,,,,,,,,,,,,,,,,,,,,Not Out (0),Not Out (0),,,,,,,
65.750,,,,,,,,,,,,,,,U 0.70,,,,,,,,,,,,,,,,,,,,,,,,,,,,,,,,,,,,,,,,,
66.000,,,,,,,,,,,G - Gnd (7),4,0.0,,U 0.70,L 0.7,264,,,E024 55.84,7.0,14.2,0,386,0,,0.00,,,139,459,1.875,0.189,0.0,16.0,3.6,53.8,-2.8,-2.8,F/CLSD (0),F/CLSD (0),Gear down - ground (3),Gnd (1),0.0,0.0,Normal (0),Normal (0),Not Out (0),Not Out (0), 0.0, 0.0, 0.0, 0.0,U 0.1, 0.0,
66.250,,,,,,,,,,,,,,,U 0.70,,,,,,,,,,,,,,,,,,,,,,,,,,,,,,,,,,,,,,,,,
66.500,,,,,,,,,,,,,,,U 0.70,L 0.7,,,,,,,,,,,,,,,,,,,,,,,,,,,,,,,,Not Out (0),Not Out (0),,,,,,,
66.750,,,,,,,,,,,,,,,U 0.70,,,,,,,,,,,,,,,,,,,,,,,,,,,,,,,,,,,,,,,,,
67.000,,,,,,,,,48,24,G - Gnd (7),4,0.0,,U 0.70,L 0.4,264,,,,8.4,15.6,0,392,,20.5,,,,139,466,1.873,0.193,0.0,16.4,5.8,54.6,-2.8,-2.8,,,Gear down - ground (3),Gnd (1),,,Normal (0),Normal (0),Not Out (0),Not Out (0), 0.0, 0.0, 0.0, 0.0,U 0.2, 0.0,
67.250,,,,,,,,,,,,,,,U 0.70,,,,,,,,,,,,,,,,,,,,,,,,,,,,,,,,,,,,,,,,,
67.500,,,,,,,,,,,,,,,U 0.70,L 0.4,,,,,,,,,,,,,,,,,,,,,,,,,,,,,,,,Not Out (0),Not Out (0),,,,,,,
67.750,,,,,,,,,,,,,,,U 0.70,,,,,,,,,,,,,,,,,,,,,,,,,,,,,,,,,,,,,,,,,
68.000,,A319 (5),,EFHK,FIN6EU  ,16,,13,,,G - Gnd (7),4,0.0,0.00,U 0.70,L 0.7,264,,N60 05.80,,9.8,16.8,0,399,,,,0.0,0,140,472,1.871,0.197,0.0,16.9,8.0,55.6,-2.8,-2.8,F/CLSD (0),F/CLSD (0),Gear down - ground (3),Gnd (1),0.0,0.0,Normal (0),Normal (0),Not Out (0),Not Out (0), 0.0, 0.0, 0.0,U 0.2,U 0.1, 0.0,NOTCMD (0)
68.250,,,,,,,,,,,,,,,U 0.70,,,,,,,,,,,,,,,,,,,,,,,,,,,,,,,,,,,,,,,,,
68.500,,,,,,,,,,,,,,,U 0.70,L 0.7,,,,,,,,,,,,,,,,,,,,,,,,,,,,,,,,Not Out (0),Not Out (0),,,,,,,
68.750,,,,,,,,,,,,,,,U 0.70,,,,,,,,,,,,,,,,,,,,,,,,,,,,,,,,,,,,,,,,,
69.000,.OH-LVB,,ENGM,,,,6,,,,G - Gnd (7),4,0.0,,U 0.70,L 0.4,264,1009,,,10.5,17.7,0,408,,20.5,,,,140,477,1.871,0.207,0.0,17.4,10.3,56.5,-2.8,-2.8,,,Gear down - ground (3),Gnd (1),,,Normal (0),Normal (0),Not Out (0),Not Out (0), 0.0, 0.0, 0.0,U 0.2,U 0.1, 0.0,
69.250,,,,,,,,,,,,,,,U 0.70,,,,,,,,,,,,,,,,,,,,,,,,,,,,,,,,,,,,,,,,,
69.500,,,,,,,,,,,,,,,U 0.70,L 0.7,,,,,,,,,,,,,,,,,,,,,,,,,,,,,,,,Not Out (0),Not Out (0),,,,,,,
69.750,,,,,,,,,,,,,,,U 0.70,,,,,,,,,,,,,,,,,,,,,,,,,,,,,,,,,,,,,,,,,
70.000,,,,,,,,,,,G - Gnd (7),4,0.0,,U 0.70,L 0.7,264,,,E024 55.84,11.6,18.5,0,426,0,,0.00,,,140,482,1.871,0.213,0.0,17.9,12.4,57.5,-2.8,-2.8,F/CLSD (0),F/CLSD (0),Gear down - ground (3),Gnd (1),0.0,0.0,Normal (0),Normal (0),Not Out (0),Not Out (0), 0.0, 0.0, 0.0,U 0.2, 0.0, 0.0,
70.250,,,,,,,,,,,,,,,U 0.70,,,,,,,,,,,,,,,,,,,,,,,,,,,,,,,,,,,,,,,,,
70.500,,,,,,,,,,,,,,,U 0.70,L 0.4,,,,,,,,,,,,,,,,,,,,,,,,,,,,,,,,Not Out (0),Not Out (0),,,,,,,
70.750,,,,,,,,,,,,,,,U 0.70,,,,,,,,,,,,,,,,,,,,,,,,,,,,,,,,,,,,,,,,,
71.000,,,,,,,,,48,28,G - Gnd (7),4,0.0,,U 0.70,L 0.4,264,,,,12.3,19.3,0,434,,20.5,,,,140,488,1.871,0.219,0.0,18.5,14.1,58.6,-2.8,-2.8,,,Gear down - ground (3),Gnd (1),,,Normal (0),Normal (0),Not Out (0),Not Out (0), 0.0, 0.0, 0.0,U 0.2, 0.0, 0.0,
71.250,,,,,,,,,,,,,,,U 0.70,,,,,,,,,,,,,,,,,,,,,,,,,,,,,,,,,,,,,,,,,
71.500,,,,,,,,,,,,,,,U 0.70,L 0.7,,,,,,,,,,,,,,,,,,,,,,,,,,,,,,,,Not Out (0),Not Out (0),,,,,,,
71.750,,,,,,,,,,,,,,,U 0.70,,,,,,,,,,,,,,,,,,,,,,,,,,,,,,,,,,,,,,,,,
72.000,,A319 (5),,EFHK,FIN6EU  ,16,,13,,,G - Gnd (7),3,0.0,0.00,U 0.70,L 0.4,264,,N60 05.80,,13.0,20.1,0,444,,,,0.0,0,141,492,1.873,0.225,0.0,19.3,16.0,59.8,-2.8,-2.8,F/CLSD (0),F/CLSD (0),Gear down - ground (3),Gnd (1),0.0,0.0,Normal (0),Normal (0),Not Out (0),Not Out (0), 0.0, 0.0, 0.0,U 0.2,U 0.1, 0.0,NOTCMD (0)
72.250,,,,,,,,,,,,,,,U 0.70,,,,,,,,,,,,,,,,,,,,,,,,,,,,,,,,,,,,,,,,,
72.500,,,,,,,,,,,,,,,U 0.70,L 0.7,,,,,,,,,,,,,,,,,,,,,,,,,,,,,,,,Not Out (0),Not Out (0),,,,,,,
72.750,,,,,,,,,,,,,,,U 0.70,,,,,,,,,,,,,,,,,,,,,,,,,,,,,,,,,,,,,,,,,
73.000,.OH-LVB,,ENGM,,,,6,,,,G - Gnd (7),3,0.0,,U 0.70,L 0.7,264,1009,,,14.1,21.0,0,403,,20.5,,,,141,496,1.873,0.176,0.0,19.5,17.8,60.4,-2.8,-2.8,,,Gear down - ground (3),Gnd (1),,,Normal (0),Normal (0),Not Out (0),Not Out (0), 0.0, 0.0, 0.0, 0.0,U 0.2, 0.0,
73.250,,,,,,,,,,,,,,,U 0.70,,,,,,,,,,,,,,,,,,,,,,,,,,,,,,,,,,,,,,,,,
73.500,,,,,,,,,,,,,,,U 0.70,L 0.7,,,,,,,,,,,,,,,,,,,,,,,,,,,,,,,,Not Out (0),Not Out (0),,,,,,,
73.750,,,,,,,,,,,,,,,U 0.70,,,,,,,,,,,,,,,,,,,,,,,,,,,,,,,,,,,,,,,,,
74.000,,,,,,,,,,,G - Gnd (7),3,0.0,,U 0.70,L 0.7,264,,,E024 55.84,15.1,22.1,0,348,0,,0.00,,,141,494,1.873,0.148,0.0,19.5,19.1,60.5,-2.8,-2.8,F/CLSD (0),F/CLSD (0),Gear down - ground (3),Gnd (1),0.0,0.0,Normal (0),Normal (0),Not Out (0),Not Out (0), 0.0, 0.0, 0.0, 0.0,U 0.2, 0.0,
74.250,,,,,,,,,,,,,,,U 0.70,,,,,,,,,,,,,,,,,,,,,,,,,,,,,,,,,,,,,,,,,
74.500,,,,,,,,,,,,,,,U 0.70,L 0.7,,,,,,,,,,,,,,,,,,,,,,,,,,,,,,,,Not Out (0),Not Out (0),,,,,,,
74.750,,,,,,,,,,,,,,,U 0.70,,,,,,,,,,,,,,,,,,,,,,,,,,,,,,,,,,,,,,,,,
75.000,,,,,,,,,48,32,G - Gnd (7),3,0.0,,U 0.70,L 0.4,264,,,,16.5,23.4,0,314,,20.5,,,,140,489,1.873,0.139,0.4,19.4,20.6,60.3,-2.8,-2.8,,,Gear down - ground (3),Gnd (1),,,Normal (0),Normal (0),Not Out (0),Not Out (0), 0.0, 0.0, 0.0, 0.0,U 0.2, 0.0,
75.250,,,,,,,,,,,,,,,U 0.70,,,,,,,,,,,,,,,,,,,,,,,,,,,,,,,,,,,,,,,,,
75.500,,,,,,,,,,,,,,,U 0.70,L 0.4,,,,,,,,,,,,,,,,,,,,,,,,,,,,,,,,Not Out (0),Not Out (0),,,,,,,
75.750,,,,,,,,,,,,,,,U 0.70,,,,,,,,,,,,,,,,,,,,,,,,,,,,,,,,,,,,,,,,,
76.000,,A319 (5),,EFHK,FIN6EU  ,16,,13,,,G - Gnd (7),3,0.0,0.00,U 0.70,L 0.4,264,,N60 05.80,,17.9,24.8,0,303,,,,0.0,0,141,484,1.871,0.148,1.0,19.4,21.9,60.0,-2.8,-2.8,F/CLSD (0),F/CLSD (0),Gear down - ground (3),Gnd (1),0.0,0.0,Normal (0),Normal (0),Not Out (0),Not Out (0), 0.0, 0.0, 0.0, 0.0,U 0.2, 0.0,NOTCMD (0)
76.250,,,,,,,,,,,,,,,U 0.70,,,,,,,,,,,,,,,,,,,,,,,,,,,,,,,,,,,,,,,,,
76.500,,,,,,,,,,,,,,,U 0.70,L 0.4,,,,,,,,,,,,,,,,,,,,,,,,,,,,,,,,Not Out (0),Not Out (0),,,,,,,
76.750,,,,,,,,,,,,,,,U 0.70,,,,,,,,,,,,,,,,,,,,,,,,,,,,,,,,,,,,,,,,,
77.000,.OH-LVB,,ENGM,,,,6,,,,G - Gnd (7),3,0.0,,U 0.70,L 0.4,264,1009,,,19.3,26.3,149,319,,20.5,,,,140,481,1.930,0.150,1.3,19.3,22.9,59.9,-2.8,-2.8,,,Gear down - ground (3),Gnd (1),,,Normal (0),Normal (0),Not Out (0),Not Out (0), 0.0, 0.0, 0.0, 0.0,U 0.2, 0.0,
77.250,,,,,,,,,,,,,,,U 0.70,,,,,,,,,,,,,,,,,,,,,,,,,,,,,,,,,,,,,,,,,
77.500,,,,,,,,,,,,,,,U 0.70,L 0.4,,,,,,,,,,,,,,,,,,,,,,,,,,,,,,,,Not Out (0),Not Out (0),,,,,,,
77.750,,,,,,,,,,,,,,,U 0.70,,,,,,,,,,,,,,,,,,,,,,,,,,,,,,,,,,,,,,,,,
78.000,,,,,,,,,,,G - Gnd (7),3,0.0,,U 0.70,L 0.4,264,,,E024 55.84,21.1,28.1,158,327,0,,0.00,,,139,481,0.021,0.152,1.5,19.3,23.9,59.9,-2.8,-2.8,F/CLSD (0),F/CLSD (0),Gear down - ground (3),Gnd (1),0.0,0.0,Normal (0),Normal (0),Not Out (0),Not Out (0), 0.0, 0.0, 0.0, 0.0,U 0.2, 0.0,
78.250,,,,,,,,,,,,,,,U 0.70,,,,,,,,,,,,,,,,,,,,,,,,,,,,,,,,,,,,,,,,,
78.500,,,,,,,,,,,,,,,U 0.70,L 0.4,,,,,,,,,,,,,,,,,,,,,,,,,,,,,,,,Not Out (0),Not Out (0),,,,,,,
78.750,,,,,,,,,,,,,,,U 0.70,,,,,,,,,,,,,,,,,,,,,,,,,,,,,,,,,,,,,,,,,
79.000,,,,,,,,,48,36,G - Gnd (7),3,0.0,,U 0.70,L 0.4,264,,,,23.6,30.4,163,328,,20.5,,,,139,481,0.025,0.154,1.8,19.3,25.3,59.9,-2.8,-2.8,,,Gear down - ground (3),Gnd (1),,,Normal (0),Normal (0),Not Out (0),Not Out (0), 0.0, 0.0, 0.0, 0.0,U 0.2, 0.0,
79.250,,,,,,,,,,,,,,,U 0.70,,,,,,,,,,,,,,,,,,,,,,,,,,,,,,,,,,,,,,,,,
79.500,,,,,,,,,,,,,,,U 0.70,L 0.4,,,,,,,,,,,,,,,,,,,,,,,,,,,,,,,,Not Out (0),Not Out (0),,,,,,,
79.750,,,,,,,,,,,,,,,U 0.70,,,,,,,,,,,,,,,,,,,,,,,,,,,,,,,,,,,,,,,,,
80.000,,A319 (5),,EFHK,FIN6EU  ,16,,13,,,G - Gnd (7),3,0.0,0.00,U 0.70,L 0.4,264,,N60 05.80,,25.7,32.6,203,327,,,,0.0,0,147,481,0.047,0.152,2.3,19.1,26.9,59.9,-2.8,-2.8,F/CLSD (0),F/CLSD (0),Gear down - ground (3),Gnd (1),0.0,0.0,Normal (0),Normal (0),Not Out (0),Not Out (0), 0.0, 0.0, 0.0, 0.0,U 0.2, 0.0,NOTCMD (0)
80.250,,,,,,,,,,,,,,,U 0.70,,,,,,,,,,,,,,,,,,,,,,,,,,,,,,,,,,,,,,,,,
80.500,,,,,,,,,,,,,,,U 0.70, 0.0,,,,,,,,,,,,,,,,,,,,,,,,,,,,,,,,Not Out (0),Not Out (0),,,,,,,
80.750,,,,,,,,,,,,,,,U 0.70,,,,,,,,,,,,,,,,,,,,,,,,,,,,,,,,,,,,,,,,,
81.000,.OH-LVB,,ENGM,,,,6,,,,G - Gnd (7),3,0.0,,U 0.70, 0.0,264,1009,,,27.8,34.6,261,327,,20.5,,,,166,481,0.061,0.152,2.8,19.1,28.6,59.9,-2.8,-2.8,,,Gear down - ground (3),Gnd (1),,,Normal (0),Normal (0),Not Out (0),Not Out (0), 0.0, 0.0, 0.0, 0.0,U 0.2, 0.0,
81.250,,,,,,,,,,,,,,,U 0.70,,,,,,,,,,,,,,,,,,,,,,,,,,,,,,,,,,,,,,,,,
81.500,,,,,,,,,,,,,,,U 0.70, 0.0,,,,,,,,,,,,,,,,,,,,,,,,,,,,,,,,Not Out (0),Not Out (0),,,,,,,
81.750,,,,,,,,,,,,,,,U 0.70,,,,,,,,,,,,,,,,,,,,,,,,,,,,,,,,,,,,,,,,,
82.000,,,,,,,,,,,G - Gnd (7),2,0.0,,U 0.70, 0.0,264,,,E024 55.84,29.5,36.5,261,327,0,,0.00,,,186,481,0.074,0.154,3.5,19.1,30.3,59.8,-2.8,-2.8,F/CLSD (0),F/CLSD (0),Gear down - ground (3),Gnd (1),0.0,0.0,Normal (0),Normal (0),Not Out (0),Not Out (0), 0.0, 0.0, 0.0, 0.0,U 0.2, 0.0,
82.250,,,,,,,,,,,,,,,U 0.70,,,,,,,,,,,,,,,,,,,,,,,,,,,,,,,,,,,,,,,,,
82.500,,,,,,,,,,,,,,,U 0.70, 0.0,,,,,,,,,,,,,,,,,,,,,,,,,,,,,,,,Not Out (0),Not Out (0),,,,,,,
82.750,,,,,,,,,,,,,,,U 0.70,,,,,,,,,,,,,,,,,,,,,,,,,,,,,,,,,,,,,,,,,
83.000,,,,,,,,,48,40,G - Gnd (7),2,0.0,,U 0.70, 0.0,264,,,,31.3,38.1,259,327,,20.5,,,,211,482,0.082,0.154,4.1,19.3,31.8,59.9,-2.8,-2.8,,,Gear down - ground (3),Gnd (1),,,Normal (0),Normal (0),Not Out (0),Not Out (0), 0.0, 0.0, 0.0, 0.0,U 0.2, 0.0,
83.250,,,,,,,,,,,,,,,U 0.70,,,,,,,,,,,,,,,,,,,,,,,,,,,,,,,,,,,,,,,,,
83.500,,,,,,,,,,,,,,,U 0.70, 0.0,,,,,,,,,,,,,,,,,,,,,,,,,,,,,,,,Not Out (0),Not Out (0),,,,,,,
83.750,,,,,,,,,,,,,,,U 0.70,,,,,,,,,,,,,,,,,,,,,,,,,,,,,,,,,,,,,,,,,
84.000,,A319 (5),,EFHK,FIN6EU  ,16,,13,,,G - Gnd (7),2,0.0,0.00,U 0.70, 0.0,264,,N60 05.80,,32.7,39.8,258,327,,,,0.0,0,235,482,0.090,0.152,4.9,19.4,33.3,59.8,-2.8,-2.8,F/CLSD (0),F/CLSD (0),Gear down - ground (3),Gnd (1),0.0,0.0,Normal (0),Normal (0),Not Out (0),Not Out (0), 0.0, 0.0, 0.0, 0.0,U 0.2, 0.0,NOTCMD (0)
84.250,,,,,,,,,,,,,,,U 0.70,,,,,,,,,,,,,,,,,,,,,,,,,,,,,,,,,,,,,,,,,
84.500,,,,,,,,,,,,,,,U 0.70, 0.0,,,,,,,,,,,,,,,,,,,,,,,,,,,,,,,,Not Out (0),Not Out (0),,,,,,,
84.750,,,,,,,,,,,,,,,U 0.70,,,,,,,,,,,,,,,,,,,,,,,,,,,,,,,,,,,,,,,,,
85.000,.OH-LVB,,ENGM,,,,6,,,,G - Gnd (7),2,0.0,,U 0.70, 0.0,264,1009,,,34.5,41.2,265,325,,20.5,,,,258,482,0.098,0.152,5.6,19.4,34.9,59.8,-2.8,-2.8,,,Gear down - ground (3),Gnd (1),,,Normal (0),Normal (0),Not Out (0),Not Out (0), 0.0, 0.0, 0.0, 0.0,U 0.2, 0.0,
85.250,,,,,,,,,,,,,,,U 0.35,,,,,,,,,,,,,,,,,,,,,,,,,,,,,,,,,,,,,,,,,
85.500,,,,,,,,,,,,,,,U 0.35, 0.0,,,,,,,,,,,,,,,,,,,,,,,,,,,,,,,,Not Out (0),Not Out (0),,,,,,,
85.750,,,,,,,,,,,,,,,U 0.35,,,,,,,,,,,,,,,,,,,,,,,,,,,,,,,,,,,,,,,,,
86.000,,,,,,,,,,,G - Gnd (7),2,0.0,,U 0.35, 0.0,264,,,E024 55.84,35.5,42.5,268,328,60707,,0.00,,,284,482,0.104,0.152,6.4,19.4,36.3,59.8,-2.8,-2.8,F/CLSD (0),F/CLSD (0),Gear down - ground (3),Gnd (1),0.0,0.0,Normal (0),Normal (0),Not Out (0),Not Out (0), 0.0, 0.0, 0.0, 0.0,U 0.2, 0.0,
86.250,,,,,,,,,,,,,,,U 0.35,,,,,,,,,,,,,,,,,,,,,,,,,,,,,,,,,,,,,,,,,
86.500,,,,,,,,,,,,,,,U 0.35, 0.0,,,,,,,,,,,,,,,,,,,,,,,,,,,,,,,,Not Out (0),Not Out (0),,,,,,,
86.750,,,,,,,,,,,,,,,U 0.35,,,,,,,,,,,,,,,,,,,,,,,,,,,,,,,,,,,,,,,,,
87.000,,,,,,,,,48,44,G - Gnd (7),2,0.0,,U 0.35, 0.0,264,,,,36.9,43.8,278,328,,20.5,,,,306,482,0.109,0.154,7.1,19.4,37.8,59.8,-2.8,-2.8,,,Gear down - ground (3),Gnd (1),,,Normal (0),Normal (0),Not Out (0),Not Out (0),U 1.3,U 0.9,U 1.0, 0.0,U 0.2, 0.0,
87.250,,,,,,,,,,,,,,,U 0.35,,,,,,,,,,,,,,,,,,,,,,,,,,,,,,,,,,,,,,,,,
87.500,,,,,,,,,,,,,,,U 0.35, 0.0,,,,,,,,,,,,,,,,,,,,,,,,,,,,,,,,Not Out (0),Not Out (0),,,,,,,
87.750,,,,,,,,,,,,,,,U 0.35,,,,,,,,,,,,,,,,,,,,,,,,,,,,,,,,,,,,,,,,,
88.000,,A319 (5),,EFHK,FIN6EU  ,16,,13,,,G - Gnd (7),2,0.0,0.00,U 0.35, 0.0,264,,N60 05.80,,37.6,44.7,283,328,,,,0.0,0,328,483,0.115,0.154,7.9,19.4,39.3,59.8,-2.8,-2.8,F/CLSD (0),F/CLSD (0),Gear down - ground (3),Gnd (1),0.0,0.0,Normal (0),Normal (0),Not Out (0),Not Out (0),U 0.2,U 0.6,U 0.4, 0.0,U 0.2, 0.0,NOTCMD (0)
88.250,,,,,,,,,,,,,,,U 0.35,,,,,,,,,,,,,,,,,,,,,,,,,,,,,,,,,,,,,,,,,
88.500,,,,,,,,,,,,,,,U 0.35, 0.0,,,,,,,,,,,,,,,,,,,,,,,,,,,,,,,,Not Out (0),Not Out (0),,,,,,,
88.750,,,,,,,,,,,,,,,U 0.35,,,,,,,,,,,,,,,,,,,,,,,,,,,,,,,,,,,,,,,,,
89.000,.OH-LVB,,ENGM,,,,6,,,,G - Gnd (7),2,0.0,,U 0.35, 0.0,264,1009,,,38.7,45.5,296,327,,20.5,,,,351,482,0.123,0.152,8.6,19.3,40.8,59.8,-2.8,-2.8,,,Gear down - ground (3),Gnd (1),,,Normal (0),Normal (0),Not Out (0),Not Out (0), 0.0, 0.0, 0.0, 0.0,U 0.2, 0.0,
89.250,,,,,,,,,,,,,,,U 0.35,,,,,,,,,,,,,,,,,,,,,,,,,,,,,,,,,,,,,,,,,
89.500,,,,,,,,,,,,,,,U 0.35, 0.0,,,,,,,,,,,,,,,,,,,,,,,,,,,,,,,,Not Out (0),Not Out (0),,,,,,,
89.750,,,,,,,,,,,,,,,U 0.35,,,,,,,,,,,,,,,,,,,,,,,,,,,,,,,,,,,,,,,,,
90.000,,,,,,,,,,,G - Gnd (7),1,0.0,,U 0.35, 0.0,264,,,E024 55.80,39.0,46.0,301,327,60707,,0.00,,,363,483,0.129,0.152,9.3,19.3,42.4,59.8,-2.8,-2.8,F/CLSD (0),F/CLSD (0),Gear down - ground (3),Gnd (1),0.0,0.0,Normal (0),Normal (0),Not Out (0),Not Out (0), 0.0, 0.0, 0.0, 0.0,U 0.2, 0.0,
90.250,,,,,,,,,,,,,,,U 0.35,,,,,,,,,,,,,,,,,,,,,,,,,,,,,,,,,,,,,,,,,
90.500,,,,,,,,,,,,,,,U 0.35, 0.0,,,,,,,,,,,,,,,,,,,,,,,,,,,,,,,,Not Out (0),Not Out (0),,,,,,,
90.750,,,,,,,,,,,,,,,U 0.35,,,,,,,,,,,,,,,,,,,,,,,,,,,,,,,,,,,,,,,,,
91.000,,,,,,,,,48,48,G - Gnd (7),1,0.0,,U 0.35, 0.0,264,,,,39.4,46.1,312,327,,20.5,,,,374,483,0.137,0.152,10.0,19.3,43.9,59.8,-2.8,-2.8,,,Gear down - ground (3),Gnd (1),,,Normal (0),Normal (0),Not Out (0),Not Out (0), 0.0, 0.0, 0.0, 0.0,U 0.2, 0.0,
91.250,,,,,,,,,,,,,,,U 0.35,,,,,,,,,,,,,,,,,,,,,,,,,,,,,,,,,,,,,,,,,
91.500,,,,,,,,,,,,,,,U 0.35, 0.0,,,,,,,,,,,,,,,,,,,,,,,,,,,,,,,,Not Out (0),Not Out (0),,,,,,,
91.750,,,,,,,,,,,,,,,U 0.35,,,,,,,,,,,,,,,,,,,,,,,,,,,,,,,,,,,,,,,,,
92.000,,A319 (5),,EFHK,FIN6EU  ,16,,13,,,G - Gnd (7),0,0.0,0.00,U 0.35, 0.0,264,,N60 05.80,,39.0,46.1,325,327,,,,0.0,0,387,483,0.145,0.152,10.6,19.1,45.3,59.8,-2.8,-2.8,F/CLSD (0),F/CLSD (0),Gear down - ground (3),Gnd (1),0.0,0.0,Normal (0),Normal (0),Not Out (0),Not Out (0), 0.0, 0.0, 0.0, 0.0,U 0.2, 0.0,NOTCMD (0)
92.250,,,,,,,,,,,,,,,U 0.35,,,,,,,,,,,,,,,,,,,,,,,,,,,,,,,,,,,,,,,,,
92.500,,,,,,,,,,,,,,,U 0.35, 0.0,,,,,,,,,,,,,,,,,,,,,,,,,,,,,,,,Not Out (0),Not Out (0),,,,,,,
92.750,,,,,,,,,,,,,,,U 0.35,,,,,,,,,,,,,,,,,,,,,,,,,,,,,,,,,,,,,,,,,
93.000,.OH-LVB,,ENGM,,,,6,,,,G - Gnd (7),0,0.0,,U 0.35, 0.0,264,1009,,,39.0,46.1,339,325,,20.5,,,,398,483,0.154,0.152,11.3,19.1,46.8,59.8,-2.8,-2.8,,,Gear down - ground (3),Gnd (1),,,Normal (0),Normal (0),Not Out (0),Not Out (0), 0.0, 0.0, 0.0, 0.0,U 0.2, 0.0,
93.250,,,,,,,,,,,,,,,U 0.35,,,,,,,,,,,,,,,,,,,,,,,,,,,,,,,,,,,,,,,,,
93.500,,,,,,,,,,,,,,,U 0.35, 0.0,,,,,,,,,,,,,,,,,,,,,,,,,,,,,,,,Not Out (0),Not Out (0),,,,,,,
93.750,,,,,,,,,,,,,,,U 0.35,,,,,,,,,,,,,,,,,,,,,,,,,,,,,,,,,,,,,,,,,
94.000,,,,,,,,,,,G - Gnd (7),0,0.0,,U 0.35, 0.0,264,,,E024 55.80,39.0,46.1,348,327,60707,,0.00,,,408,484,0.160,0.152,12.0,19.0,48.3,59.8,-2.8,-2.8,F/CLSD (0),F/CLSD (0),Gear down - ground (3),Gnd (1),0.0,0.0,Normal (0),Normal (0),Not Out (0),Not Out (0), 0.0, 0.0, 0.0, 0.0,U 0.2, 0.0,
94.250,,,,,,,,,,,,,,,U 0.35,,,,,,,,,,,,,,,,,,,,,,,,,,,,,,,,,,,,,,,,,
94.500,,,,,,,,,,,,,,,U 0.35, 0.0,,,,,,,,,,,,,,,,,,,,,,,,,,,,,,,,Not Out (0),Not Out (0),,,,,,,
94.750,,,,,,,,,,,,,,,U 0.35,,,,,,,,,,,,,,,,,,,,,,,,,,,,,,,,,,,,,,,,,
95.000,,,,,,,,,48,52,G - Gnd (7),0,0.0,,U 0.35, 0.0,264,,,,39.0,46.1,357,325,,20.5,,,,419,484,0.166,0.152,12.8,19.1,49.8,59.8,-2.8,-2.8,,,Gear down - ground (3),Gnd (1),,,Normal (0),Normal (0),Not Out (0),Not Out (0), 0.0, 0.0, 0.0, 0.0,U 0.2, 0.0,
95.250,,,,,,,,,,,,,,,U 0.35,,,,,,,,,,,,,,,,,,,,,,,,,,,,,,,,,,,,,,,,,
95.500,,,,,,,,,,,,,,,U 0.35, 0.0,,,,,,,,,,,,,,,,,,,,,,,,,,,,,,,,Not Out (0),Not Out (0),,,,,,,
95.750,,,,,,,,,,,,,,,U 0.35,,,,,,,,,,,,,,,,,,,,,,,,,,,,,,,,,,,,,,,,,
96.000,,A319 (5),,EFHK,FIN6EU  ,16,,13,,,G - Gnd (7),0,0.0,0.00,U 0.35, 0.0,264,,N60 05.80,,39.0,46.1,368,327,,,,0.0,0,427,484,0.170,0.152,13.5,19.3,51.3,59.8,-2.8,-2.8,F/CLSD (0),F/CLSD (0),Gear down - ground (3),Gnd (1),0.0,0.0,Normal (0),Normal (0),Not Out (0),Not Out (0), 0.0, 0.0, 0.0, 0.0,U 0.2, 0.0,NOTCMD (0)
96.250,,,,,,,,,,,,,,,U 0.35,,,,,,,,,,,,,,,,,,,,,,,,,,,,,,,,,,,,,,,,,
96.500,,,,,,,,,,,,,,,U 0.35, 0.0,,,,,,,,,,,,,,,,,,,,,,,,,,,,,,,,Not Out (0),Not Out (0),,,,,,,
96.750,,,,,,,,,,,,,,,U 0.35,,,,,,,,,,,,,,,,,,,,,,,,,,,,,,,,,,,,,,,,,
97.000,.OH-LVB,,ENGM,,,,6,,,,G - Gnd (7),0,0.0,,U 0.35, 0.0,264,1009,,,39.0,46.1,379,327,,20.5,,,,434,485,0.176,0.154,14.3,19.4,52.0,59.8,-2.8,-2.8,,,Gear down - ground (3),Gnd (1),,,Normal (0),Normal (0),Not Out (0),Not Out (0), 0.0, 0.0, 0.0, 0.0,U 0.2, 0.0,
97.250,,,,,,,,,,,,,,, 0.00,,,,,,,,,,,,,,,,,,,,,,,,,,,,,,,,,,,,,,,,,
97.500,,,,,,,,,,,,,,, 0.00, 0.0,,,,,,,,,,,,,,,,,,,,,,,,,,,,,,,,Not Out (0),Not Out (0),,,,,,,
97.750,,,,,,,,,,,,,,, 0.00,,,,,,,,,,,,,,,,,,,,,,,,,,,,,,,,,,,,,,,,,
98.000,,,,,,,,,,,G - Gnd (7),0,0.0,, 0.00, 0.0,264,,,E024 55.80,39.0,46.1,394,328,60707,,0.00,,,441,485,0.186,0.152,14.9,19.5,53.0,59.8,-2.8,-2.8,F/CLSD (0),F/CLSD (0),Gear down - ground (3),Gnd (1),0.0,0.0,Normal (0),Normal (0),Not Out (0),Not Out (0), 0.0, 0.0, 0.0, 0.0,U 0.2, 0.0,
98.250,,,,,,,,,,,,,,, 0.00,,,,,,,,,,,,,,,,,,,,,,,,,,,,,,,,,,,,,,,,,
98.500,,,,,,,,,,,,,,, 0.00, 0.0,,,,,,,,,,,,,,,,,,,,,,,,,,,,,,,,Not Out (0),Not Out (0),,,,,,,
98.750,,,,,,,,,,,,,,, 0.00,,,,,,,,,,,,,,,,,,,,,,,,,,,,,,,,,,,,,,,,,
99.000,,,,,,,,,48,56,G - Gnd (7),0,0.0,,D 0.35, 0.0,264,,,,39.0,46.1,405,328,,20.5,,,,448,486,0.189,0.152,15.5,19.6,54.0,59.8,-2.8,-2.8,,,Gear down - ground (3),Gnd (1),,,Normal (0),Normal (0),Not Out (0),Not Out (0), 0.0, 0.0, 0.0, 0.0,U 0.2, 0.0,
99.250,,,,,,,,,,,,,,,D 0.35,,,,,,,,,,,,,,,,,,,,,,,,,,,,,,,,,,,,,,,,,
99.500,,,,,,,,,,,,,,,D 0.35, 0.0,,,,,,,,,,,,,,,,,,,,,,,,,,,,,,,,Not Out (0),Not Out (0),,,,,,,
99.750,,,,,,,,,,,,,,,D 0.35,,,,,,,,,,,,,,,,,,,,,,,,,,,,,,,,,,,,,,,,,
100.000,,A319 (5),,EFHK,FIN6EU  ,16,,13,,,G - Gnd (7),0,0.0,0.00,D 0.35, 0.0,264,,N60 05.80,,39.0,46.1,408,327,,,,0.0,0,454,486,0.193,0.152,16.0,19.6,55.0,59.8,-2.8,-2.8,F/CLSD (0),F/CLSD (0),Gear down - ground (3),Gnd (1),0.0,0.0,Normal (0),Normal (0),Not Out (0),Not Out (0), 0.0, 0.0, 0.0, 0.0,U 0.2, 0.0,NOTCMD (0)
100.250,,,,,,,,,,,,,,,D 0.35,,,,,,,,,,,,,,,,,,,,,,,,,,,,,,,,,,,,,,,,,
100.500,,,,,,,,,,,,,,,D 0.35, 0.0,,,,,,,,,,,,,,,,,,,,,,,,,,,,,,,,Not Out (0),Not Out (0),,,,,,,
100.750,,,,,,,,,,,,,,,D 0.35,,,,,,,,,,,,,,,,,,,,,,,,,,,,,,,,,,,,,,,,,
101.000,.OH-LVB,,ENGM,,,,6,,,,G - Gnd (7),0,0.0,,D 0.35, 0.0,264,1009,,,39.0,46.1,414,328,,20.5,,,,460,486,0.197,0.154,16.5,19.6,56.0,59.8,-2.8,-2.8,,,Gear down - ground (3),Gnd (1),,,Normal (0),Normal (0),Not Out (0),Not Out (0), 0.0, 0.0, 0.0, 0.0,U 0.2, 0.0,
101.250,,,,,,,,,,,,,,,D 0.35,,,,,,,,,,,,,,,,,,,,,,,,,,,,,,,,,,,,,,,,,
101.500,,,,,,,,,,,,,,,D 0.35, 0.0,,,,,,,,,,,,,,,,,,,,,,,,,,,,,,,,Not Out (0),Not Out (0),,,,,,,
101.750,,,,,,,,,,,,,,,D 0.35,,,,,,,,,,,,,,,,,,,,,,,,,,,,,,,,,,,,,,,,,
102.000,,,,,,,,,,,G - Gnd (7),0,0.0,,D 0.70, 0.0,264,,,E024 55.80,39.0,46.1,424,327,60707,,0.00,,,464,486,0.205,0.152,17.1,19.8,57.0,59.8,-2.8,-2.8,F/CLSD (0),F/CLSD (0),Gear down - ground (3),Gnd (1),0.0,0.0,Normal (0),Normal (0),Not Out (0),Not Out (0), 0.0, 0.0, 0.0, 0.0,U 0.2, 0.0,
102.250,,,,,,,,,,,,,,,D 0.70,,,,,,,,,,,,,,,,,,,,,,,,,,,,,,,,,,,,,,,,,
102.500,,,,,,,,,,,,,,,D 0.70, 0.0,,,,,,,,,,,,,,,,,,,,,,,,,,,,,,,,Not Out (0),Not Out (0),,,,,,,
102.750,,,,,,,,,,,,,,,D 0.70,,,,,,,,,,,,,,,,,,,,,,,,,,,,,,,,,,,,,,,,,
103.000,,,,,,,,,49,0,G - Gnd (7),0,0.0,,D 0.70, 0.0,264,,,,39.0,46.1,441,327,,20.5,,,,469,487,0.213,0.152,17.8,19.6,58.1,59.8,-2.8,-2.8,,,Gear down - ground (3),Gnd (1),,,Normal (0),Normal (0),Not Out (0),Not Out (0), 0.0, 0.0, 0.0, 0.0,U 0.2, 0.0,
103.250,,,,,,,,,,,,,,,D 0.70,,,,,,,,,,,,,,,,,,,,,,,,,,,,,,,,,,,,,,,,,
103.500,,,,,,,,,,,,,,,D 0.70, 0.0,,,,,,,,,,,,,,,,,,,,,,,,,,,,,,,,Not Out (0),Not Out (0),,,,,,,
103.750,,,,,,,,,,,,,,,D 0.70,,,,,,,,,,,,,,,,,,,,,,,,,,,,,,,,,,,,,,,,,
104.000,,A319 (5),,EFHK,FIN6EU  ,16,,13,,,G - Gnd (7),0,0.0,0.00,D 0.70, 0.0,264,,N60 05.80,,39.0,46.1,448,328,,,,0.0,0,474,487,0.217,0.152,18.4,19.5,59.4,59.8,-2.8,-2.8,F/CLSD (0),F/CLSD (0),Gear down - ground (3),Gnd (1),0.0,0.0,Normal (0),Normal (0),Not Out (0),Not Out (0), 0.0, 0.0, 0.0, 0.0,U 0.2, 0.0,NOTCMD (0)
104.250,,,,,,,,,,,,,,,D 0.70,,,,,,,,,,,,,,,,,,,,,,,,,,,,,,,,,,,,,,,,,
104.500,,,,,,,,,,,,,,,D 0.70, 0.0,,,,,,,,,,,,,,,,,,,,,,,,,,,,,,,,Not Out (0),Not Out (0),,,,,,,
104.750,,,,,,,,,,,,,,,D 0.70,,,,,,,,,,,,,,,,,,,,,,,,,,,,,,,,,,,,,,,,,
105.000,.OH-LVB,,ENGM,,,,6,,,,G - Gnd (7),0,0.0,,D 0.70, 0.0,264,1009,,,39.4,46.1,457,332,,20.5,,,,477,487,0.213,0.152,19.0,19.5,60.4,59.8,-2.8,-2.8,,,Gear down - ground (3),Gnd (1),,,Normal (0),Normal (0),Not Out (0),Not Out (0), 0.0, 0.0, 0.0, 0.0,U 0.2, 0.0,
105.250,,,,,,,,,,,,,,,D 0.70,,,,,,,,,,,,,,,,,,,,,,,,,,,,,,,,,,,,,,,,,
105.500,,,,,,,,,,,,,,,D 0.70, 0.0,,,,,,,,,,,,,,,,,,,,,,,,,,,,,,,,Not Out (0),Not Out (0),,,,,,,
105.750,,,,,,,,,,,,,,,D 0.70,,,,,,,,,,,,,,,,,,,,,,,,,,,,,,,,,,,,,,,,,
106.000,,,,,,,,,,,G - Gnd (7),0,0.0,,D 0.70, 0.0,264,,,E024 55.80,39.4,46.1,390,330,60707,,0.00,,,481,488,0.172,0.154,19.5,19.5,60.6,59.8,-2.8,-2.8,F/CLSD (0),F/CLSD (0),Gear down - ground (3),Gnd (1),0.0,0.0,Normal (0),Normal (0),Not Out (0),Not Out (0), 0.0, 0.0, 0.0, 0.0,U 0.2, 0.0,
106.250,,,,,,,,,,,,,,,D 0.70,,,,,,,,,,,,,,,,,,,,,,,,,,,,,,,,,,,,,,,,,
106.500,,,,,,,,,,,,,,,D 0.70, 0.0,,,,,,,,,,,,,,,,,,,,,,,,,,,,,,,,Not Out (0),Not Out (0),,,,,,,
106.750,,,,,,,,,,,,,,,D 0.70,,,,,,,,,,,,,,,,,,,,,,,,,,,,,,,,,,,,,,,,,
107.000,,,,,,,,,49,4,G - Gnd (7),0,0.0,,D 0.70, 0.0,264,,,,39.4,46.1,343,328,,20.5,,,,480,488,0.148,0.152,19.6,19.6,60.5,59.8,-2.8,-2.8,,,Gear down - ground (3),Gnd (1),,,Normal (0),Normal (0),Not Out (0),Not Out (0), 0.0, 0.0, 0.0, 0.0,U 0.2, 0.0,
107.250,,,,,,,,,,,,,,,D 0.70,,,,,,,,,,,,,,,,,,,,,,,,,,,,,,,,,,,,,,,,,
107.500,,,,,,,,,,,,,,,D 0.70, 0.0,,,,,,,,,,,,,,,,,,,,,,,,,,,,,,,,Not Out (0),Not Out (0),,,,,,,
107.750,,,,,,,,,,,,,,,D 0.70,,,,,,,,,,,,,,,,,,,,,,,,,,,,,,,,,,,,,,,,,
108.000,,A319 (5),,EFHK,FIN6EU  ,16,,13,,,G - Gnd (7),0,0.0,0.00,D 0.70, 0.0,264,,N60 05.80,,39.4,46.1,323,327,,,,0.0,0,475,488,0.141,0.152,19.5,19.5,60.1,59.8,-2.8,-2.8,F/CLSD (0),F/CLSD (0),Gear down - ground (3),Gnd (1),0.0,0.0,Normal (0),Normal (0),Not Out (0),Not Out (0), 0.0, 0.0, 0.0, 0.0,U 0.2, 0.0,NOTCMD (0)
108.250,,,,,,,,,,,,,,,D 0.70,,,,,,,,,,,,,,,,,,,,,,,,,,,,,,,,,,,,,,,,,
108.500,,,,,,,,,,,,,,,D 0.70, 0.0,,,,,,,,,,,,,,,,,,,,,,,,,,,,,,,,Not Out (0),Not Out (0),,,,,,,
108.750,,,,,,,,,,,,,,,D 0.70,,,,,,,,,,,,,,,,,,,,,,,,,,,,,,,,,,,,,,,,,
109.000,.OH-LVB,,ENGM,,,,6,,,,G - Gnd (7),0,0.0,,D 0.70, 0.0,264,1009,,,39.4,46.1,323,323,,20.5,,,,470,488,0.141,0.152,19.4,19.5,60.0,59.8,-2.8,-2.8,,,Gear down - ground (3),Gnd (1),,,Normal (0),Normal (0),Not Out (0),Not Out (0), 0.0, 0.0, 0.0, 0.0,U 0.2, 0.0,
109.250,,,,,,,,,,,,,,,D 0.70,,,,,,,,,,,,,,,,,,,,,,,,,,,,,,,,,,,,,,,,,
109.500,,,,,,,,,,,,,,,D 0.70, 0.0,,,,,,,,,,,,,,,,,,,,,,,,,,,,,,,,Not Out (0),Not Out (0),,,,,,,
109.750,,,,,,,,,,,,,,,D 0.70,,,,,,,,,,,,,,,,,,,,,,,,,,,,,,,,,,,,,,,,,
110.000,,,,,,,,,,,G - Gnd (7),0,0.0,,D 0.70, 0.0,264,,,E024 55.80,39.4,46.1,336,337,60707,,0.00,,,467,490,0.150,0.168,19.3,19.5,59.8,59.8,-2.8,-2.8,F/CLSD (0),N/CLSD (1),Gear down - ground (3),Gnd (1),0.0,1.3,Normal (0),Normal (0),Not Out (0),Not Out (0), 0.0, 0.0, 0.0, 0.0,U 0.2, 0.0,
110.250,,,,,,,,,,,,,,,D 0.70,,,,,,,,,,,,,,,,,,,,,,,,,,,,,,,,,,,,,,,,,
110.500,,,,,,,,,,,,,,,D 0.70, 0.0,,,,,,,,,,,,,,,,,,,,,,,,,,,,,,,,Not Out (0),Not Out (0),,,,,,,
110.750,,,,,,,,,,,,,,,D 0.70,,,,,,,,,,,,,,,,,,,,,,,,,,,,,,,,,,,,,,,,,
111.000,,,,,,,,,49,8,G - Gnd (7),0,0.0,,D 0.70, 0.0,264,,,,39.4,46.1,354,356,,20.5,,,,467,495,0.160,0.178,19.3,19.5,59.8,59.8,-2.8,-2.8,,,Gear down - ground (3),Gnd (1),,,Normal (0),Normal (0),Not Out (0),Not Out (0), 0.0, 0.0, 0.0, 0.0,U 0.2, 0.0,
111.250,,,,,,,,,,,,,,,D 0.70,,,,,,,,,,,,,,,,,,,,,,,,,,,,,,,,,,,,,,,,,
111.500,,,,,,,,,,,,,,,D 0.70, 0.0,,,,,,,,,,,,,,,,,,,,,,,,,,,,,,,,Not Out (0),Not Out (0),,,,,,,
111.750,,,,,,,,,,,,,,,D 0.70,,,,,,,,,,,,,,,,,,,,,,,,,,,,,,,,,,,,,,,,,
112.000,,A319 (5),,EFHK,FIN6EU  ,16,,13,,,G - Gnd (7),0,0.0,0.00,D 0.70, 0.0,264,,N60 05.80,,39.4,46.1,366,370,,,,0.0,0,469,500,0.168,0.184,19.3,19.6,59.8,59.9,-2.8,-2.8,F/CLSD (0),N/CLSD (1),Gear down - ground (3),Gnd (1),0.0,4.5,Normal (0),Normal (0),Not Out (0),Not Out (0), 0.0, 0.0, 0.0, 0.0,U 0.2, 0.0,NOTCMD (0)
112.250,,,,,,,,,,,,,,,D 0.70,,,,,,,,,,,,,,,,,,,,,,,,,,,,,,,,,,,,,,,,,
112.500,,,,,,,,,,,,,,,D 0.70, 0.0,,,,,,,,,,,,,,,,,,,,,,,,,,,,,,,,Not Out (0),Not Out (0),,,,,,,
